timestamp,lat,lon,alt,x,y,roll,pitch,yaw,vel_x,vel_y,accel_x,accel_y,yaw_rate,right_engine,left_engine,wind_speed,wind_direction
32.7,-33.722763,150.674,0.46028447,0.20138876,0.040863343,-0.0017843393,0.015022204,0.6596848,0.053170387,0.039293427,0.016066646,0.0068274396,0.0023115056,0.0,0.0,-0.4107993,240.0
32.872,-33.722763,150.674,0.4628631,0.19976974,0.042863343,-0.0018553988,0.015000734,0.6599083,0.051453795,0.039544247,0.011851072,0.008326672,0.0024971473,0.0,0.0,-0.6943984,240.0
33.068,-33.722763,150.674,0.48068976,0.20331162,0.038681503,-0.0022582677,0.01471479,0.6603952,0.05450121,0.040062215,0.015855452,0.012375518,0.0019148737,0.0,0.0,-0.61051744,240.0
33.2,-33.722763,150.674,0.4892484,0.2091951,0.031211456,-0.0023207092,0.014542077,0.66075844,0.05826233,0.04005748,0.019860739,-0.00040964558,0.0018722714,0.0,0.0,-0.48413765,240.0
33.3,-33.722763,150.674,0.4931091,0.21647851,0.03242197,-0.0021586753,0.0145208305,0.66090363,0.05868336,0.041473586,0.016358629,0.0089034485,0.001359404,0.0,0.0,-0.26534322,240.0
33.5,-33.722763,150.674,0.48323822,0.22237293,0.035821162,-0.0017772691,0.015185332,0.660853,0.054826185,0.03848529,0.014955129,0.0028464776,0.00039140662,0.0,0.0,-0.27754936,240.0
33.6,-33.722763,150.674,0.47790515,0.231886,0.04776373,-0.0015893745,0.01492853,0.6609751,0.052166224,0.042236205,0.015066931,0.012243457,0.0017262776,0.0,0.0,-0.49874496,240.0
33.796,-33.722763,150.674,0.4684453,0.24028485,0.055631645,-0.001750404,0.014731667,0.66130275,0.05299108,0.044832803,0.012929006,0.0051361304,0.0031805632,0.0,0.0,-0.8516608,240.0
33.9,-33.722763,150.674,0.4598614,0.24877219,0.065707184,-0.001992838,0.01516568,0.661793,0.052835234,0.043237004,0.007541538,-8.753644e-05,0.0025161237,0.0,0.0,-0.54670405,240.0
34.0,-33.722763,150.674,0.45598912,0.25366133,0.076723434,-0.0015626578,0.015029128,0.6619895,0.04904216,0.045647457,0.009020014,0.0002882859,0.0017362799,0.0,0.0,-0.46177787,240.0
34.192,-33.72276,150.674,0.4523871,0.26528522,0.08855408,-0.0014220716,0.014342575,0.6622172,0.049580995,0.054658677,0.009043019,0.01167018,0.0015172414,0.0,0.0,-0.39535192,240.0
34.3,-33.72276,150.674,0.4421984,0.28690428,0.10208449,-0.0015418353,0.013237024,0.66252387,0.053047284,0.069853075,0.010649663,0.020976666,0.0005952457,1.0,-0.7633574,-0.221959,240.0
34.5,-33.72276,150.674,0.44549346,0.31782874,0.123589315,-0.001712221,0.012778384,0.64529854,0.20993204,0.5886271,1.8001888,5.2018194,-0.37411422,0.99999994,-0.19082779,-0.3917563,240.0
34.6,-33.72276,150.674,0.44943428,0.43679485,0.20750004,-0.0021593813,0.017668802,0.58372563,0.5205101,1.2680691,2.6838644,6.044067,-0.54510033,1.0,0.319515,-0.37812337,240.0
34.784,-33.722755,150.674,0.45928574,0.72431105,0.40269926,-0.0017668835,0.018497938,0.50168097,1.1841637,2.1996176,4.129462,6.87929,-0.40685707,0.7953646,0.65684485,-0.59565306,240.0
34.9,-33.72275,150.674,0.4625448,1.1362746,0.6630464,-0.000118603646,0.018555712,0.45193225,1.6217022,2.5824938,0.097931415,0.18607217,-0.15367927,0.36375248,0.29197145,0.6196989,240.0
35.0,-33.72275,150.67401,0.46210086,1.4973671,0.90043837,0.00076067174,0.01673211,0.44205624,1.630097,2.553291,-0.20359604,-0.22834778,-0.04200242,0.35761148,0.19044785,1.0706431,240.0
35.18,-33.722748,150.67401,0.46074104,1.8033434,1.0940005,2.2828206e-05,0.013475542,0.4337509,1.6415906,2.513849,-0.39702326,-0.5793875,-0.06477431,0.27438468,0.18332915,0.81010896,240.0
35.356,-33.722744,150.67401,0.454692,2.3216183,1.4134569,-0.0020377624,0.008061261,0.41630554,1.6631092,2.4395347,-0.42894614,-0.5753795,-0.009085945,0.2705536,0.20757984,1.1103044,240.0
35.5,-33.72274,150.67401,0.44246042,2.7575002,1.6897714,-0.0018961547,0.00863881,0.42124158,1.6279132,2.4134789,0.029563364,-0.03172939,0.042184386,0.33125988,0.18394408,1.352215,240.0
35.6,-33.722736,150.67401,0.4302143,3.123836,1.9252656,-0.00066117867,0.009660974,0.42699388,1.6107905,2.4109464,0.018415088,-0.121952415,-0.016508691,0.35114998,0.17479664,1.212932,240.0
35.776,-33.722733,150.67401,0.42208314,3.37789,2.085532,-0.00048146906,0.0086233225,0.42679304,1.6129425,2.409656,0.1931503,0.10190822,-0.009491681,0.35602957,0.16970368,1.2382789,240.0
35.972,-33.72273,150.67403,0.39928305,3.9004755,2.4048386,-0.0029557745,0.0036890432,0.41866735,1.6795733,2.4520955,0.08281737,0.14569384,-0.03032856,0.2909621,0.1746117,0.8819351,240.0
36.1,-33.722725,150.67403,0.38249648,4.383233,2.6953652,-0.0047058263,-0.00039587764,0.41150594,1.7131004,2.451678,-0.049588393,-0.047406383,-0.019823985,0.26222062,0.17531848,0.5187017,240.0
36.2,-33.72272,150.67403,0.37814283,4.72347,2.8904634,-0.0037393644,0.002356887,0.4075282,1.7249163,2.4249148,0.10597599,-0.38165796,-0.009233685,0.2768818,0.17668234,0.3630659,240.0
36.4,-33.722717,150.67403,0.3711717,5.0230317,3.0684557,-0.004269376,0.0007643689,0.40491155,1.7501099,2.440773,0.10341845,0.2322723,-0.009412735,0.2643797,0.1708031,0.16538334,240.0
36.568,-33.722713,150.67403,0.3543192,5.562847,3.4108856,-0.008069893,-0.009919154,0.4028488,1.791734,2.508087,-0.25962788,-0.28532693,-0.008421312,0.22927025,0.12098381,0.46665114,240.0
36.7,-33.72271,150.67404,0.34704566,5.9574347,3.6761162,-0.006101924,-0.0068670916,0.40184113,1.7595695,2.4699028,0.06516676,-0.04521555,-0.031697642,0.24485691,0.15642993,0.5539346,240.0
36.8,-33.722706,150.67404,0.34284914,6.2732964,3.880497,-0.0068563824,-0.0072776554,0.39830753,1.7768588,2.4805417,-0.014176458,-0.06339816,-0.026017737,0.23729745,0.14736637,0.71075755,240.0
36.9,-33.722706,150.67404,0.340194,6.500119,4.0356765,-0.0070528113,-0.007433554,0.3979881,1.771025,2.4748666,0.10012816,0.045174617,-0.009288985,0.26346925,0.12975714,0.92101437,240.0
37.096,-33.722702,150.67404,0.3431778,6.722077,4.184841,-0.006776873,-0.007146175,0.3966051,1.7693354,2.463954,0.029492382,0.02640289,-0.026724467,0.25531465,0.1482858,0.7994246,240.0
37.2,-33.7227,150.67404,0.34828818,7.067218,4.4088974,-0.004001171,-0.0025797174,0.39272922,1.7549019,2.4091012,0.1545648,0.13586068,-0.022607734,0.28109413,0.17544384,0.8291427,240.0
37.4,-33.7227,150.67404,0.36068058,7.232881,4.5134897,-0.0016591668,0.000703902,0.3896222,1.7529616,2.3780441,0.26085013,0.16097374,-0.0413121,0.27728695,0.20555311,0.99007237,240.0
37.5,-33.7227,150.67404,0.38042152,7.453458,4.646601,0.0005415193,0.0057804403,0.38652468,1.752078,2.3320801,0.57180256,0.40440944,-0.01356253,0.31365526,0.204723,0.7929991,240.0
37.688,-33.722694,150.67404,0.39494443,7.6724315,4.76388,0.00039500545,0.008405468,0.3876155,1.7605071,2.3043382,0.4559996,0.28019586,-0.024373762,0.3147483,0.21638037,0.812953,240.0
37.8,-33.72269,150.67404,0.40460193,7.9827228,4.930201,0.0013485993,0.010279984,0.3832847,1.7874169,2.2722106,0.37530583,0.24146928,-0.026339311,0.30726904,0.23025207,0.8410074,240.0
38.0,-33.72269,150.67406,0.41357017,8.169124,5.0287547,0.00254819,0.012066169,0.3800925,1.7970997,2.2467926,0.45955375,0.2755119,-0.0068390244,0.32171056,0.22897963,0.63362527,240.0
38.1,-33.722687,150.67406,0.42180705,8.475522,5.1717534,0.0031340534,0.014251118,0.37895373,1.8140483,2.214472,0.22375017,0.20188102,-0.013705155,0.32559124,0.23365934,0.5947259,240.0
38.284,-33.722687,150.67406,0.42970347,8.741324,5.302574,0.0033707193,0.0154585615,0.3782116,1.826021,2.198045,0.23650469,0.2281761,0.0019588494,0.32924405,0.23514803,0.8570658,240.0
38.4,-33.722683,150.67406,0.43812847,9.106613,5.488201,0.004339188,0.016575485,0.37584123,1.8388366,2.172833,0.17622341,0.15302229,-0.0060424823,0.33156455,0.24223126,0.7343372,240.0
38.6,-33.72268,150.67406,0.44138587,9.341891,5.608965,0.0048998315,0.017679255,0.37515843,1.8374506,2.151512,0.059407994,0.045696266,-0.008169099,0.3415523,0.24812886,0.70962346,240.0
38.7,-33.722675,150.67406,0.44937003,9.763458,5.8194647,0.0014023856,0.014857016,0.38123947,1.8734885,2.1931777,0.11690126,-0.0035003116,-0.012433918,0.34224784,0.19445097,0.90311605,240.0
38.876,-33.72267,150.67406,0.46036327,10.086536,5.978987,0.00021882594,0.013860758,0.3817791,1.8812805,2.186253,-0.0375545,-0.17153548,-0.034797452,0.3278058,0.20196077,0.95340383,240.0
39.0,-33.722668,150.67406,0.46023595,10.49414,6.1804442,0.0009579021,0.014764273,0.37429467,1.8995159,2.1535933,0.20981462,-0.041404642,-0.026164228,0.3205498,0.22235794,0.9406348,240.0
39.1,-33.722668,150.67406,0.4592005,10.812018,6.342817,0.0016437444,0.015264915,0.37059575,1.9058125,2.1359718,0.1126241,-0.005780136,-0.0120573705,0.33363044,0.21881664,0.6373501,240.0
39.3,-33.722664,150.67407,0.4681337,11.029537,6.459751,0.0017343564,0.01534606,0.36956286,1.9068104,2.1292343,0.07296125,0.056475643,-0.003154973,0.3381951,0.2185483,1.0159311,240.0
39.472,-33.72266,150.67407,0.49273562,11.532726,6.7342324,0.000273117,0.013757407,0.36921528,1.9389186,2.1598198,0.047015306,0.050167803,-0.00046135244,0.3285278,0.18390715,0.6714683,240.0
39.6,-33.722656,150.67407,0.5127455,11.9374275,6.9544578,-0.0007401163,0.012494033,0.36933455,1.9420376,2.159105,-0.08274316,-0.20088331,-0.035258923,0.31941777,0.19092913,0.99588007,240.0
39.7,-33.722652,150.67407,0.5190543,12.261936,7.1231227,-0.00043496123,0.012978025,0.36556327,1.9482799,2.139107,-0.12485531,-0.12619054,-0.04359118,0.31492996,0.20636271,0.82123274,240.0
39.9,-33.72265,150.67407,0.52484477,12.557837,7.280007,-0.0017439387,0.011018165,0.36255592,1.9736555,2.1509202,-0.0106584625,-0.1223498,-0.052488565,0.3005549,0.19500358,0.67481697,240.0
40.064,-33.722645,150.67407,0.54309225,13.006261,7.519335,-0.00085907005,0.011209964,0.3543515,1.9847193,2.1231601,-0.08709688,-0.15473396,-0.041039933,0.2936495,0.21760935,0.623101,240.0
40.196,-33.722645,150.67407,0.55402136,13.226938,7.635657,-0.00016755918,0.012554357,0.351595,1.9764204,2.101785,0.058768507,0.09037584,0.0014659441,0.32562783,0.20741722,0.9866688,240.0
40.3,-33.72264,150.67409,0.5669677,13.622448,7.831078,-3.770218e-05,0.013545851,0.3516243,1.9789337,2.0874963,0.29303688,0.0497981,0.0038744379,0.34079987,0.19946642,1.1688286,240.0
40.4,-33.722637,150.67409,0.5711936,13.842968,7.938562,-2.3318084e-05,0.01390383,0.35135463,1.9762954,2.0721,0.03977738,0.0214252,-0.0018505285,0.35118297,0.20103619,1.3679149,240.0
40.6,-33.722637,150.67409,0.5740837,14.187588,8.109222,-0.0010179237,0.012341458,0.35160753,2.002119,2.0904486,0.057420455,0.12156374,-0.013910399,0.3309812,0.19195585,1.5795661,240.0
40.792,-33.722633,150.67409,0.58083904,14.617621,8.310065,-0.0015616049,0.011210016,0.3489737,2.0189292,2.078049,-0.08059308,-0.08900831,-0.042030558,0.32043496,0.19696505,1.4030333,240.0
40.9,-33.72263,150.67409,0.5803586,15.019153,8.484781,-0.00060870504,0.01311204,0.34380847,2.0194805,2.0354865,0.010812482,-0.023236914,-0.025254201,0.33489475,0.208105,1.3574684,240.0
41.0,-33.722626,150.67409,0.5775937,15.260155,8.5945215,3.6691967e-05,0.014182074,0.34183142,2.016349,2.011858,0.06626427,-0.025818346,-0.024517968,0.3424277,0.22302847,1.4335868,240.0
41.188,-33.722626,150.67409,0.5752765,15.458692,8.686953,0.00026990232,0.014817239,0.34032786,2.0227687,2.0036094,0.43393552,0.12934588,-0.00025989822,0.3580327,0.20842479,1.2411271,240.0
41.384,-33.722622,150.67409,0.5733514,15.845583,8.855902,0.0002893726,0.01563125,0.33653462,2.0428758,1.9823707,0.3374556,0.14927751,-0.024650346,0.33792946,0.22816254,1.0539885,240.0
41.5,-33.72262,150.67409,0.5695125,16.143799,8.986561,0.0005524132,0.016164817,0.3322485,2.0537944,1.9584268,0.33471373,0.02086695,-0.023992537,0.35056722,0.22322692,0.99801385,240.0
41.6,-33.722614,150.67409,0.55515206,16.490456,9.144875,0.0011860006,0.017237296,0.32757595,2.0530567,1.9271864,0.36439693,0.1440117,0.011323316,0.35202777,0.24576223,1.04623,240.0
41.78,-33.722614,150.6741,0.5517998,16.680426,9.239121,0.001571109,0.017532524,0.3261719,2.0526967,1.9183363,0.117660075,0.058592148,-0.013209891,0.35819858,0.24521832,1.27112,240.0
41.98,-33.72261,150.6741,0.55236804,17.041536,9.416367,0.0019874927,0.018214079,0.32443026,2.049109,1.9055251,0.028342128,-0.064975,-0.009744577,0.37172395,0.243154,1.5823803,240.0
42.1,-33.722607,150.6741,0.54502594,17.448103,9.595513,0.0017519768,0.01871529,0.32582587,2.0512602,1.898764,0.16280414,0.012292436,-0.0073513803,0.39046317,0.23219486,1.4787835,240.0
42.2,-33.722603,150.6741,0.5429127,17.787106,9.73354,0.0013576038,0.017870707,0.3264088,2.0643935,1.8983411,-0.071501575,-0.12863854,-0.023218185,0.38032186,0.22581352,1.549299,240.0
42.4,-33.722603,150.6741,0.54041696,18.044418,9.8330345,0.0012040392,0.018074114,0.32643577,2.0701625,1.8935789,-0.00045277295,0.10004396,0.00071304914,0.39833346,0.20604953,1.5849599,240.0
42.572,-33.722595,150.6741,0.5367439,18.527374,10.029638,0.0013588085,0.018177155,0.32172734,2.0869515,1.8726557,0.0812606,-0.04251395,-0.022796871,0.38058916,0.22538123,1.5308975,240.0
42.7,-33.722595,150.6741,0.5354035,18.930218,10.198396,0.0014600956,0.018837411,0.31578547,2.094246,1.8479717,0.24380364,-0.03636752,-0.018201511,0.39031297,0.22736593,1.3124282,240.0
42.856,-33.72259,150.6741,0.53912437,19.222132,10.317641,0.0014442829,0.019486984,0.31262904,2.102008,1.8314832,0.36915797,0.14381255,-0.007325868,0.39032722,0.23224711,1.2653049,240.0
43.0,-33.722588,150.6741,0.5428188,19.610132,10.481629,0.0016320322,0.01853222,0.30848253,2.1255076,1.8244244,-0.03190085,-0.06317534,-0.041417547,0.3625095,0.24531247,1.1568769,240.0
43.168,-33.722584,150.67412,0.5583217,19.946968,10.622189,0.0017541635,0.019440876,0.30382714,2.132825,1.8066812,0.14699599,0.16011702,-0.014495233,0.38082442,0.23532501,1.0669944,240.0
43.3,-33.72258,150.67412,0.5659982,20.354591,10.797465,0.0022143733,0.01743522,0.30088732,2.1700265,1.8189268,0.2778581,-0.11047181,-0.03466927,0.34969345,0.23066838,1.0080234,240.0
43.496,-33.722576,150.67412,0.56820357,20.750103,10.967058,0.002581616,0.015908403,0.29837492,2.1861796,1.8187652,-0.20825253,-0.19017166,-0.036653843,0.3503042,0.2183551,0.86676985,240.0
43.6,-33.722572,150.67412,0.5786507,21.244114,11.1780615,0.0024369808,0.016745277,0.29215768,2.188276,1.7906227,-0.113057464,-0.09325308,-0.037615918,0.35781413,0.22274321,0.98367274,240.0
43.7,-33.72257,150.67412,0.58551395,21.503624,11.287357,0.0024194089,0.016904157,0.2889461,2.197383,1.7802762,0.30896905,-0.1056108,-0.043136235,0.35785222,0.22782874,1.0235924,240.0
43.9,-33.72257,150.67412,0.58971703,21.790483,11.411142,0.0027158312,0.01648143,0.2851711,2.2079659,1.7720023,0.038602293,-0.05910265,-0.018358178,0.3858872,0.19730753,1.3217138,240.0
44.092,-33.722565,150.67412,0.5966271,22.303955,11.6385145,0.003529345,0.015509775,0.28162518,2.2358263,1.7784709,0.026329173,0.08057233,0.034062963,0.2925424,0.26631552,1.3562537,240.0
44.2,-33.722557,150.67412,0.60252535,22.796404,11.845933,0.004122175,0.013431176,0.29078194,2.2333663,1.8052477,0.0062080915,-0.028694462,0.046790946,0.3286461,0.21274218,1.1051567,240.0
44.3,-33.722557,150.67412,0.60051024,23.096178,11.976726,0.003866374,0.01409302,0.29314476,2.2112467,1.7955086,-0.059556495,0.0018147748,0.04458411,0.35203966,0.21162024,0.9629664,240.0
44.5,-33.722553,150.67413,0.60238934,23.333876,12.0744295,0.0034184204,0.01504359,0.2953141,2.1955225,1.7841111,-0.04360859,-0.09260976,0.0010619817,0.34467703,0.23710771,1.2538924,240.0
44.684,-33.72255,150.67413,0.62388635,23.776611,12.244734,0.0029348552,0.016197195,0.29743275,2.183405,1.7685386,0.0084265685,0.029123023,0.014689622,0.36356723,0.2342521,1.3888996,240.0
44.8,-33.722546,150.67413,0.64010775,24.189802,12.393416,0.0025872136,0.01660349,0.3006986,2.171297,1.7539917,-0.04681882,-0.031569302,0.00037019307,0.38552976,0.22695613,1.7250371,240.0
44.9,-33.722546,150.67413,0.64848995,24.438274,12.485747,0.0024273554,0.016961766,0.30165952,2.172229,1.7488216,0.06739343,-0.058184743,-0.01964861,0.39357373,0.22374585,1.8700793,240.0
45.1,-33.72254,150.67413,0.65178716,24.687885,12.585385,0.0023807993,0.017312648,0.3001749,2.1718946,1.7407174,0.24970599,0.09385496,-0.010253894,0.39375532,0.22956334,1.7379881,240.0
45.28,-33.722538,150.67413,0.6486373,25.212654,12.793892,0.0040791533,0.014796992,0.2973548,2.2212267,1.7622939,0.12650377,-0.050107673,-0.014448473,0.36262137,0.20891853,1.5549885,240.0
45.4,-33.722534,150.67413,0.64750636,25.663212,12.967954,0.0043900935,0.01431612,0.29433942,2.233107,1.7573774,0.07325329,0.1434925,-0.0068804426,0.35339478,0.21237227,1.3242825,240.0
45.564,-33.72253,150.67413,0.6535976,25.980423,13.089372,0.0040328195,0.01489484,0.29262638,2.226194,1.7436808,0.11665484,0.12371842,0.00594111,0.35687912,0.22284138,1.4252765,240.0
45.7,-33.722527,150.67413,0.66894627,26.368765,13.230667,0.004335517,0.014421065,0.29096448,2.2394574,1.7388663,-0.01612349,-0.09662663,-0.022897316,0.35166126,0.22105448,1.43665,240.0
45.872,-33.722523,150.67413,0.6791899,26.758402,13.365446,0.004440227,0.014313911,0.28943485,2.2471066,1.7298557,-0.0043099145,0.024420287,-0.008208077,0.34621793,0.22494978,1.3875282,240.0
46.0,-33.72252,150.67415,0.69247043,27.171005,13.516958,0.0042668693,0.0144561725,0.28780195,2.2501009,1.7184864,-0.0019085498,-0.065089464,-0.016723547,0.34584588,0.22962719,1.3630071,240.0
46.2,-33.722515,150.67415,0.7022532,27.510422,13.639831,0.0037342557,0.015272399,0.28732592,2.2464218,1.7070993,0.008761387,0.0377227,-0.0025150732,0.35076824,0.23251183,1.3960142,240.0
46.3,-33.72251,150.67415,0.70802975,27.933279,13.798302,0.00311243,0.015956314,0.28628516,2.2432735,1.6922562,0.009712424,0.008997506,-0.0041809822,0.35716683,0.23831646,1.202923,240.0
46.468,-33.72251,150.67415,0.7077168,28.19098,13.904105,0.0038683978,0.015450327,0.28488064,2.2609372,1.699105,0.064612135,-0.05277372,-0.021506378,0.3337107,0.2441406,1.2304214,240.0
46.652,-33.722507,150.67415,0.70228696,28.617,14.068227,0.004033065,0.015302819,0.28325865,2.2622666,1.6908085,0.14635324,0.17032331,-0.011006573,0.34737286,0.23513952,1.0984226,240.0
46.796,-33.722504,150.67415,0.7014992,28.914404,14.187278,0.0036824842,0.015905436,0.2821226,2.2613792,1.6843928,-0.17248535,0.06751558,0.0011500409,0.34899247,0.23746027,1.1201999,240.0
46.9,-33.7225,150.67415,0.6916249,29.349186,14.362414,0.0038611803,0.015760554,0.28011298,2.2680469,1.6765221,0.0796625,-0.0014738045,-0.0038819823,0.34766483,0.2383566,0.9237587,240.0
47.1,-33.722496,150.67415,0.6921892,29.605469,14.463886,0.0033448106,0.01621429,0.2789241,2.2665644,1.666598,0.18620768,0.18062256,0.00078347645,0.34981573,0.24313295,0.9880056,240.0
47.2,-33.722496,150.67415,0.6971121,29.945946,14.60442,0.0026305642,0.016593799,0.27681074,2.270246,1.6551262,0.38213292,-0.06347452,-0.020626998,0.34949517,0.2477467,0.78438836,240.0
47.392,-33.722492,150.67415,0.6914308,30.25935,14.738719,0.0020967473,0.017477216,0.27427226,2.2676256,1.6422926,0.01744684,-0.00308636,-0.018848263,0.34997916,0.25669837,0.4721193,240.0
47.5,-33.72249,150.67416,0.6745188,30.679783,14.90327,0.0019233989,0.017963776,0.27144152,2.2802534,1.6332018,0.050669365,-0.0052032326,-0.017570242,0.3430318,0.2588044,0.6234719,240.0
47.7,-33.722485,150.67416,0.66519356,30.973932,15.0177145,0.0024730093,0.017279198,0.27066958,2.2891428,1.6328278,-0.020418238,-0.08292743,-0.01753001,0.3404397,0.25461754,0.6461184,240.0
47.8,-33.72248,150.67416,0.65336704,31.36526,15.168833,0.002413064,0.017900027,0.26969492,2.287324,1.6284494,0.1664209,-0.004325969,0.0058450256,0.34315553,0.25552878,0.5936327,240.0
47.984,-33.722477,150.67416,0.6431693,31.69546,15.288834,0.0019990355,0.01822802,0.2688248,2.2876728,1.6212425,-0.026367158,0.21389371,-0.011794071,0.34644872,0.2565686,0.7213144,240.0
48.1,-33.722473,150.67416,0.63433254,32.147854,15.443144,0.0016167414,0.018314809,0.2671395,2.2979987,1.607628,0.18860832,0.058802158,-0.0050812652,0.34387854,0.25790855,0.72019,240.0
48.3,-33.722473,150.67416,0.6332246,32.435287,15.546435,0.0015003827,0.018418228,0.26547378,2.2989528,1.5979391,0.20339996,0.0117582455,0.0009236953,0.34314483,0.26335698,0.34738567,240.0
48.4,-33.72247,150.67416,0.63880885,32.88245,15.705518,0.0014302859,0.018791553,0.2636943,2.2996671,1.5849051,0.21288726,0.18969183,0.0038161576,0.3451496,0.26937714,0.5512505,240.0
48.58,-33.722466,150.67416,0.6453588,33.153168,15.80281,0.0012513901,0.018891627,0.26294184,2.3011284,1.5775175,0.054884925,0.040508863,0.0038374676,0.3465559,0.26918322,0.5157733,240.0
48.728,-33.72246,150.67416,0.6665578,33.668274,15.997048,0.0050023426,0.016256122,0.25992647,2.3500896,1.5967048,-0.27424765,-0.19835782,-0.012363603,0.31766823,0.2478244,0.6550537,240.0
48.9,-33.722458,150.67416,0.69383,34.15335,16.176363,0.006131108,0.015292653,0.26049325,2.3524084,1.6055211,-0.34120062,-0.022465603,0.007997574,0.3349079,0.22493112,0.9134647,240.0
49.0,-33.722454,150.67418,0.72674096,34.584938,16.334566,0.005477686,0.0156047335,0.26077044,2.342574,1.599072,-0.08421332,-0.02975029,0.0018224082,0.33527663,0.2350187,0.7325177,240.0
49.172,-33.72245,150.67418,0.7429035,34.832634,16.424095,0.0049951077,0.015884371,0.26082912,2.3402853,1.5961943,0.11290077,-0.07709155,-0.017511614,0.3407286,0.23286882,0.862719,240.0
49.372,-33.722446,150.67418,0.7546501,35.335518,16.605316,0.004418412,0.01631921,0.25802186,2.3403864,1.5821114,0.008912433,-0.035475366,-0.025745956,0.32590252,0.25564975,0.6696681,240.0
49.5,-33.722443,150.67418,0.7614212,35.744892,16.743093,0.003995451,0.016650014,0.2557596,2.3486993,1.5713606,0.15236187,0.06346432,-0.0075650723,0.33714074,0.24336343,0.6105347,240.0
49.652,-33.72244,150.67418,0.7573788,36.076557,16.853693,0.0035923666,0.016804758,0.25359884,2.3510418,1.560034,0.24716258,-0.04650209,-0.02143762,0.32231593,0.2626679,0.49625984,240.0
49.8,-33.722435,150.67418,0.7507696,36.519283,17.007185,0.005390684,0.015950436,0.24947493,2.3909957,1.5644851,0.13433205,0.06999737,-0.009659827,0.29635444,0.26057443,0.08775775,240.0
49.964,-33.72243,150.67418,0.7512653,36.899025,17.137392,0.00653908,0.014600184,0.24626572,2.4068992,1.5604372,0.052958712,-0.049163748,0.002907751,0.2966562,0.24313396,0.17530292,240.0
50.096,-33.72243,150.67418,0.7515764,37.175617,17.226885,0.0060218214,0.014507347,0.2465101,2.4000638,1.5525318,-0.15852681,-0.079832286,0.0064643426,0.30509418,0.24434525,0.14461853,240.0
50.296,-33.722424,150.67418,0.75416064,37.68671,17.406248,0.0053481213,0.015698941,0.2475999,2.3890512,1.548866,0.06194347,0.045573186,0.0061839256,0.3225863,0.23841572,0.49380416,240.0
50.4,-33.72242,150.67418,0.7500634,38.098602,17.5609,0.005919254,0.015465515,0.24632132,2.3916066,1.55011,-0.094715856,-0.09693626,-0.018600421,0.32312858,0.23356424,0.49779707,240.0
50.5,-33.72242,150.6742,0.743834,38.424713,17.679888,0.005167868,0.016382916,0.24570884,2.3777187,1.5430261,-0.06676443,-0.051527984,-0.014104367,0.33571237,0.23822908,0.7517064,240.0
50.692,-33.722416,150.6742,0.7406043,38.669598,17.771885,0.004701196,0.017067963,0.24527924,2.3746321,1.5424691,0.07745777,0.05576248,-0.011523849,0.34057498,0.23652315,0.79881793,240.0
50.888,-33.722412,150.6742,0.7409916,39.091114,17.928097,0.004316445,0.017666565,0.24318863,2.3692513,1.5361766,0.21312161,0.0372452,-0.0046421336,0.34592614,0.23976937,0.8211427,240.0
51.0,-33.72241,150.6742,0.7506571,39.518593,18.077845,0.0039856965,0.018115656,0.2406475,2.3739207,1.5296713,0.07272069,0.06961024,-0.014180495,0.32725897,0.25901374,0.71970767,240.0
51.1,-33.722404,150.6742,0.7549577,39.894043,18.206673,0.004720009,0.017413635,0.2378383,2.388538,1.5278412,0.14406775,0.0060194894,-0.009555388,0.33468953,0.24053678,0.7435744,240.0
51.284,-33.7224,150.6742,0.7592144,40.16034,18.29637,0.004689275,0.017538456,0.23656826,2.3884063,1.5227251,-0.024835508,0.027044715,-0.0048148963,0.33598784,0.2422938,0.57152104,240.0
51.484,-33.722397,150.6742,0.7597282,40.594624,18.454464,0.0041905143,0.01821896,0.2352316,2.3854675,1.5196793,-0.052358367,-0.033278994,-0.020038856,0.3311276,0.2518368,0.53315693,240.0
51.6,-33.722393,150.6742,0.75752664,41.06136,18.609993,0.0038277307,0.018466234,0.23243657,2.3966146,1.5128301,-0.008551871,-0.06823932,-0.029623885,0.34428298,0.24228702,0.49430835,240.0
51.7,-33.72239,150.6742,0.75738907,41.4615,18.740786,0.006192937,0.01654106,0.22801016,2.4303615,1.5133132,-0.14804967,-0.07679771,-0.017644804,0.31486803,0.23527162,0.66940576,240.0
51.88,-33.72239,150.6742,0.7602773,41.756508,18.841179,0.0067546656,0.01612342,0.22638264,2.437482,1.5126686,0.059577394,-0.13010621,-0.015276399,0.31182593,0.23323423,0.7846407,240.0
52.076,-33.72238,150.6742,0.78221464,42.28136,19.016134,0.0060690143,0.016474985,0.22602338,2.421179,1.5007684,-0.14943661,-0.0916396,-0.015783934,0.3296754,0.2334564,0.9063077,240.0
52.2,-33.722378,150.67421,0.78830695,42.716057,19.163887,0.0061522163,0.016730012,0.22503643,2.4239252,1.4974153,0.11496508,-0.020398779,-0.0019844957,0.3369787,0.22762273,0.92899686,240.0
52.3,-33.722378,150.67421,0.7917161,43.047848,19.277739,0.006309228,0.016819358,0.22396983,2.4346988,1.4967536,0.15034364,-0.04111982,-0.015376196,0.33585358,0.22003625,1.1859952,240.0
52.5,-33.722374,150.67421,0.7903788,43.505352,19.428864,0.008690909,0.014572988,0.21943055,2.4729173,1.4968879,-0.19536704,-0.08627904,-0.021520777,0.30088747,0.22209062,1.0684026,240.0
52.672,-33.72237,150.67421,0.7968371,43.89624,19.550268,0.008461996,0.014447411,0.21779604,2.4723792,1.4864414,0.029259913,0.04481175,0.003477251,0.31789643,0.2125513,1.133782,240.0
52.8,-33.722366,150.67421,0.80399036,44.288864,19.66077,0.0068189055,0.015187587,0.21738106,2.4569829,1.4615333,-0.08470615,-0.06713334,-0.015688237,0.33451575,0.2204693,1.1334026,240.0
53.0,-33.722363,150.67421,0.8068564,44.666683,19.765692,0.006190036,0.015775796,0.21674183,2.4552598,1.4436767,0.2292,0.13558508,-0.004475838,0.34216797,0.22425282,1.3220081,240.0
53.1,-33.72236,150.67421,0.81762147,45.09507,19.889399,0.005588773,0.016457196,0.21551168,2.4555042,1.4255995,0.18960284,-0.2717906,0.011865774,0.34827787,0.22404808,1.4289783,240.0
53.264,-33.722355,150.67421,0.8251045,45.335457,19.963568,0.0057005417,0.016105546,0.21481687,2.4666314,1.4243582,-0.011552507,-0.059188336,-0.022389531,0.33268487,0.23047388,1.2761142,240.0
53.4,-33.72235,150.67421,0.82592964,45.70278,20.08351,0.0073453053,0.014929473,0.21191688,2.4891014,1.4247153,-0.06969232,-0.015026176,-0.0072382307,0.33536363,0.20830561,1.3961252,240.0
53.596,-33.722347,150.67421,0.82155585,46.11273,20.220734,0.007100523,0.015464063,0.2097067,2.4925277,1.41837,0.20357144,-0.10288107,-0.028846158,0.32311195,0.22198348,1.4147652,240.0
53.7,-33.722343,150.67421,0.8297708,46.56469,20.357979,0.0055319644,0.016227774,0.20707558,2.477206,1.3894484,0.10693983,-0.0494592,-0.030076321,0.33640218,0.23571871,1.4162565,240.0
53.9,-33.722343,150.67421,0.83497405,46.811703,20.44894,0.0050104684,0.017119238,0.20518263,2.4786413,1.3816901,0.2750459,0.08009128,-0.014477046,0.35833263,0.21649575,1.1911013,240.0
54.0,-33.72234,150.67422,0.8367634,47.086056,20.559383,0.0045903614,0.018283159,0.20173554,2.4765813,1.3722436,0.11785948,0.20869613,-0.0295364,0.3509775,0.23033705,1.1011039,240.0
54.188,-33.722336,150.67422,0.83512115,47.44951,20.690683,0.0039189756,0.01913611,0.19740045,2.4770632,1.3518776,0.18366286,0.08553125,-0.016795052,0.3668974,0.22538203,0.99080765,240.0
54.3,-33.722332,150.67422,0.8281839,47.8344,20.81906,0.003030923,0.019924559,0.19293587,2.4791994,1.3272648,0.039492387,-0.0023245562,-0.017623886,0.37088993,0.23143002,1.1195908,240.0
54.496,-33.722332,150.67422,0.82223487,48.10108,20.900806,0.0025371378,0.02003323,0.19008128,2.484148,1.3103306,0.02051648,-0.055602927,-0.038955197,0.34610686,0.25981632,0.96441513,240.0
54.6,-33.72233,150.67422,0.8230839,48.433613,21.003208,0.0018818803,0.021180874,0.1855651,2.4871142,1.2873046,0.29294926,0.055337913,-0.014691875,0.36902338,0.24522991,0.9767164,240.0
54.784,-33.722324,150.67422,0.8259063,48.7553,21.10473,0.0015494167,0.021341223,0.18256782,2.4892604,1.2695664,0.19836138,-0.030327452,-0.03439381,0.35207012,0.26832697,1.1422455,240.0
54.9,-33.72232,150.67422,0.8202636,49.183434,21.231295,0.0010723837,0.021914823,0.17961238,2.493915,1.248273,0.044545956,0.4250942,-0.02361455,0.36455902,0.26080933,1.041392,240.0
55.1,-33.722317,150.67422,0.81672525,49.472466,21.309975,0.00081083685,0.02245055,0.17785661,2.501848,1.2337304,0.24761476,-0.023978235,-0.024759114,0.36524156,0.25887772,1.0376639,240.0
55.2,-33.722313,150.67422,0.8106954,50.008614,21.446432,0.0022772762,0.019685378,0.17139849,2.5589218,1.2193637,0.027684983,-0.2820758,-0.016699066,0.3367576,0.24606256,0.5941828,240.0
55.376,-33.72231,150.67422,0.8128269,50.380943,21.530045,0.002565378,0.018987708,0.16737935,2.5737853,1.2004472,0.1263267,-0.086903445,-0.006750654,0.33769262,0.23647274,0.58763814,240.0
55.5,-33.722305,150.67422,0.8090954,50.83325,21.6405,0.0020130614,0.01977487,0.16590084,2.5659509,1.1789848,-0.07716657,-0.046615843,-0.011705566,0.35301095,0.236365,0.89412546,240.0
55.7,-33.7223,150.67422,0.810519,51.258602,21.74705,0.0018662281,0.019561231,0.16422383,2.5719366,1.1628326,0.16682245,-0.16354717,-0.018400013,0.35962,0.23205695,1.0540417,240.0
55.8,-33.722298,150.67422,0.8030038,51.727005,21.88287,0.0021343238,0.019726817,0.1606672,2.578948,1.1509962,0.18166023,-0.12354041,-0.0045842547,0.3664177,0.2227282,1.1329154,240.0
55.972,-33.722294,150.67424,0.7931311,52.028896,21.970354,0.00325075,0.01800817,0.15793343,2.6122768,1.1538832,-0.10880866,-0.08280642,-0.031145645,0.3383903,0.21994813,1.2004958,240.0
56.168,-33.72229,150.67424,0.7820921,52.6141,22.136612,0.0038455655,0.016696678,0.15117493,2.6302152,1.138803,-0.13111088,-0.04430364,-0.037635196,0.32641637,0.222484,0.8305204,240.0
56.3,-33.722286,150.67424,0.78122234,53.03979,22.268585,0.003603744,0.017607935,0.14477822,2.6307476,1.1200802,-0.07981939,-0.11382513,-0.051958993,-1.0,-0.93764925,0.77459866,240.0
56.452,-33.722282,150.67424,0.77621627,53.350273,22.365059,0.0036409816,0.016524432,0.14163187,2.2775536,1.0045865,-2.3693635,-0.74449104,-0.003946681,-1.0,-1.0,0.74003226,240.0
56.6,-33.722282,150.67424,0.77287555,53.59764,22.442709,0.0030351887,0.01525906,0.14346159,1.9687289,0.9093163,-1.838133,-0.60075384,0.01828112,-1.0,1.0,0.5170741,240.0
56.7,-33.72228,150.67424,0.76335406,53.85424,22.526579,0.002074858,0.015831908,0.16746777,2.1399364,1.0221989,3.6293423,0.796349,0.3464146,-0.5843024,-1.0,0.8001306,240.0
56.896,-33.72228,150.67424,0.7571523,54.054996,22.584782,0.002268971,0.020752685,0.19668448,1.9720495,1.0224473,-1.8315203,-0.81860715,0.2350511,-0.71793866,-1.0,0.82235605,240.0
57.0,-33.722275,150.67424,0.7579086,54.400898,22.680056,0.0021649958,0.015964067,0.24552312,2.0106382,1.1769563,3.4043224,2.0736237,0.4806922,-0.42316934,-1.0,0.72420126,240.0
57.2,-33.72227,150.67424,0.7585535,54.63892,22.74867,0.0024628534,0.015478715,0.28935152,1.8043685,1.1633737,3.544202,2.3541915,0.2741592,-1.0,1.0,0.7145633,240.0
57.3,-33.722267,150.67424,0.7412993,54.992603,22.840704,0.002015428,0.019529527,0.35117352,1.7981751,1.3277282,-1.6017219,-1.2931594,0.25602886,-0.6589617,-1.0,0.7388584,240.0
57.488,-33.722267,150.67424,0.735767,55.193474,22.891512,0.001474391,0.017191084,0.38525802,1.7986947,1.4557555,-1.899551,-1.5696287,0.35702297,-0.57157236,-0.99999994,0.51507735,240.0
57.6,-33.722263,150.67424,0.73095953,55.51684,22.985329,0.0013103045,0.019655438,0.44639102,1.6902472,1.595829,2.1664758,2.5085108,0.41355148,-0.50373816,-1.0,0.7830406,240.0
57.8,-33.722263,150.67424,0.72207236,55.748646,23.059206,0.0017640874,0.022518108,0.4897684,1.5118853,1.5462501,-1.176664,-1.487475,0.27230287,-1.0,1.0,0.5731366,240.0
57.9,-33.72226,150.67424,0.71596944,56.129047,23.193323,0.0017278715,0.014362928,0.56170917,1.37971,1.7064042,-1.1016233,-1.8248572,0.29077575,-1.0,1.0,0.81074625,240.0
58.084,-33.722256,150.67424,0.72133005,56.34127,23.266397,0.0010761577,0.02101429,0.5989196,1.3660947,1.9741098,-1.0539922,-2.0885882,0.39205253,-0.52953696,-1.0,0.72505146,240.0
58.2,-33.722256,150.67426,0.72746384,56.66695,23.389303,0.0007258988,0.021287352,0.6610025,1.1731002,2.0718977,0.19756456,2.831697,0.456652,-0.45201758,-1.0,0.80813676,240.0
58.4,-33.72225,150.67426,0.7270911,56.94574,23.505508,0.0011651977,0.02034215,0.714808,0.9718629,1.9927977,0.19352832,4.1220574,0.38450766,-1.0,1.0,1.1233224,240.0
58.5,-33.722248,150.67426,0.7053813,57.263916,23.658615,0.0016509538,0.018670013,0.7840982,0.75703335,1.9940197,-0.43021464,-2.0290365,0.29853642,-1.0,1.0,1.2060324,240.0
58.676,-33.722248,150.67426,0.6955861,57.46778,23.772182,0.0029811023,0.02287106,0.82108897,0.60523486,2.3387594,-0.672781,2.8507855,0.45657572,-0.4521091,-1.0,1.5221769,240.0
58.876,-33.722244,150.67426,0.68107045,57.86954,24.017572,0.005259144,0.019973846,0.90596217,0.283251,2.445647,0.15187687,-2.4606566,0.5095642,-0.47050616,-1.0,1.4228088,240.0
59.0,-33.72224,150.67426,0.67567456,58.332382,24.31422,0.01519251,0.0075739184,0.95195204,0.09239189,2.5390892,-2.0501237,3.5375636,0.4599534,-0.6216123,-1.0,1.2788024,240.0
59.1,-33.722237,150.67426,0.679978,58.61717,24.509264,0.014561105,0.007142425,0.99889964,-0.02285716,2.3889081,0.19017978,-1.7244422,0.27248254,-1.0,1.0,1.1942922,240.0
59.3,-33.722233,150.67426,0.6797017,58.839287,24.667488,0.011524122,0.012811424,1.0431557,-0.22555117,2.4101021,0.34366164,-1.6619595,0.31246674,-0.60430145,-1.0,1.2874074,240.0
59.468,-33.722233,150.67427,0.6728127,59.18551,24.942652,0.013595696,0.005797399,1.0954791,-0.5469957,2.5039093,0.76472193,-1.7842028,0.46598005,-0.44082397,-1.0,1.1508319,240.0
59.6,-33.72223,150.67427,0.6640693,59.472424,25.194803,0.014641041,0.0057916935,1.151902,-0.7479499,2.4063687,-3.317616,2.4318364,0.37305826,-0.55233,-1.0,1.3699414,240.0
59.776,-33.722225,150.67427,0.6496885,59.695267,25.414131,0.013283362,0.0066398815,1.2006689,-0.8755061,2.2697628,0.72405446,-1.3073753,0.27601516,-1.0,0.92071253,1.3352939,240.0
59.9,-33.722225,150.67427,0.6386286,59.976093,25.710552,0.014411265,0.004353875,1.2564034,-1.1256297,2.190245,0.79803985,-1.1861258,0.3069469,-0.6191039,-1.0,1.4699068,240.0
60.0,-33.72222,150.67427,0.6297542,60.1416,25.903696,0.011964291,0.005966232,1.2946639,-1.3312929,2.1110294,-1.5077634,0.21459453,0.3364648,-0.5962422,-1.0,1.3148576,240.0
60.196,-33.72222,150.67427,0.6232202,60.256393,26.049952,0.009990343,0.010834893,1.326172,-1.2995664,1.9259272,0.4033053,-0.7775083,0.2347565,-0.99999994,0.15961546,1.1297176,240.0
60.372,-33.72222,150.67429,0.61808515,60.442883,26.295885,0.007984099,0.0091693755,1.3676083,-1.286983,1.6960963,0.67134833,-0.7426635,0.16116194,0.017006338,1.0,0.78836447,240.0
60.5,-33.722218,150.67429,0.6163366,60.52993,26.43626,0.006762891,0.010226725,1.4018271,-1.7443516,1.7102985,-3.6435556,0.40792027,0.39855137,0.36074468,0.8266225,0.5250811,240.0
60.6,-33.722218,150.67429,0.60520804,60.71246,26.814693,0.011668333,0.015214288,1.4610738,-2.4642694,1.6932722,-1.9078119,-0.053438492,0.36421713,0.260947,0.39143753,0.7581976,240.0
60.788,-33.722218,150.67429,0.5921428,60.87677,27.226715,0.012880039,0.009458058,1.5051373,-2.7137544,1.5186774,-0.430365,-0.47637653,0.23169035,0.26531112,0.24538577,0.9757466,240.0
60.9,-33.722214,150.6743,0.57464004,61.015682,27.677422,0.010172244,0.01306678,1.5451814,-2.805534,1.2645639,-0.2512146,-0.5289054,0.115727305,0.3381697,0.19337928,0.8322485,240.0
61.076,-33.722214,150.6743,0.5620214,61.08155,27.968851,0.00919091,0.017051877,1.5577191,-2.8307395,1.1179037,-0.3353379,-0.49412587,0.04809169,0.3425815,0.19886303,1.2194933,240.0
61.2,-33.722214,150.6743,0.5605805,61.157825,28.318453,0.008762269,0.018314421,1.563559,-2.8527238,0.9866339,-0.29010308,-0.49559188,0.0061018467,0.32482886,0.20925212,0.9016155,240.0
61.384,-33.722214,150.6743,0.56781733,61.240025,28.68732,0.0074552917,0.018974913,1.5634891,-2.8382134,0.8748545,-0.2744311,-0.41904065,-0.006658799,0.32450724,0.22525217,0.9725864,240.0
61.5,-33.722214,150.67432,0.570537,61.313362,29.107195,0.0064904825,0.021900285,1.5642873,-2.8186667,0.75283957,-0.25935283,-0.41199934,0.00916503,0.3317349,0.2403412,0.95974314,240.0
61.692,-33.72221,150.67432,0.5732348,61.36549,29.405125,0.0072925156,0.021268731,1.5655624,-2.8577013,0.69741136,-0.2715461,-0.2607531,0.011432999,0.3128373,0.22255594,1.1093462,240.0
61.8,-33.72221,150.67432,0.57228696,61.454002,29.906925,0.010032573,0.016816683,1.5666796,-2.9083588,0.63745946,0.15946648,-0.371147,0.0007721806,0.28510165,0.20241807,0.8736944,240.0
61.976,-33.72221,150.67432,0.5727732,61.504578,30.297611,0.010156622,0.017625075,1.5685753,-2.9090812,0.57241505,-0.107238285,-0.37950814,0.012682558,0.2871988,0.20134422,1.2031106,240.0
62.1,-33.72221,150.67433,0.5766083,61.55783,30.731083,0.008701513,0.01879537,1.5698334,-2.8926919,0.507686,-0.085770145,-0.25442383,-0.009557876,0.29500815,0.21157697,0.9384082,240.0
62.3,-33.72221,150.67433,0.56886995,61.602863,31.096375,0.008611039,0.01842808,1.5693011,-2.8951943,0.4695285,-0.02335978,-0.26314136,-0.0177732,0.28757435,0.21606918,0.61532,240.0
62.4,-33.72221,150.67433,0.56160784,61.65107,31.584364,0.008535193,0.019324075,1.5683635,-2.8933463,0.41321734,-0.032889485,-0.24014021,-0.0040166937,0.27990624,0.22445658,0.8613239,240.0
62.572,-33.72221,150.67435,0.5578816,61.66984,31.874617,0.008433169,0.019420085,1.5688642,-2.8897858,0.37406218,-0.109854914,-0.22455026,0.005913748,0.28185207,0.22720356,0.8027413,240.0
62.748,-33.72221,150.67435,0.56223834,61.68802,32.257225,0.007320669,0.021198181,1.5686085,-2.8640907,0.32158226,0.19352654,-0.2501533,0.005244326,0.2920947,0.24263096,0.6105264,240.0
62.9,-33.72221,150.67435,0.5675398,61.706696,32.736988,0.0067176367,0.0219783,1.5697097,-2.8658147,0.26254866,-0.28905082,-0.19730942,0.0056271446,0.29459164,0.24103644,0.6876786,240.0
63.0,-33.72221,150.67435,0.57666695,61.73298,33.083614,0.0066628573,0.021413492,1.5715793,-2.8651757,0.2298856,-0.1091876,-0.2039441,0.0073710084,0.2986861,0.23663515,0.61209226,240.0
63.2,-33.72221,150.67436,0.5901762,61.75313,33.33539,0.006160234,0.02206922,1.5712845,-2.852249,0.20853364,0.28287157,-0.21473047,0.006194054,0.30176842,0.24621332,0.7658772,240.0
63.3,-33.722206,150.67436,0.6050606,61.803123,33.76213,0.005484227,0.021917634,1.572195,-2.8587694,0.18905185,-0.12123076,-0.15950294,-0.004211814,0.2956821,0.2466453,0.5899458,240.0
63.496,-33.722206,150.67436,0.6094109,61.844364,34.095325,0.0049387757,0.021936715,1.5724713,-2.8521752,0.17700462,-0.21113047,-0.15986659,-0.007484238,0.29596567,0.25235128,0.4559279,240.0
63.6,-33.722206,150.67436,0.60844135,61.879757,34.52668,0.004004926,0.023297401,1.5696065,-2.8295286,0.15751205,-0.1543443,-0.1495822,0.00062616094,0.29207546,0.27786082,0.46200442,240.0
63.78,-33.722206,150.67438,0.60588217,61.892815,34.796986,0.0038541034,0.023739558,1.5703231,-2.825347,0.13781233,-0.15872462,-0.13665886,0.014229291,0.295216,0.27915964,0.5618709,240.0
63.9,-33.722206,150.67438,0.6055745,61.904583,35.12995,0.0035097215,0.0241411,1.5727574,-2.8192983,0.11060535,-0.051933177,-0.15602516,0.015569845,0.3043145,0.2751714,0.6334218,240.0
64.088,-33.722206,150.67438,0.6140138,61.924736,35.530514,0.0032740214,0.023954079,1.5773945,-2.8166225,0.07868945,-0.147338,-0.15690272,0.02094684,0.33456218,0.24983992,0.8566198,240.0
64.2,-33.722206,150.6744,0.63025904,61.943,36.004784,0.0033013069,0.023987053,1.580496,-2.8198586,0.047416657,-0.118767165,-0.14776558,0.0041749887,0.32926798,0.25200248,1.025649,240.0
64.38,-33.722206,150.6744,0.63870704,61.954674,36.307568,0.0029516108,0.024151413,1.5798516,-2.810755,0.035749916,-0.066734664,-0.14677607,-0.0021117057,0.3298651,0.260085,0.97423947,240.0
64.5,-33.722206,150.6744,0.6425059,61.966293,36.61993,0.0025101877,0.024455937,1.579604,-2.7994468,0.020940123,-0.5073601,-0.16840868,0.0075061833,0.3335912,0.26806763,1.2969745,240.0
64.684,-33.722206,150.6744,0.6382953,61.98441,37.04169,0.0021255498,0.025066502,1.5795724,-2.7868297,0.0018348919,-0.12289276,-0.16539966,0.00822724,0.3366034,0.27663016,1.1009977,240.0
64.8,-33.722206,150.67441,0.6443001,61.98394,37.48506,0.0020897584,0.025551122,1.5801612,-2.784897,-0.028028393,-0.016817423,-0.15512109,0.010393808,0.33931237,0.27532548,1.0338148,240.0
64.988,-33.722206,150.67441,0.6520752,61.984547,37.792683,0.0020713252,0.025727676,1.581552,-2.7837663,-0.051753175,-0.02885083,-0.15999727,0.018033182,0.3446403,0.27068752,1.3474025,240.0
65.1,-33.722206,150.67441,0.66540754,61.982502,38.190212,0.0020794827,0.025691045,1.5859048,-2.779793,-0.08771002,-0.12596132,-0.15589598,0.016950665,0.35814518,0.26274043,1.53508,240.0
65.276,-33.722206,150.67441,0.66890395,61.98471,38.685093,0.0031735143,0.023679757,1.5950444,-2.8270862,-0.1288045,0.18108363,-0.10045692,-0.008645813,0.37057564,0.19896844,1.6648283,240.0
65.4,-33.722206,150.67442,0.67546344,61.980804,39.1914,0.0032283065,0.02317001,1.5925096,-2.8274233,-0.14051168,0.018359004,-0.120649405,-0.02661151,0.3455498,0.2230926,1.6325866,240.0
65.6,-33.722206,150.67442,0.68275154,61.96525,39.567574,0.002904227,0.023420338,1.5870115,-2.8158283,-0.14199571,0.029847385,-0.0932541,-0.023728859,0.33810025,0.24191993,1.4897009,240.0
65.7,-33.722206,150.67442,0.69374335,61.945984,40.058537,0.0023943724,0.024230769,1.5813837,-2.797284,-0.14481689,-0.07176257,-0.083131656,-0.012458683,0.3417524,0.2575313,1.3323201,240.0
65.872,-33.722206,150.67444,0.69920814,61.945354,40.32074,0.0021305503,0.024351569,1.5806575,-2.7957063,-0.14665137,-0.04153332,-0.019776328,-0.012801343,0.34015584,0.26103306,1.2629721,240.0
66.068,-33.722206,150.67444,0.71887314,61.94025,40.731922,0.0018075929,0.024485482,1.5787038,-2.7877965,-0.14897959,-0.045147862,-0.10599396,-0.008388338,0.3376745,0.27086318,1.3768573,240.0
66.2,-33.722206,150.67444,0.7347623,61.935516,41.20064,0.0015170745,0.02496552,1.5790441,-2.7771437,-0.16028517,-0.0578177,-0.10599913,0.010075305,0.3444571,0.2743693,1.4675391,240.0
66.3,-33.722206,150.67444,0.7353313,61.936512,41.620155,0.002088079,0.023212923,1.5894032,-2.8206866,-0.19120497,0.018274091,-0.13833408,0.017267328,0.35963282,0.21361485,1.5621711,240.0
66.5,-33.722206,150.67445,0.7384081,61.936348,41.91944,0.0020508007,0.022425132,1.5921891,-2.8177936,-0.20028181,0.1918323,-0.0831352,-0.020190878,0.37128794,0.20330463,1.6920567,240.0
66.6,-33.722206,150.67445,0.74913645,61.91807,42.429974,0.0018101457,0.022557603,1.5872209,-2.8102674,-0.19850084,0.1415038,-0.06608747,-0.034041017,0.3609945,0.22105059,1.9247736,240.0
66.796,-33.722206,150.67445,0.7531228,61.90558,42.74295,0.0017770051,0.023046954,1.5847547,-2.8154364,-0.19879627,-0.05506021,-0.05952881,-0.016487282,0.35129178,0.22784413,1.8566841,240.0
66.9,-33.722206,150.67447,0.7454201,61.896385,43.24949,0.0016069938,0.022210665,1.5844314,-2.815765,-0.19971938,-0.031174408,-0.060753167,-0.012213137,0.35203424,0.22687277,1.7329068,240.0
67.1,-33.722206,150.67447,0.738572,61.898766,43.541134,0.0013745618,0.02247193,1.5817769,-2.8071954,-0.18932447,-0.05443793,0.027717005,-0.019429946,0.3469264,0.24146588,1.5222731,240.0
67.2,-33.722206,150.67447,0.7298833,61.895164,43.97222,0.0010946346,0.02305374,1.577517,-2.8044662,-0.17672817,-0.0075042774,-0.060400147,-0.008011191,0.33415237,0.25682983,1.4761957,240.0
67.388,-33.722206,150.67447,0.7195078,61.88003,44.288948,0.0010687307,0.023432694,1.5770262,-2.7938342,-0.18261854,-0.035028093,-0.063750066,0.012072264,0.34113824,0.262107,1.7394698,240.0
67.5,-33.722206,150.67448,0.69669807,61.857433,44.751743,0.0009808429,0.023410596,1.580756,-2.7898588,-0.1980478,-0.034086443,-0.07077435,0.010201868,0.36111358,0.24496554,1.823938,240.0
67.7,-33.722206,150.67448,0.69247913,61.839146,45.047462,0.00095785037,0.023016352,1.5829369,-2.7928696,-0.209188,0.009592885,-0.04930327,-0.0040911976,0.3707323,0.23148155,1.7497793,240.0
67.8,-33.722206,150.67448,0.68385386,61.811172,45.514782,0.00061244663,0.023469035,1.5801127,-2.787062,-0.20497549,-0.04534915,0.00068735157,-0.034196824,0.3705422,0.23832831,1.6625385,240.0
67.984,-33.722206,150.67448,0.6747018,61.791965,45.81409,0.00039024616,0.023829319,1.5757493,-2.7861722,-0.19470008,-0.108382,-0.036627006,-0.023173127,0.34575367,0.26559544,1.323171,240.0
68.1,-33.722206,150.6745,0.66524196,61.780247,46.270714,0.00017626888,0.023591878,1.5754131,-2.7983665,-0.19055235,-0.32610905,-0.20855652,-0.0042174477,0.35610625,0.24313787,1.5806653,240.0
68.3,-33.72221,150.6745,0.66202044,61.76806,46.63623,0.00037470757,0.022025727,1.5801201,-2.8219278,-0.20289366,-0.004950876,-0.047400787,-0.007253233,0.36402422,0.21000572,1.8047749,240.0
68.4,-33.72221,150.6745,0.6582136,61.740547,47.186943,0.00031910854,0.021402743,1.5761087,-2.8192046,-0.19385415,0.046703085,-0.04519215,-0.016863603,0.36005569,0.21735047,1.7588285,240.0
68.576,-33.72221,150.67451,0.657876,61.72506,47.490566,0.00012248577,0.021773908,1.5730574,-2.8140674,-0.18541448,-0.1227025,-0.03395338,-0.021698942,0.34247926,0.24176453,1.8408221,240.0
68.732,-33.72221,150.67451,0.6605127,61.705345,47.956013,-0.00014813775,0.021477079,1.5705221,-2.8217149,-0.17499219,0.034489553,-0.0010422749,-0.02331462,0.33551085,0.24191105,1.5384033,240.0
68.9,-33.72221,150.67451,0.6705719,61.67959,48.393314,-0.00013081841,0.020757101,1.5691973,-2.837621,-0.17055246,0.06952249,-0.027576875,-0.022059787,0.32639974,0.23899372,1.6149082,240.0
69.0,-33.72221,150.67453,0.6857519,61.65123,48.972473,-0.00012400876,0.018714266,1.5708026,-2.8643093,-0.1719595,0.095924646,-0.074331984,-0.035919894,0.32443652,0.21016161,1.7081572,240.0
69.172,-33.72221,150.67453,0.6928861,61.638367,49.241962,-0.0001980201,0.01855734,1.5660477,-2.8604777,-0.15500769,0.08436702,0.039455056,-0.050776158,0.30611056,0.23386699,1.3762428,240.0
69.368,-33.72221,150.67453,0.6946615,61.60962,49.72584,-0.00029143487,0.019680519,1.5570831,-2.847046,-0.12804212,-0.08921938,0.022482144,-0.018756505,0.3101087,0.24705979,1.4325014,240.0
69.5,-33.72221,150.67455,0.6953361,61.58587,50.164036,-0.00037037165,0.020134266,1.5540565,-2.8384373,-0.11658625,-0.5655993,0.00032512407,-0.0009645466,0.32670766,0.23899144,1.4539603,240.0
69.6,-33.72221,150.67455,0.70280075,61.55825,50.51043,-0.00032065448,0.020571064,1.5515648,-2.82907,-0.11152153,-0.07335317,0.021598633,-0.009342576,0.3316312,0.24423477,1.4327785,240.0
69.8,-33.72221,150.67455,0.7196827,61.53341,50.805897,-0.00026387532,0.020072706,1.5515811,-2.8408186,-0.11563971,-0.1151212,0.0038544787,-0.0014808781,0.33435228,0.23252603,1.6766285,240.0
69.9,-33.72221,150.67455,0.7340921,61.496525,51.3186,-0.00043184255,0.018928666,1.5526185,-2.8558056,-0.119194716,-0.26760235,0.19232523,-0.019534897,0.33532098,0.21403407,1.5006443,240.0
70.096,-33.72221,150.67456,0.7401228,61.476032,51.58971,-0.00049823005,0.019151773,1.5480609,-2.8512173,-0.10465066,-0.02730269,0.014567888,-0.04975036,0.31358743,0.24127533,1.3625314,240.0
70.2,-33.72221,150.67456,0.7424011,61.45415,52.045296,-0.00074207433,0.020212796,1.5391469,-2.8383083,-0.0699541,-0.050843015,0.040358152,-0.031077515,0.31355327,0.25654346,1.2522137,240.0
70.4,-33.72221,150.67456,0.74203265,61.44587,52.321144,-0.00085228117,0.020430326,1.5360467,-2.8347447,-0.05235962,-0.07139801,0.047994986,-0.025325673,0.31431502,0.25965244,0.93619925,240.0
70.5,-33.72221,150.67456,0.7383665,61.440586,52.776115,-0.0009613787,0.021534523,1.5308207,-2.8212194,-0.020116296,-0.09229958,0.06425392,-0.027754227,0.32648802,0.26005435,1.0676818,240.0
70.688,-33.72221,150.67458,0.7355696,61.43675,53.024693,-0.0010087129,0.021995345,1.5280657,-2.8208964,-0.0040311837,-0.19796745,0.063220225,-0.012783859,0.32185912,0.26603007,0.91775906,240.0
70.8,-33.72221,150.67458,0.73360264,61.435516,53.46759,-0.0012469767,0.022440843,1.5249819,-2.8147533,0.021100447,-0.12656,0.043478444,-0.0049118344,0.32174033,0.27142698,0.8302197,240.0
71.0,-33.72221,150.67458,0.7307936,61.431065,53.76512,-0.0012844481,0.022665985,1.524153,-2.807929,0.0315806,-0.0023548966,0.049744815,0.0014020893,-1.0,-1.0,1.2233454,240.0
71.1,-33.72221,150.67458,0.7226033,61.414764,54.143635,-0.000574097,0.019730771,1.5258137,-2.344382,-0.007560869,2.4276822,-0.17831378,0.022975776,-0.97472405,-1.0,0.87276024,240.0
71.284,-33.72221,150.67459,0.71578157,61.404415,54.384045,-0.0007532066,0.018951187,1.5281037,-2.067045,-0.028708575,-1.1051121,0.33923596,-0.07524289,1.0,-1.0,0.68649113,240.0
71.4,-33.72221,150.67459,0.7235136,61.391823,54.750378,-0.0022413877,0.02565981,1.4809802,-2.271219,0.11279083,2.2113588,-0.3836714,-0.20770946,-1.0,-0.75074863,0.7679374,240.0
71.6,-33.72221,150.67459,0.73109007,61.38926,54.965218,-0.0018971097,0.018804347,1.461386,-2.0033753,0.11001312,1.9042889,-0.36595243,-0.09466826,1.0,-1.0,0.9774866,240.0
71.7,-33.72221,150.67459,0.7505641,61.385014,55.409786,-0.0016543875,0.02320183,1.4020343,-2.1365128,0.29214433,1.8936267,-0.5858773,-0.2416726,1.0,-1.0,0.9624365,240.0
71.876,-33.72221,150.67459,0.75463057,61.385643,55.630306,-0.0018456873,0.021789145,1.371601,-2.3835406,0.4834914,-1.9533193,2.006513,-0.38172156,-0.99999994,-0.5419341,1.1880475,240.0
72.028,-33.72221,150.6746,0.7708938,61.392967,56.00706,-0.0019985049,0.017847968,1.3256748,-2.056767,0.46641508,1.8180276,-0.7789942,-0.13750865,1.0,-1.0,1.0529965,240.0
72.2,-33.72221,150.6746,0.7740643,61.409557,56.365288,-0.0032454256,0.024032656,1.2679585,-2.2820616,0.80716664,2.0933292,-1.2316798,-0.3320535,-1.0,-0.56734747,1.1660969,240.0
72.3,-33.72221,150.6746,0.7719054,61.42249,56.720375,-0.003211374,0.020276839,1.23008,-2.1993442,0.912258,-3.6549141,2.7820592,-0.34135124,-1.0,-0.5903785,1.0813962,240.0
72.496,-33.72221,150.6746,0.7805731,61.439354,57.000946,-0.0029692764,0.019363124,1.1971319,-2.0924044,0.9421017,1.6876131,-1.2159903,-0.2576671,1.0,-1.0,0.8417577,240.0
72.668,-33.72221,150.67462,0.7868123,61.4916,57.480633,-0.0030433321,0.021767588,1.137906,-2.0558012,1.1736145,1.5715309,-1.3958482,-0.20645542,-1.0,-0.75225353,0.90924346,240.0
72.8,-33.72221,150.67462,0.8028517,61.54216,57.863987,-0.003151923,0.013149821,1.1107844,-1.9652234,1.2503651,-1.5927204,2.6583376,-0.32361618,1.0,-1.0,1.0409938,240.0
72.96,-33.72221,150.67462,0.8189347,61.595623,58.199055,-0.003433721,0.019340146,1.0666958,-1.9240121,1.4343098,1.3262578,-1.4979134,-0.26178753,-1.0,-0.6858549,0.978007,240.0
73.1,-33.72221,150.67462,0.82942533,61.656254,58.529613,-0.0038336222,0.01666899,1.0293183,-1.8715068,1.6538621,-0.978016,3.306455,-0.3465897,-1.0,-0.59521216,1.1408389,240.0
73.2,-33.72221,150.67464,0.85725355,61.750805,58.858997,-0.0042441795,0.021124925,0.97804946,-1.7162607,1.7485571,1.1208628,-1.7143437,-0.22315557,-1.0,-0.73221326,1.0515032,240.0
73.396,-33.722206,150.67464,0.87468624,61.808575,59.06577,-0.0040444387,0.016432626,0.961465,-1.5812759,1.6276584,1.0017009,-1.524493,-0.112911664,1.0,-1.0,0.8470899,240.0
73.592,-33.722206,150.67464,0.8980074,61.949154,59.5073,-0.0040992964,0.014992381,0.9058596,-1.4567416,1.9418125,0.85864305,-1.8514135,-0.2528958,-1.0,-0.6965251,0.80896175,240.0
73.7,-33.722206,150.67464,0.9171796,62.06792,59.88697,-0.0041951034,0.016648758,0.8825659,-1.3324995,1.9324579,0.97127104,3.443673,-0.17307878,1.0,-1.0,0.90148073,240.0
73.8,-33.722202,150.67465,0.92256284,62.19881,60.21613,-0.004684835,0.0175552,0.84507966,-1.1987401,2.032252,0.60126835,-1.7455076,-0.13435914,1.0,-1.0,1.4339681,240.0
73.988,-33.722202,150.67465,0.92219496,62.28434,60.406643,-0.004897251,0.013898287,0.818654,-1.0979308,2.3131337,0.4046223,0.78672713,-0.3226675,-1.0,-0.6127989,1.5437944,240.0
74.168,-33.722202,150.67465,0.906003,62.432167,60.72419,-0.0048331404,0.01804781,0.76760155,-0.87056035,2.3618126,0.83073324,3.9330387,-0.39601105,-1.0,-0.5247867,1.4223655,240.0
74.3,-33.722202,150.67465,0.8921778,62.5759,61.01247,-0.004957804,0.020883631,0.7217092,-0.69608855,2.2302065,0.19566667,-1.8316882,-0.15071258,1.0,-1.0,1.1689414,240.0
74.4,-33.7222,150.67465,0.89013886,62.720963,61.28395,-0.0049809865,0.011402027,0.6894499,-0.47608012,2.4883473,1.2801689,2.8866565,-0.44956863,-1.0,-0.46051764,1.2349586,240.0
74.584,-33.7222,150.67467,0.89264345,62.83628,61.456642,-0.0052384324,0.018380253,0.65490836,-0.3766414,2.3521075,-0.08527806,-1.9623036,-0.21563713,0.9034133,-1.0,1.2245779,240.0
74.78,-33.722195,150.67467,0.8895056,63.053093,61.779285,-0.005674882,0.019325571,0.6111577,-0.1564818,2.3866136,-0.26626253,-2.0140371,-0.17430794,0.6995475,-1.0,1.0614331,240.0
74.9,-33.722195,150.67467,0.9058759,63.262188,62.07696,-0.005554397,0.016153082,0.56408066,0.061355345,2.3756483,-0.48772937,-2.0274193,-0.22964919,0.33621383,-1.0,1.2407324,240.0
75.0,-33.722195,150.67467,0.9085245,63.423344,62.306614,-0.005249972,0.017369024,0.53971845,0.15236476,2.265086,0.5428984,-0.13383307,-0.20380276,0.22288346,-1.0,1.2310696,240.0
75.2,-33.72219,150.67467,0.9068694,63.54125,62.47545,-0.004988567,0.018713338,0.5211433,0.207113,2.182515,0.044924688,-0.7678625,-0.1527091,0.1759851,-1.0,1.0713623,240.0
75.376,-33.72219,150.67467,0.90426064,63.76831,62.78156,-0.004824408,0.018275496,0.48988134,0.39684057,2.1858304,2.811488,3.4418297,-0.27116594,1.0,0.076090306,1.166423,240.0
75.5,-33.722187,150.67468,0.8886616,64.14444,63.159485,-0.0065553985,0.01875569,0.42382511,1.046051,2.670313,1.6668711,1.3468431,-0.3555043,0.5189307,0.18207404,1.2856156,240.0
75.6,-33.722183,150.67468,0.8797891,64.44786,63.417545,-0.0065387106,0.016022393,0.3826711,1.3264903,2.7124603,0.8573984,0.22869955,-0.24930163,0.3828474,0.17716423,1.4323478,240.0
75.8,-33.72218,150.67468,0.8671963,64.72361,63.631584,-0.0057499786,0.014790934,0.3537571,1.4656072,2.635285,0.36359224,-0.3112675,-0.14692453,0.35663494,0.20954862,1.2502168,240.0
75.968,-33.72218,150.67468,0.8509445,65.13575,63.929398,-0.0053726584,0.017040359,0.3346902,1.6117054,2.552434,0.4322884,-0.28316408,-0.071550526,0.34486157,0.20352358,1.0269654,240.0
76.1,-33.722176,150.67468,0.8457315,65.537605,64.20415,-0.0057997187,0.015799174,0.32481906,1.712088,2.479645,0.6799717,-0.32300693,-0.04820699,0.33361715,0.19895083,0.7595407,240.0
76.3,-33.72217,150.6747,0.8415849,65.87227,64.42178,-0.006190472,0.015090135,0.31899732,1.7784072,2.4270499,0.25887445,-0.35237536,-0.04783593,0.32127184,0.20133765,0.65037,240.0
76.4,-33.722168,150.6747,0.8397405,66.35626,64.719955,-0.0065563913,0.014248311,0.31266865,1.8575369,2.3689153,0.1734753,-0.38227162,-0.041675054,0.3146772,0.18879512,0.8977984,240.0
76.5,-33.722164,150.6747,0.8414595,66.622116,64.87084,-0.006163953,0.014581815,0.30891287,1.8861784,2.3130932,0.26507893,-0.284427,-0.027170843,0.3251761,0.19413033,0.9554967,240.0
76.7,-33.722164,150.6747,0.8452561,66.85427,65.00081,-0.0057908073,0.015158051,0.3059598,1.905645,2.2592578,0.22551455,-0.19908163,-0.017916286,0.3480319,0.19084176,0.96873635,240.0
76.892,-33.722157,150.6747,0.8535757,67.31359,65.26309,-0.0056616534,0.01595987,0.3009042,1.9660896,2.1923668,0.18052246,-0.48603567,-0.01263958,0.3446126,0.18975449,0.95181406,240.0
77.0,-33.722153,150.6747,0.866498,67.72526,65.499985,-0.005697852,0.015309731,0.29636052,2.0126252,2.1475933,0.2670034,-0.09709463,-0.009396377,0.32909843,0.20191315,1.0499662,240.0
77.1,-33.722153,150.67471,0.8770666,68.02678,65.66648,-0.005950412,0.014387226,0.29270035,2.0508687,2.124393,0.137105,-0.19955097,-0.021404652,0.31966418,0.19356303,1.3685063,240.0
77.3,-33.72215,150.67471,0.8828168,68.27312,65.80029,-0.0058245733,0.014233083,0.28991833,2.0739462,2.0979092,0.14296947,-0.24538793,-0.032333568,0.31089297,0.20118101,1.0197705,240.0
77.488,-33.722145,150.67471,0.8823428,68.698715,66.0375,-0.0048114914,0.0155462725,0.28707987,2.0859013,2.0364985,0.19021794,-0.1631267,-0.038238794,0.32751918,0.21113133,1.0821226,240.0
77.6,-33.72214,150.67471,0.89501286,69.05278,66.226074,-0.004344356,0.017119141,0.28376064,2.101927,1.9839087,0.28354698,-0.123263255,-0.03401528,0.34502697,0.21109484,0.88532925,240.0
77.7,-33.72214,150.67471,0.9006431,69.296616,66.34717,-0.0043396777,0.017702093,0.2808188,2.120113,1.9500575,0.33526203,-0.07995148,-0.035465047,0.34084734,0.22161238,0.9158474,240.0
77.9,-33.722137,150.67471,0.90832996,69.543655,66.46426,-0.004218391,0.018213965,0.27821085,2.133736,1.915124,0.51853025,-0.07071128,-0.027202621,0.3643285,0.20696248,1.0672668,240.0
78.08,-33.722134,150.67471,0.92175055,69.93229,66.641975,-0.0039311424,0.019059502,0.27352393,2.1630092,1.8687286,-0.12934902,0.19271721,-0.023300648,0.3469643,0.22851734,0.7897674,240.0
78.2,-33.72213,150.67471,0.9294839,70.38056,66.85065,-0.004132155,0.017292544,0.26409793,2.2281682,1.846818,0.25833747,-0.09206083,-0.001939705,0.3239629,0.21603587,0.90469337,240.0
78.364,-33.722126,150.67471,0.93721867,70.69796,66.98695,-0.0043480583,0.016449245,0.2613484,2.2504392,1.8282461,0.071837105,-0.08856444,0.0043656616,0.31915915,0.21361148,1.0616164,240.0
78.5,-33.722126,150.67473,0.9397981,71.07925,67.14518,-0.0043791607,0.016716823,0.26201093,2.2526715,1.7998761,0.096720256,-0.15448701,-0.0026276067,0.33456397,0.20763613,1.1921952,240.0
78.676,-33.722122,150.67473,0.93478894,71.44994,67.29101,-0.004373517,0.017596232,0.26279843,2.2560284,1.7718501,-0.0025121253,-0.15042989,-0.008555037,0.35359538,0.20101966,1.3535331,240.0
78.8,-33.72212,150.67473,0.9289732,71.866066,67.457855,-0.0043047504,0.01736628,0.26007733,2.269152,1.7426696,0.108243674,-0.13499287,-0.013681356,0.35727277,0.20277461,1.5381122,240.0
79.0,-33.722115,150.67473,0.939801,72.17632,67.5806,-0.004261378,0.017460674,0.25922844,2.2732964,1.721058,0.059993114,-0.1463558,-0.015788918,0.36659563,0.20109665,1.8587196,240.0
79.1,-33.72211,150.67473,0.9479468,72.65282,67.75333,-0.004250036,0.018156238,0.258777,2.2792807,1.6849679,0.0044110054,-0.1405432,-0.017986804,0.37863928,0.19824141,1.8126826,240.0
79.268,-33.722107,150.67473,0.95616126,72.88972,67.841644,-0.004118751,0.01886539,0.25926566,2.2810218,1.6701701,0.20644929,-0.050944615,-0.0127440225,0.39101297,0.19458812,1.8502693,240.0
79.448,-33.722103,150.67473,0.9620538,73.2481,67.98072,-0.0039799083,0.018864768,0.25524458,2.2977593,1.6464407,0.12758666,-0.042733084,-0.02802732,0.37018389,0.21481305,1.725773,240.0
79.6,-33.7221,150.67473,0.971756,73.73007,68.1719,-0.0037904372,0.018785246,0.24936883,2.3213332,1.6224772,0.03796199,-0.031594083,-0.011277593,0.3625784,0.21576594,1.6963907,240.0
79.7,-33.722095,150.67473,0.9751792,74.05164,68.312,-0.0033521457,0.01889659,0.2471582,2.329815,1.6152959,0.31342563,-0.036059014,-0.008064494,0.38118094,0.1957069,1.6897527,240.0
79.9,-33.722095,150.67473,0.97600174,74.31231,68.43125,-0.0030825068,0.018178495,0.24182689,2.3478615,1.6105076,0.0064182193,-0.079936944,-0.028937768,0.3502701,0.21672936,1.4667779,240.0
80.0,-33.72209,150.67474,0.96924186,74.64696,68.583336,-0.0025321245,0.018547334,0.2383812,2.34488,1.6009477,0.09811505,-0.01573952,-0.018666305,0.35992867,0.21558614,1.2227472,240.0
80.192,-33.722088,150.67474,0.95825124,75.001114,68.72481,-0.0023823334,0.019426055,0.23657162,2.3426087,1.5818933,0.12325629,-0.05525951,-0.044961613,0.36034837,0.22775063,1.2269077,240.0
80.3,-33.722084,150.67474,0.95576215,75.4221,68.88004,-0.0023023533,0.020202765,0.23263349,2.3422627,1.5499102,0.006419424,-0.09858886,-0.038024213,0.3716043,0.23370424,1.1931775,240.0
80.5,-33.722084,150.67474,0.9534302,75.65543,68.97445,-0.0020174526,0.020790668,0.23095036,2.334884,1.5344654,0.16811223,-0.046380047,-0.027771072,0.3883458,0.23140112,1.5244151,240.0
80.6,-33.72208,150.67474,0.9448526,75.96017,69.0947,-0.0019325393,0.020403909,0.22487,2.3608055,1.523223,0.13090393,-0.048287027,-0.03127904,0.3773461,0.23178764,1.5065582,240.0
80.788,-33.722076,150.67474,0.9446573,76.36114,69.247925,-0.0019080635,0.020521455,0.21964438,2.37692,1.5028328,0.14509292,0.011579932,-0.023381462,0.36979783,0.23366867,1.3108288,240.0
80.9,-33.722073,150.67474,0.9594879,76.79998,69.39961,-0.001960625,0.020989425,0.2177353,2.3782415,1.4762682,0.17994341,-0.098847196,-0.010825618,0.39749375,0.21697316,1.3338131,240.0
81.072,-33.72207,150.67474,0.95989275,77.06374,69.48454,-0.0019798398,0.021600107,0.21656035,2.3763142,1.4562085,0.027307631,-0.051759757,-0.011628206,0.4063142,0.21893258,1.6773137,240.0
81.2,-33.72207,150.67474,0.9586568,77.30976,69.56462,-0.0020131192,0.021733768,0.21498695,2.3838425,1.4412454,0.10063597,-0.08208066,-0.037956566,0.38565564,0.2399795,1.4818777,240.0
81.372,-33.722065,150.67474,0.9468193,77.7393,69.70455,-0.0019255965,0.021742731,0.2099338,2.40378,1.4181427,0.16773602,-0.047762353,-0.034573816,0.3806179,0.2395651,1.4443098,240.0
