timestamp,lat,lon,alt,x,y,roll,pitch,yaw,vel_x,vel_y,accel_x,accel_y,yaw_rate,right_engine,left_engine,wind_speed,wind_direction
29.968,-33.722763,150.674,0.2282933,-0.094902344,0.17680934,-0.00018112324,0.012830385,0.633937,0.010556505,0.04955809,0.005294847,0.03989086,0.0011016089,0.0,0.0,-0.24764319,240.0
30.1,-33.722763,150.674,0.22230673,-0.09530515,0.1978076,9.9481455e-05,0.013361017,0.63408697,-0.00065158674,0.05720317,0.0061511663,0.037658177,0.0010888018,0.0,0.0,-0.12179012,240.0
30.268,-33.722763,150.674,0.22395962,-0.10014491,0.21970186,0.00036491826,0.01364204,0.6341418,-0.01074995,0.0626096,0.004907038,0.03762171,0.00067819655,0.0,0.0,0.016449478,240.0
30.4,-33.722763,150.674,0.21556944,-0.11214354,0.23159313,0.0006641919,0.014224238,0.6341535,-0.021237016,0.061332077,-0.009712235,0.029209225,0.000634894,0.0,0.0,-0.027357314,240.0
30.5,-33.722763,150.674,0.21125895,-0.12934984,0.23591162,0.00089072733,0.014897768,0.63423765,-0.031499617,0.0549428,-0.009747435,0.021738142,0.0005241471,0.0,0.0,-0.28529853,240.0
30.692,-33.722763,150.674,0.21535158,-0.14073043,0.23339973,0.0007740802,0.015407229,0.6344645,-0.035874967,0.04665664,-0.0063554365,0.011905392,0.0005871216,0.0,0.0,-0.16532597,240.0
30.892,-33.722763,150.674,0.21937203,-0.15140626,0.21607675,0.00011675349,0.016076539,0.635058,-0.032776766,0.030047432,0.00010289283,0.011073219,0.0008010763,0.0,0.0,-0.29301623,240.0
31.0,-33.722763,150.674,0.22120237,-0.14793691,0.2097178,0.00011256066,0.015759837,0.6351016,-0.029061452,0.028898502,-0.007428337,0.001072494,0.0012657099,0.0,0.0,-0.45450225,240.0
31.1,-33.722763,150.674,0.22819495,-0.14291255,0.20361464,0.00033605398,0.015215367,0.63498616,-0.025383964,0.03261361,-0.0082574235,0.015044771,0.0013386016,0.0,0.0,-0.2792957,240.0
31.288,-33.722763,150.674,0.235125,-0.14380953,0.19769213,0.00024884165,0.015340849,0.63522077,-0.02330356,0.032487683,-0.00074590667,0.012243569,0.0019967207,0.0,0.0,-0.40515593,240.0
31.456,-33.722763,150.674,0.23421073,-0.13787778,0.18819442,-4.7529407e-05,0.015660366,0.63596404,-0.01570718,0.0323453,0.004294921,0.021351218,0.004406508,1.0,-0.60186505,-0.8163856,240.0
31.6,-33.722763,150.674,0.22212362,-0.08825382,0.20024456,-0.0015909243,0.016865555,0.60493666,0.24038868,0.66822946,1.6482401,5.296242,-0.43869627,1.0,-0.05306554,-0.87215465,240.0
31.7,-33.722763,150.674,0.21677554,0.095060185,0.30095416,-0.0026356014,0.018712103,0.5392251,0.71068895,1.4801965,3.691643,6.831331,-0.44420093,1.0,0.5860617,-1.0859894,240.0
31.88,-33.72276,150.674,0.20856577,0.39817956,0.46876124,-0.0019736288,0.017622314,0.47991234,1.4078043,2.346514,3.343263,5.70144,-0.2979452,0.57617146,0.4546034,-1.208063,240.0
32.0,-33.722755,150.674,0.20035285,0.8679535,0.7394233,-4.9890168e-05,0.016617913,0.46774724,1.5525745,2.535097,-0.11585522,-0.024249999,0.014539522,0.5482683,0.14444804,3.7836337,240.0
32.2,-33.72275,150.67401,0.19539857,1.212727,0.9442127,-0.00035723674,0.015041388,0.47476876,1.5193067,2.546837,-0.30518827,-0.21737802,0.020276174,0.53661144,0.04655245,4.193233,240.0
32.3,-33.722744,150.67401,0.18219978,1.7983866,1.2962382,-0.0026360943,0.008401374,0.46295726,1.5028359,2.4823067,-0.48281363,-0.42763788,0.025520634,0.45754966,0.056574136,4.4586825,240.0
32.476,-33.722744,150.67401,0.17237526,2.0572822,1.4550095,-0.0033433998,0.0074796625,0.46291348,1.4804585,2.4570801,-0.43966833,-0.53480166,-0.015066993,0.4837434,0.07393244,4.3664637,240.0
32.672,-33.72274,150.67401,0.1634025,2.4878597,1.7284405,-0.0021504292,0.013622563,0.47017604,1.4087288,2.4113224,-0.16909124,-0.13825594,-0.023738606,0.55167353,0.07584056,4.645825,240.0
32.8,-33.722736,150.67401,0.159904,2.8661609,1.9812204,-0.0007992506,0.015888337,0.47202337,1.3903717,2.4111707,-0.009126585,-0.039410423,-0.045574084,0.56030846,0.08492753,4.592254,240.0
32.956,-33.722733,150.67403,0.13852721,3.2213929,2.2238708,-0.0029577326,0.006023679,0.46632445,1.4493706,2.5040376,-0.05863717,-0.04929862,-0.06397466,0.47631374,0.05970463,4.393206,240.0
33.1,-33.72273,150.67403,0.10203463,3.663305,2.5196283,-0.0044155116,0.0014683607,0.46044278,1.4602216,2.5178177,-0.022752805,-0.15973173,-0.011379776,0.47605628,0.035685837,4.510686,240.0
33.268,-33.722725,150.67403,0.07773936,3.9560173,2.7290537,-0.0034218112,0.0036365776,0.45980647,1.4383537,2.5043535,0.05841521,-0.00035649576,-0.02489914,0.50341153,0.042670965,4.5505533,240.0
33.44,-33.72272,150.67403,0.046210885,4.341601,3.0131571,-0.002918966,0.0035973655,0.4580928,1.426304,2.5108178,0.017868424,0.06439025,-0.0092571825,0.52738386,0.022046506,4.710375,240.0
33.596,-33.72272,150.67403,0.025483608,4.6513815,3.2462738,-0.0030619497,0.0005764973,0.45271128,1.4531639,2.5500612,0.23019177,0.4121722,-0.017498424,0.4997361,0.005036801,4.6818647,240.0
33.7,-33.722717,150.67404,-0.0011370778,5.102163,3.594524,-0.0019329946,-0.0007703177,0.4420655,1.4768258,2.560765,0.19663061,0.15726607,-0.04191555,0.44842497,0.041885704,4.4624577,240.0
33.9,-33.722713,150.67404,-0.009298265,5.3114386,3.7511725,-0.0014724697,0.0019968522,0.43842188,1.4681163,2.534825,-0.04867555,0.13650607,-0.0129320705,0.48369503,0.03690599,4.4532957,240.0
34.0,-33.722713,150.67404,-0.012584388,5.5233693,3.9093566,-0.0005708524,0.005611763,0.43458793,1.462741,2.5033393,-0.019913001,0.07608452,-0.03552341,0.4552496,0.089344665,4.5382223,240.0
34.192,-33.72271,150.67404,-0.008850753,5.8156786,4.133331,0.00072801666,0.012293877,0.43332943,1.4475558,2.4592338,-0.042452868,0.0021807386,-0.028741386,0.50939095,0.08548127,4.604648,240.0
34.3,-33.722706,150.67404,-0.018275023,6.099849,4.3514953,0.0015992883,0.01578177,0.4350145,1.4389204,2.4320998,0.052099932,0.002705554,-0.046524107,0.56898624,0.057266176,4.778041,240.0
34.4,-33.722706,150.67404,-0.020724475,6.2661133,4.4676743,0.0019241392,0.01957435,0.43271708,1.4501705,2.410076,0.35734138,0.18004893,-0.06428683,0.5287302,0.11478776,4.60385,240.0
34.588,-33.722706,150.67404,-0.013733208,6.4255385,4.5828314,0.0019318395,0.021774795,0.43022987,1.4569757,2.3998432,0.2705235,0.41645113,0.012815138,0.5688092,0.08187705,4.7148976,240.0
34.784,-33.722702,150.67404,-0.011294842,6.7948976,4.8398495,0.001915715,0.02182676,0.42613307,1.4951471,2.4071648,0.47349533,0.50845975,-0.00083184586,0.5560037,0.07180777,4.404347,240.0
34.9,-33.7227,150.67406,-0.022461355,7.0908337,5.0463777,0.0023752726,0.023334447,0.42206165,1.5019269,2.3779662,-0.14784326,-0.17111123,-0.035169054,0.56156343,0.07459955,4.619699,240.0
35.0,-33.722694,150.67406,-0.02671343,7.3339286,5.210349,0.0033645136,0.028834768,0.41914034,1.48908,2.333193,0.20174012,0.16579385,0.028644992,0.6051692,0.08890259,5.070643,240.0
35.2,-33.722694,150.67406,-0.028630853,7.5441074,5.35355,0.0031280618,0.027795028,0.41766775,1.5177063,2.354216,0.0020094241,-0.038151495,-0.05843593,0.5394751,0.12057105,4.8103423,240.0
35.38,-33.72269,150.67406,-0.03794247,7.986655,5.647715,0.0020017116,0.024612041,0.4178494,1.5267801,2.3715544,-0.24919206,-0.11706598,0.0005833544,0.5824167,0.056774676,5.1103044,240.0
35.5,-33.722687,150.67406,-0.044602096,8.344507,5.881706,0.0024785418,0.026635585,0.41884094,1.5123161,2.3500307,-0.14615457,-0.23022455,-0.034522135,0.59402704,0.07162377,5.3522153,240.0
35.7,-33.722683,150.67406,-0.044543087,8.600946,6.0617886,0.0036023965,0.029408216,0.4144586,1.5124495,2.334811,-0.10153442,0.02170872,-0.0049495148,0.5878284,0.08933517,5.2008915,240.0
35.8,-33.722683,150.67406,-0.057877958,8.962221,6.317293,0.004257958,0.030120356,0.40839273,1.5350817,2.3416293,-0.10847868,-0.06258614,-0.058245853,0.5719591,0.09689276,5.194481,240.0
35.972,-33.72268,150.67407,-0.07754552,9.224463,6.4981003,0.0033093162,0.025815995,0.40727443,1.5728174,2.3945694,0.24338987,0.06451844,-0.038397495,0.5633573,0.039861977,4.881935,240.0
36.172,-33.722675,150.67407,-0.1157732,9.685907,6.8022437,0.0027522887,0.023742745,0.3980259,1.6162318,2.4013247,0.008407597,-0.19858424,-0.09696879,0.53926516,0.037918597,4.593837,240.0
36.3,-33.72267,150.67407,-0.14896989,10.060661,7.047019,0.003104543,0.025507517,0.3876664,1.6359695,2.3676412,0.33780617,0.34290895,-0.034638375,0.53412116,0.065078884,4.431899,240.0
36.472,-33.722668,150.67407,-0.16798562,10.487187,7.309714,0.0015085605,0.01935336,0.38396564,1.719658,2.4414744,0.17649375,-0.017503962,-0.049006343,0.48375082,0.011109576,4.215616,240.0
36.6,-33.722664,150.67407,-0.20019048,10.957523,7.597396,0.0015482685,0.018042563,0.37457168,1.7254038,2.3973892,-0.09497791,-0.30230382,-0.06815584,0.4990964,0.018246174,4.5708914,240.0
36.788,-33.72266,150.67407,-0.21120566,11.185439,7.747612,0.0027153124,0.020901477,0.3668154,1.7276984,2.3675468,0.16312367,0.12511209,-0.0051451954,0.5101356,0.043547213,4.7107577,240.0
36.9,-33.722656,150.67409,-0.23237836,11.61409,8.012197,0.0031024723,0.022659073,0.36365154,1.7302142,2.343458,0.21876623,0.09457828,0.020825803,0.50337994,0.058103472,4.9210143,240.0
37.096,-33.722656,150.67409,-0.247307,11.793436,8.118558,0.0033248377,0.024595616,0.36244592,1.7288787,2.3202183,-0.052726626,-0.009522805,-0.008925452,0.5454991,0.04708317,4.7994246,240.0
37.292,-33.722652,150.67409,-0.2783801,12.111826,8.30093,0.0035564506,0.029229837,0.35880324,1.7299119,2.2627141,-0.14758794,0.052432444,-0.035375018,0.5483576,0.08946577,4.8860636,240.0
37.4,-33.72265,150.67409,-0.29696098,12.387334,8.444353,0.0034664683,0.033628684,0.35683063,1.742907,2.2109962,0.11656295,-0.027406754,-0.04904055,0.5870515,0.07611433,4.9900723,240.0
37.5,-33.72265,150.67409,-0.30877858,12.594138,8.5570755,0.003743438,0.03692299,0.35265353,1.7547612,2.1692107,0.002703372,0.10699092,-0.04940123,0.5645411,0.12761042,4.7929993,240.0
37.7,-33.722645,150.67409,-0.32618806,12.817219,8.679253,0.0040910463,0.03894092,0.34845477,1.7738849,2.1438313,0.30338836,0.41626626,0.010859023,0.5641906,0.12888932,4.8721094,240.0
37.888,-33.722645,150.67409,-0.33345717,13.090185,8.831654,0.0044819606,0.040860686,0.3421144,1.8044858,2.1159227,0.23732455,-0.010090619,-0.06824268,0.54387814,0.157963,4.6492453,240.0
38.0,-33.72264,150.67409,-0.34919417,13.425729,9.021045,0.0048615513,0.043089356,0.33815125,1.8193507,2.0864928,0.07189309,-0.1249948,-0.03229563,0.5746644,0.14032096,4.6336255,240.0
38.2,-33.722637,150.67409,-0.36154562,13.710532,9.188783,0.0052786167,0.0458402,0.3370266,1.812705,2.0631795,0.43182057,0.34505156,0.032771654,0.6117095,0.11892235,4.6021276,240.0
38.3,-33.722637,150.6741,-0.37060842,13.982719,9.349139,0.0055219145,0.04744862,0.33467636,1.8255178,2.047076,0.19696613,-0.04089226,-0.04998218,0.59897286,0.14198844,4.7060547,240.0
38.5,-33.722633,150.6741,-0.39376602,14.203962,9.477703,0.0055989726,0.048645187,0.33135885,1.8369902,2.035005,0.258844,0.013389454,-0.046832114,0.634089,0.11184764,4.5568514,240.0
38.68,-33.72263,150.6741,-0.40216932,14.58909,9.681769,0.005725665,0.04954695,0.32995608,1.8594631,2.033153,0.32684612,0.08497902,-0.0012337108,0.64066947,0.088811785,4.7072077,240.0
38.8,-33.722626,150.6741,-0.41248995,15.035011,9.914168,0.00564238,0.047420513,0.3294916,1.8798248,2.0401063,0.06819548,0.027867792,-0.014255091,0.6526009,0.054888606,4.8482656,240.0
39.0,-33.722622,150.6741,-0.43562928,15.429807,10.113258,0.0054467143,0.047626786,0.31995144,1.8960394,2.0020292,-0.19638419,-0.070377775,-0.06985289,0.6329994,0.08650258,4.9406347,240.0
39.1,-33.722622,150.6741,-0.45271823,15.779164,10.288166,0.005458518,0.04949692,0.311424,1.9259675,1.9798361,0.38473582,0.15679058,-0.020804467,0.6251079,0.10059586,4.63735,240.0
39.3,-33.72262,150.6741,-0.46078005,16.071924,10.432034,0.0055692727,0.05031154,0.30829015,1.939229,1.9614087,0.3673256,0.06759274,-0.012623612,0.62933826,0.10373068,5.015931,240.0
39.472,-33.722614,150.67412,-0.45552108,16.537619,10.654927,0.005771378,0.048740897,0.30426067,1.9904922,1.9646052,0.10790909,0.049375918,-0.0046414933,0.63564587,0.051348418,4.6714683,240.0
39.624,-33.72261,150.67412,-0.44805676,16.970613,10.859401,0.005765255,0.048075024,0.29915673,2.010155,1.9374721,-0.38918543,-0.27441,-0.074125625,0.59987897,0.090004265,5.0265493,240.0
39.8,-33.722603,150.67412,-0.4405864,17.468306,11.087455,0.0057601873,0.04813639,0.2890146,2.0603468,1.910401,-0.26729938,-0.18577601,-0.070043735,0.6095621,0.06433374,4.757616,240.0
39.9,-33.722603,150.67412,-0.43478578,17.813255,11.236425,0.0057512354,0.048595004,0.28021586,2.0898666,1.877349,-0.0029622314,-0.07675775,-0.047394544,0.5889193,0.084777236,4.674817,240.0
40.1,-33.7226,150.67412,-0.44344762,18.189741,11.395724,0.0055938554,0.049509075,0.27070624,2.1097982,1.8243103,-0.20676664,-0.37981766,-0.07338433,0.58563495,0.10545352,4.885511,240.0
40.2,-33.722595,150.67412,-0.4552149,18.493643,11.523513,0.0053692055,0.0515866,0.26481542,2.1160839,1.778936,-0.19090976,-0.26251248,-0.043460548,0.5998613,0.11930853,5.2180915,240.0
40.4,-33.722595,150.67412,-0.4649064,18.734556,11.628144,0.0054831193,0.05123017,0.26279855,2.1346788,1.7661182,0.31901217,-0.09720443,-0.03366175,0.6099596,0.10213253,5.3679147,240.0
40.592,-33.722588,150.67412,-0.46606892,19.185682,11.822134,0.005805776,0.051483188,0.25973442,2.160028,1.7369072,0.15625127,-0.196862,-0.011458941,0.6483381,0.05883479,5.3325505,240.0
40.7,-33.722584,150.67412,-0.46891242,19.632353,12.008728,0.0061459774,0.050761044,0.25664243,2.1890998,1.7180641,0.4338421,0.065601766,-0.012192075,0.62487006,0.07042456,5.6167665,240.0
40.8,-33.722584,150.67413,-0.47456107,19.920843,12.120868,0.006006642,0.052111816,0.24895407,2.1955519,1.6721102,0.42363995,0.04419065,-0.02394011,0.65183854,0.0652459,5.3643274,240.0
41.0,-33.72258,150.67413,-0.47991756,20.19153,12.224965,0.0058314293,0.054132752,0.24166211,2.204952,1.6257601,0.5277399,0.060939,-0.036100373,0.6525967,0.08981037,5.433587,240.0
41.188,-33.722576,150.67413,-0.47087854,20.54932,12.364135,0.005942496,0.057162255,0.23290321,2.2262378,1.5730109,0.5023743,0.15475133,-0.005245672,0.67198616,0.08034867,5.241127,240.0
41.3,-33.722572,150.67413,-0.46086767,20.928669,12.512149,0.0060813087,0.059009463,0.2220614,2.2615435,1.5233892,0.3293556,0.06917654,-0.021485757,0.6508402,0.10111934,5.146008,240.0
41.5,-33.722572,150.67413,-0.45510155,21.190361,12.613241,0.006213996,0.059671987,0.2153224,2.275812,1.488943,0.06948669,0.11029779,-0.028795894,0.63813937,0.11981186,4.998014,240.0
41.6,-33.72257,150.67413,-0.44563606,21.636967,12.771253,0.007138043,0.060774155,0.2243257,2.2649362,1.4836371,0.09739647,0.14578766,0.2889382,0.35966304,0.40124103,5.04623,240.0
41.8,-33.722565,150.67413,-0.44714734,21.8502,12.847828,0.008921726,0.06186633,0.25356093,2.228276,1.5408491,0.040000282,-0.15459624,0.25490785,0.5245968,0.22995365,4.907708,240.0
41.98,-33.72256,150.67413,-0.45041433,22.232893,12.985055,0.01119368,0.06155385,0.29402405,2.1395493,1.6131788,-0.028722432,-0.09505083,0.15568809,0.62496126,0.14945492,5.5823803,240.0
42.1,-33.722557,150.67413,-0.46528554,22.696003,13.147828,0.012242817,0.06272006,0.31805292,2.0768452,1.6679082,-0.38931772,-0.040383853,0.04195831,0.7012925,0.09341979,5.4787836,240.0
42.26,-33.722557,150.67413,-0.4761408,22.98393,13.2492075,0.012974367,0.062405977,0.32585585,2.0534039,1.6956732,-0.4942701,-0.20304379,0.009826284,0.65970385,0.12871417,5.6170325,240.0
42.4,-33.722553,150.67413,-0.49191594,23.361393,13.387226,0.013683452,0.063598685,0.32969144,2.0350022,1.7267957,0.29785484,0.4086805,0.034107834,0.67504615,0.109781325,5.58496,240.0
42.572,-33.72255,150.67415,-0.5046095,23.672825,13.510797,0.014174011,0.06320353,0.32812956,2.0251567,1.7406745,0.15559258,0.16556115,-0.022175003,0.65984017,0.12436503,5.5308976,240.0
42.744,-33.722546,150.67415,-0.51496994,24.097025,13.689382,0.014794515,0.06500166,0.3254416,2.0097294,1.7612123,0.29895645,0.3123088,-0.009312201,0.67331105,0.11873311,5.4877687,240.0
42.9,-33.72254,150.67415,-0.5101849,24.553661,13.85731,0.01488741,0.0648568,0.3202664,2.0287452,1.7759892,0.32616478,0.36328435,0.016792,0.66019636,0.10766286,5.265305,240.0
43.052,-33.722538,150.67415,-0.50642675,24.883368,13.978899,0.015376363,0.0641268,0.3154635,2.0428896,1.7805796,0.25151724,0.27514568,-0.02173617,0.61143136,0.13873102,5.0386395,240.0
43.2,-33.722534,150.67415,-0.48861375,25.462648,14.211239,0.019149195,0.061632127,0.3071505,2.0993013,1.8163012,0.18266888,0.117025025,0.006039644,0.5588218,0.15251885,4.9700737,240.0
43.364,-33.72253,150.67415,-0.4786062,25.845215,14.368559,0.022614159,0.058398854,0.30010146,2.1363168,1.8331662,-0.21803464,0.06323398,0.04046711,0.55486315,0.0915571,4.806032,240.0
43.5,-33.722527,150.67415,-0.45693576,26.32857,14.5655775,0.022617422,0.05854669,0.30249238,2.1049092,1.8379533,-0.59444654,-0.20086445,-0.0010758273,0.5782206,0.07804993,4.9390006,240.0
43.696,-33.722523,150.67415,-0.4447142,26.672949,14.704809,0.021919364,0.060529195,0.306252,2.065898,1.835614,-0.21638805,0.1088009,0.013995458,0.59162307,0.1073723,5.2266784,240.0
43.844,-33.72252,150.67416,-0.4448014,27.125538,14.895571,0.022607462,0.06086438,0.3055974,2.055716,1.8417265,-0.27045816,0.10148786,-0.0034972606,0.5996866,0.104718894,5.142957,240.0
44.0,-33.722515,150.67416,-0.43564922,27.473131,15.046943,0.023122437,0.061861232,0.30530208,2.0452359,1.8487269,0.29379869,0.21901064,0.02011636,0.5852926,0.1313925,5.3656774,240.0
44.1,-33.72251,150.67416,-0.42657277,27.886488,15.227491,0.02681728,0.05997878,0.29846725,2.0777721,1.859643,-0.22935581,0.068687886,-0.022181587,0.56255364,0.11674595,5.1571527,240.0
44.3,-33.722507,150.67416,-0.42451122,28.137058,15.33865,0.027145017,0.0593474,0.29587898,2.0866032,1.8674992,-0.1492003,-0.10468225,-0.042400718,0.5412306,0.12818746,4.9629664,240.0
44.488,-33.722504,150.67416,-0.42595577,28.553198,15.526543,0.025882836,0.061943725,0.29665804,2.0414758,1.8558145,-0.18352543,-0.1272326,-0.02325312,0.5874579,0.1269555,5.3625693,240.0
44.6,-33.722504,150.67416,-0.43452388,28.938477,15.704378,0.024755213,0.062810786,0.2998174,2.0066369,1.8523905,-0.33954385,-0.19861424,-0.03238889,0.6160914,0.12720928,5.19185,240.0
44.8,-33.7225,150.67416,-0.4382776,29.154781,15.804727,0.024580633,0.06389531,0.3016002,1.987876,1.8546412,0.18087943,0.10212217,0.0070905867,0.6543021,0.10256079,5.725037,240.0
44.9,-33.722496,150.67416,-0.44605935,29.527357,15.98416,0.024262154,0.065324254,0.30465493,1.9537078,1.8544159,-0.13087596,-0.07692928,-0.042818304,0.7131052,0.07481673,5.8700795,240.0
45.08,-33.722496,150.67416,-0.4470506,29.70768,16.07373,0.024108898,0.06663098,0.30471885,1.9419641,1.8564796,0.37923458,0.48074815,0.024423927,0.7128215,0.079417914,5.7893434,240.0
45.28,-33.722492,150.67418,-0.45252976,30.192106,16.310179,0.029622644,0.063225046,0.29337046,2.0108175,1.8821639,0.27559537,0.20703931,-0.014372483,0.64490175,0.09359813,5.5549884,240.0
45.4,-33.722485,150.67418,-0.46671402,30.635756,16.529676,0.030727003,0.06321336,0.28897712,2.0086648,1.8880483,0.18781103,0.20327553,0.0072681,0.63773715,0.09560242,5.3242826,240.0
45.5,-33.722485,150.67418,-0.4726828,30.90549,16.655901,0.029650792,0.06418423,0.28781092,1.9958962,1.8820682,0.23569259,0.31232178,0.023955848,0.66260296,0.084281385,5.42906,240.0
45.7,-33.72248,150.67418,-0.47260612,31.240536,16.810696,0.030185869,0.06400034,0.28494114,2.0078685,1.8823446,0.107035086,0.0014331293,-0.016879804,0.61704504,0.1301094,5.43665,240.0
45.872,-33.722477,150.67418,-0.468272,31.585688,16.979795,0.03135512,0.064297505,0.2823444,2.0062897,1.8826092,-0.3380065,0.008912476,-4.9935876e-05,0.64581287,0.09624803,5.3875284,240.0
46.0,-33.722473,150.67418,-0.47388372,31.972513,17.171663,0.031078268,0.064494014,0.28057116,1.9974567,1.8815615,-0.2348373,-0.12732239,-0.0439323,0.63082886,0.1217415,5.363007,240.0
46.2,-33.72247,150.67418,-0.49455023,32.371708,17.36712,0.03002311,0.064762,0.27774978,1.9911073,1.8738208,-0.11805687,-0.10576791,-0.058377128,0.6669822,0.10271624,5.396014,240.0
46.3,-33.72247,150.67418,-0.5055429,32.685993,17.521748,0.029505359,0.065753125,0.2737364,1.9944388,1.8662313,-0.20175982,0.11298014,-0.03183534,0.6463059,0.12505022,5.2029233,240.0
46.5,-33.722466,150.67418,-0.49399352,33.02719,17.664246,0.031236032,0.064759746,0.26890853,2.0293093,1.8618155,-0.0018776564,-0.05053213,0.008432508,0.61929893,0.12258004,5.022533,240.0
46.664,-33.72246,150.6742,-0.4870736,33.41818,17.832113,0.03094538,0.06474521,0.26317155,2.042186,1.8411819,-0.35054255,-0.15747134,-0.056779094,0.60353315,0.14952055,5.0984225,240.0
46.8,-33.722458,150.6742,-0.48341322,33.675068,17.94831,0.030710246,0.064888194,0.2619692,2.0496266,1.8382226,0.06969484,-0.08418285,-0.045950998,0.64142984,0.113155425,4.8910565,240.0
46.996,-33.722454,150.6742,-0.47405574,34.106712,18.131128,0.03139058,0.06397686,0.2565193,2.073056,1.8182248,0.21810402,0.0054610143,-0.029592535,0.61168206,0.13265857,4.976124,240.0
47.1,-33.72245,150.6742,-0.4631858,34.52904,18.306725,0.03083987,0.06449086,0.25275013,2.0819044,1.7958511,0.4016463,0.12046295,-0.024814421,0.61694103,0.1344623,4.9880056,240.0
47.3,-33.72245,150.6742,-0.4628985,34.781685,18.41156,0.030295147,0.06505327,0.2490288,2.089535,1.7778893,0.35849643,0.2929511,0.0013403789,0.6282954,0.12941003,4.746661,240.0
47.4,-33.722446,150.6742,-0.45877433,35.189693,18.576015,0.029111572,0.0655965,0.24181281,2.1094,1.7436899,-0.04475841,-0.2908923,0.013048016,0.58956206,0.16361603,4.6792717,240.0
47.588,-33.722443,150.6742,-0.45064405,35.470924,18.69069,0.030090464,0.06528152,0.23916617,2.1257675,1.7303997,0.018443884,0.21365076,-0.0014823229,0.61246216,0.14541212,4.5961633,240.0
47.764,-33.72244,150.6742,-0.44787937,35.91809,18.875042,0.030661467,0.06499784,0.23577535,2.1434977,1.7117003,-0.002593897,-0.010287309,-0.0072295647,0.6119689,0.14177075,4.532876,240.0
47.9,-33.722435,150.6742,-0.4429343,36.17467,18.977268,0.029980538,0.06500186,0.23313145,2.1489677,1.6923463,-0.40479696,-0.10148722,-0.04980829,0.5827671,0.17705783,4.635087,240.0
48.0,-33.72243,150.67421,-0.42310512,36.64262,19.146856,0.029477172,0.06503704,0.22999807,2.1541514,1.6612668,0.037779216,0.1758715,-0.0023606697,0.6199176,0.14736372,4.77341,240.0
48.184,-33.72243,150.67421,-0.42094284,36.869545,19.226585,0.029263543,0.06467481,0.22754048,2.1767123,1.6496078,0.04566557,-0.12916672,-0.061529946,0.5735742,0.18572012,4.5253344,240.0
48.38,-33.722427,150.67421,-0.42650443,37.338364,19.402107,0.028911596,0.06546617,0.22025827,2.190842,1.6130978,-0.29253036,-0.17751263,-0.05835987,0.5853945,0.18058857,4.454099,240.0
48.5,-33.722424,150.67421,-0.42976093,37.768024,19.568645,0.028815601,0.06578763,0.21866281,2.195322,1.5961362,-0.16066179,-0.19617836,-0.028888509,0.61341435,0.15970747,4.4807386,240.0
48.7,-33.72242,150.67421,-0.41989237,38.10205,19.691673,0.030927641,0.064388745,0.21953481,2.2267432,1.6040989,-0.056147832,-0.20731021,-0.023400122,0.5960267,0.14524333,4.5111656,240.0
48.8,-33.722416,150.67421,-0.39589956,38.66873,19.896763,0.034611214,0.062181316,0.21959938,2.242185,1.6021776,-0.43237314,-0.30537045,-0.04801105,0.61847425,0.111405164,4.9313006,240.0
48.976,-33.722412,150.67421,-0.3797475,38.95291,20.000746,0.034466088,0.06261355,0.21730666,2.2427046,1.5942103,0.24128373,0.051110648,-0.004499048,0.62330794,0.1075435,4.871013,240.0
49.172,-33.72241,150.67421,-0.35345522,39.468674,20.175322,0.033337947,0.06287004,0.21091884,2.249085,1.5565171,0.06430963,-0.12494827,-0.03785704,0.6255331,0.12330699,4.862719,240.0
49.3,-33.722404,150.67421,-0.34667596,39.875736,20.30657,0.032462243,0.06389099,0.20472622,2.2600842,1.5192571,0.3432292,0.20204163,-0.0068068127,0.61816365,0.1394171,4.9173584,240.0
49.5,-33.7224,150.67421,-0.35060704,40.199345,20.419178,0.032165643,0.06374396,0.19966556,2.2799523,1.4988428,0.42851818,0.11167074,-0.0034165352,0.6073153,0.14511469,4.6105347,240.0
49.6,-33.722397,150.67422,-0.3509728,40.654194,20.586771,0.032049973,0.064017236,0.19280949,2.30506,1.4697922,0.37963796,-0.009027097,-0.043276306,0.57147145,0.18449928,4.4923525,240.0
49.792,-33.722393,150.67422,-0.35703593,40.90702,20.678148,0.032743156,0.06376715,0.18974434,2.325867,1.4610225,-0.010485909,0.10277928,-0.026857914,0.5723513,0.1611938,4.0877576,240.0
49.964,-33.72239,150.67422,-0.3689408,41.426514,20.86409,0.03569699,0.060803447,0.18697296,2.37546,1.4595637,-0.50968474,-0.24766693,-0.04465529,0.53472275,0.15102416,4.175303,240.0
50.096,-33.722385,150.67422,-0.37329972,41.76996,20.992514,0.0354082,0.06100923,0.18152235,2.3747163,1.4347218,-0.4970781,-0.21179986,-0.074223556,0.5339699,0.16995695,4.1446185,240.0
50.2,-33.72238,150.67422,-0.37463403,42.278057,21.166412,0.034400057,0.061797712,0.17351119,2.3788009,1.3890103,-0.07881022,0.07641457,-0.019663246,0.57962286,0.14492282,4.3077116,240.0
50.4,-33.722378,150.67422,-0.37190172,42.552135,21.25316,0.034681424,0.061204936,0.17068733,2.403322,1.3718427,-0.13921167,-0.23872228,-0.06941274,0.5335552,0.17496473,4.497797,240.0
50.5,-33.722374,150.67422,-0.35207456,43.03517,21.409231,0.034982584,0.062048487,0.16692959,2.401653,1.3330504,-0.3472622,-0.28107446,-0.033460174,0.58447665,0.13923126,4.7517066,240.0
50.692,-33.722374,150.67422,-0.34086972,43.271626,21.485178,0.0349383,0.062474657,0.16685371,2.395835,1.3196806,0.32337758,0.045378406,0.015866732,0.6004407,0.13645273,4.798818,240.0
50.888,-33.722366,150.67422,-0.31633356,43.778202,21.64956,0.034936998,0.063324146,0.16309069,2.408611,1.2836341,0.10477167,-0.19493045,-0.055684913,0.6080618,0.13352561,4.8211427,240.0
51.0,-33.722363,150.67422,-0.2831834,44.21135,21.7845,0.035306804,0.06326927,0.15805322,2.4235122,1.253147,0.504818,-0.00449269,-0.027977178,0.58106333,0.16565293,4.7197075,240.0
51.172,-33.722363,150.67422,-0.2695209,44.519104,21.880924,0.035722952,0.06326931,0.15601325,2.4357412,1.2384021,0.45697954,0.07232588,-0.0037201438,0.61059666,0.12122178,4.691788,240.0
51.3,-33.72236,150.67424,-0.25620773,44.876812,21.988007,0.03567031,0.06295299,0.15037802,2.4503548,1.2069255,4.882823e-05,-0.20847519,-0.06882431,0.593585,0.14227602,4.528832,240.0
51.484,-33.722355,150.67424,-0.24349791,45.27083,22.09507,0.035368238,0.064083286,0.14368089,2.4557524,1.1669302,-0.060430713,-0.2757463,-0.0001291427,0.5706644,0.16952993,4.533157,240.0
51.6,-33.72235,150.67424,-0.22835845,45.726807,22.22006,0.035594255,0.06356511,0.13971706,2.4818842,1.1385963,-0.22388455,-0.100329116,-0.021942625,0.557588,0.17093599,4.4943085,240.0
51.784,-33.722347,150.67424,-0.21899539,46.07572,22.323875,0.036524765,0.06183132,0.1420796,2.503921,1.141255,-0.4885438,-0.2056708,-0.040700324,0.587521,0.11559875,4.616926,240.0
51.9,-33.722343,150.67424,-0.20392627,46.574398,22.46658,0.036481794,0.06106769,0.13593203,2.5072913,1.1049118,-0.51496303,-0.2938716,-0.073913306,0.620863,0.09169644,4.8298135,240.0
52.076,-33.72234,150.67424,-0.19325835,46.877724,22.54211,0.035986077,0.061949678,0.12765914,2.510364,1.0624012,-0.19124565,-0.26569957,-0.09487268,0.55238646,0.17600876,4.9063077,240.0
52.276,-33.722336,150.67424,-0.17198372,47.36973,22.653374,0.03578445,0.06249295,0.12102954,2.5213256,1.0099554,-0.33877206,-0.29276615,-0.043429486,0.58299303,0.14763662,5.2398376,240.0
52.4,-33.722332,150.67424,-0.1675936,47.852543,22.76098,0.0359597,0.06091602,0.12331489,2.5533218,0.9950043,0.14839947,-0.23643559,-0.021227641,0.62154794,0.08862159,5.1390285,240.0
52.576,-33.72233,150.67424,-0.16751373,48.225235,22.844334,0.036118396,0.059090782,0.12403996,2.5715332,0.98115164,-0.063336074,-0.30043018,-0.074754804,0.58768666,0.102606654,5.073745,240.0
52.7,-33.722324,150.67424,-0.17669356,48.688236,22.945656,0.0358012,0.06048103,0.113622405,2.569401,0.9238019,0.18722124,-0.16569974,-0.06306359,0.5794809,0.12707208,4.9491296,240.0
52.868,-33.72232,150.67424,-0.18347609,48.989967,23.012001,0.035603788,0.06094386,0.106453896,2.5697184,0.88420933,0.49463618,-0.025855495,-0.023552582,0.607774,0.11810705,5.3202634,240.0
53.02,-33.722317,150.67424,-0.18726307,49.394604,23.084076,0.03527852,0.06171212,0.09976241,2.571905,0.8299229,-0.12939335,-0.059878163,-0.023352401,0.60659647,0.13219544,5.2435184,240.0
53.2,-33.722313,150.67424,-0.18415552,49.865555,23.160002,0.035321563,0.06258215,0.09382783,2.5796404,0.77294093,0.31803182,-0.059798975,0.006963023,0.59174,0.14971314,5.259764,240.0
53.3,-33.72231,150.67424,-0.18041241,50.262817,23.218527,0.03525794,0.060597446,0.09815761,2.6207044,0.76753277,0.38373166,-0.087018885,0.002079373,0.6277107,0.0753063,5.242475,240.0
53.5,-33.722305,150.67424,-0.17344391,50.5812,23.2574,0.035230868,0.060262565,0.09597402,2.622698,0.7342193,0.21710248,-0.08141726,-0.027084988,0.60449374,0.101281285,5.4312305,240.0
53.6,-33.7223,150.67424,-0.15875107,51.014214,23.308214,0.035027567,0.061361685,0.08481299,2.6163478,0.6619273,-0.056411628,0.000663394,-0.007872736,0.58334744,0.14203182,5.437449,240.0
53.792,-33.7223,150.67426,-0.14520633,51.25576,23.33314,0.03509996,0.061627425,0.07922404,2.6222036,0.6213518,-0.09425021,-0.28684458,-0.08311441,0.55427194,0.17989875,5.3861737,240.0
53.992,-33.722298,150.67426,-0.124130964,51.657166,23.37189,0.03537298,0.06271996,0.06922599,2.6344123,0.5568485,0.10636414,-0.27601442,-0.06790275,0.5389751,0.19600594,5.0044327,240.0
54.1,-33.722294,150.67426,-0.11310774,52.066692,23.416103,0.035970565,0.06345532,0.06526701,2.6365163,0.51322293,0.26029122,-0.25414363,-0.024907218,0.5805775,0.16494097,5.1561713,240.0
54.2,-33.72229,150.67426,-0.10280299,52.362534,23.443335,0.036191158,0.06351577,0.0635474,2.6374152,0.48484612,0.107779056,-0.27478543,-0.033727065,0.56482077,0.17804074,5.0826297,240.0
54.4,-33.72229,150.67426,-0.09455031,52.659264,23.46986,0.036265936,0.06387107,0.063218914,2.6315064,0.460675,0.11986421,-0.25517535,-0.035845637,0.6197269,0.13714671,5.034304,240.0
54.584,-33.722286,150.67426,-0.09803516,53.04627,23.499794,0.03684954,0.06420538,0.0651519,2.3443756,0.4050659,-3.4736428,-0.53886324,0.111215316,-0.8665416,-1.0,5.0167456,240.0
54.7,-33.722282,150.67426,-0.098726094,53.402588,23.517305,0.03951752,0.05599383,0.10821118,2.0834444,0.45187697,2.1263905,0.7343691,0.5554892,-1.0,1.0,4.96991,240.0
54.9,-33.72228,150.67426,-0.084628224,53.6269,23.52201,0.043404516,0.059368186,0.18517101,2.282506,0.6935342,1.478389,0.6519578,0.7018347,-0.15779832,-1.0,5.041392,240.0
55.0,-33.722275,150.67426,-0.08271712,54.02099,23.549406,0.04877192,0.050605793,0.30538556,2.091556,0.97414726,2.083161,1.8299308,0.6430391,-1.0,1.0,5.1151915,240.0
55.18,-33.722275,150.67426,-0.07975459,54.251793,23.581768,0.050247923,0.048489492,0.36288667,1.9082856,1.0340472,-2.3854907,-1.5663906,0.55641925,-1.0,1.0,4.7303443,240.0
55.376,-33.72227,150.67426,-0.09112728,54.768383,23.686,0.0529135,0.041083965,0.4769425,1.8140419,1.4298136,-2.169001,-1.902704,0.484791,-0.41042402,-1.0,4.587638,240.0
55.5,-33.722267,150.67426,-0.10510814,55.182606,23.787163,0.055543516,0.035230033,0.5636031,1.5303084,1.6677774,0.4572652,3.489862,0.7206441,-1.0,1.0,4.8941255,240.0
55.6,-33.722263,150.67426,-0.107347906,55.433987,23.877737,0.05825268,0.03498551,0.64788806,1.2993879,1.8422039,-1.4195284,-2.0044096,0.53106874,-1.0,1.0,5.1724477,240.0
55.8,-33.72226,150.67426,-0.114564836,55.693047,23.986326,0.05965851,0.023919541,0.72512335,1.0573884,2.241619,-0.8904606,2.63274,0.6773945,-0.12258431,-1.0,5.1329155,240.0
55.972,-33.72226,150.67426,-0.122430384,56.033417,24.176868,0.060512878,0.021672243,0.83734244,0.60847425,2.2878275,-0.8654835,-2.2079473,0.48360312,-0.41967627,-1.0,5.2004957,240.0
56.12,-33.722256,150.67426,-0.13983685,56.313595,24.349812,0.059995808,0.013035421,0.9160199,0.2343163,2.2237587,-2.1778467,4.003398,0.5612394,-1.0,1.0,4.83052,240.0
56.3,-33.72225,150.67426,-0.15935093,56.56193,24.54242,0.05949543,0.012881045,1.0142721,-0.35553974,2.653836,-2.3400154,2.2898383,0.7414064,-0.13875967,-0.99999994,4.7745986,240.0
56.4,-33.72225,150.67427,-0.19036126,56.900494,24.858732,0.059768494,-0.0003708844,1.1077595,-0.64125896,2.2743232,-0.1637597,-1.8864131,0.4104191,-0.49230283,-1.0,4.717093,240.0
56.6,-33.722248,150.67427,-0.19243813,57.11592,25.06568,0.060236342,-0.01204435,1.1381783,-0.95439154,2.38023,-1.7443442,0.05750738,0.55209285,-0.31957197,-1.0,4.517074,240.0
56.7,-33.722244,150.67427,-0.19667208,57.394943,25.37483,0.05589277,-0.012178033,1.2208488,-1.1463163,2.0285852,-0.2036438,-1.3950099,0.35956088,-0.54730844,-1.0,4.8001304,240.0
56.896,-33.722244,150.67427,-0.20707476,57.51073,25.520535,0.05232515,-0.015116175,1.2690961,-1.3033323,1.8537704,-1.2458665,-0.5589227,0.3915273,-1.0,-0.09372991,4.822356,240.0
57.064,-33.722244,150.67427,-0.20151651,57.653885,25.75316,0.046528175,-0.01228023,1.3567519,-1.8437797,1.6626081,-7.242059,2.0549812,0.50171447,0.42630547,0.58797175,4.5495605,240.0
57.2,-33.72224,150.67427,-0.21013618,57.790974,26.098177,0.042660687,-0.009779726,1.4338349,-2.6001227,1.5203451,-1.267515,-0.7090857,0.39239317,0.3450298,0.15887836,4.7145634,240.0
57.3,-33.72224,150.67429,-0.2227661,57.86928,26.38445,0.037438735,-0.009254159,1.4948025,-2.7594924,1.1836189,-0.70482683,-0.5330804,0.24234962,0.4887023,-0.012082338,4.738858,240.0
57.5,-33.72224,150.67429,-0.2318669,57.903015,26.5942,0.03431889,-0.0077872914,1.5237114,-2.8187313,0.969635,-0.6354939,-0.8909123,0.112166844,0.50732535,-0.019582927,4.7033176,240.0
57.688,-33.72224,150.67429,-0.25334603,57.924805,26.974493,0.030698955,-0.0018431745,1.54561,-2.8846025,0.66158473,-0.8663353,-0.8004051,-0.011977097,0.5280081,-0.051609397,4.769154,240.0
57.8,-33.72224,150.67429,-0.2625372,57.92272,27.367943,0.027033085,0.0007973278,1.5437244,-2.885503,0.46296498,-0.30588758,-0.8302557,-0.05308404,0.49140012,-0.00785698,4.573137,240.0
58.0,-33.72224,150.6743,-0.2707425,57.91191,27.59573,0.025570715,0.00030263612,1.5392965,-2.889212,0.3782251,-0.4635866,-0.5823317,-0.08577305,0.46621302,0.019690484,4.889029,240.0
58.1,-33.72224,150.6743,-0.2702989,57.87166,27.993502,0.0222288,0.0052164504,1.5343997,-2.859691,0.22368377,-0.386043,-0.5572815,-0.08353064,0.5106938,0.019448996,4.7579966,240.0
58.28,-33.72224,150.6743,-0.26701912,57.841988,28.238403,0.021344364,0.0058556404,1.5297997,-2.8638358,0.1467234,-0.63337684,-0.56633836,-0.06545534,0.48018122,0.049963698,4.910104,240.0
58.48,-33.72224,150.6743,-0.26556703,57.780926,28.645313,0.019569037,0.0073240055,1.5265335,-2.859164,0.016577482,-0.76301515,-0.52055675,-0.04200678,0.5133316,0.03745371,5.1627293,240.0
58.6,-33.722244,150.67432,-0.27126226,57.710747,29.087149,0.016621452,0.009630149,1.5254804,-2.8507204,-0.11289929,-0.43261,-0.49262938,-0.040028993,0.5464233,0.028996825,5.2722135,240.0
58.7,-33.722244,150.67432,-0.27864325,57.664173,29.346504,0.015110321,0.008814074,1.5238506,-2.8574145,-0.17133008,-0.78783184,-0.4262117,-0.04341726,0.52352196,0.046565726,5.492234,240.0
58.9,-33.722244,150.67432,-0.28388444,57.612423,29.613829,0.01398782,0.009794285,1.5217159,-2.8639944,-0.22050256,-0.3702901,-0.37703913,-0.003464493,0.55394924,0.024166256,5.3366213,240.0
59.072,-33.722244,150.67432,-0.2878623,57.50466,30.226952,0.01985076,0.006926993,1.5127802,-2.9970422,-0.28213245,-0.107382834,-0.44159198,-0.020456942,0.46666646,-0.0138302,5.2483673,240.0
59.2,-33.722244,150.67433,-0.30930066,57.411125,30.692347,0.017659413,0.0065518455,1.5086203,-2.9712172,-0.34034935,0.15364897,-0.45858714,-0.036410708,0.47848618,0.012862816,5.1281934,240.0
59.4,-33.722248,150.67433,-0.32014048,57.337505,31.047434,0.013446089,0.00865905,1.5048773,-2.9287813,-0.36804458,-0.59394294,-0.17609297,-0.04788722,0.5250125,0.020208597,5.185823,240.0
59.5,-33.722248,150.67433,-0.31595165,57.25089,31.441097,0.012511296,0.0090322085,1.4975703,-2.9434915,-0.3817299,-0.47554985,-0.35792366,-0.005204718,0.5147592,0.029282913,5.2899,240.0
59.668,-33.722248,150.67433,-0.3111495,57.198845,31.669336,0.011485902,0.008927449,1.4944091,-2.9392242,-0.38848144,-0.013561328,-0.27628878,-0.0455832,0.48982966,0.06332268,5.340664,240.0
59.844,-33.722248,150.67435,-0.30602977,57.113758,32.110756,0.011664061,0.008389225,1.4912487,-2.9749959,-0.40368152,-0.28783354,-0.13013545,-0.04491876,0.49229735,0.03674583,5.476941,240.0
59.996,-33.722248,150.67435,-0.30867296,57.044987,32.410168,0.011057531,0.0087073725,1.4887707,-2.9688096,-0.41498798,-0.12921369,-0.10528453,-0.056303333,0.48510346,0.05317536,5.32156,240.0
60.1,-33.722248,150.67435,-0.3169212,56.933563,32.826572,0.007692559,0.00994245,1.4817473,-2.9344873,-0.40180802,-0.100655206,-0.088149235,-0.05894437,0.5010018,0.082996175,5.3036995,240.0
60.3,-33.72225,150.67435,-0.3195694,56.88189,33.030518,0.006194143,0.010595083,1.4770858,-2.940362,-0.38149992,-0.80718607,0.10546165,-0.045463715,0.50157297,0.08181083,4.997751,240.0
60.4,-33.72225,150.67436,-0.31916663,56.77123,33.469883,0.004759794,0.011067516,1.4673208,-2.9472167,-0.3287296,-0.3848784,0.11881236,-0.071973495,0.49312356,0.09469244,4.509621,240.0
60.592,-33.72225,150.67436,-0.3188533,56.715054,33.758022,0.005829386,0.010624176,1.4653513,-2.984187,-0.31572023,-0.5312356,0.027692566,0.0021626018,0.502985,0.0467408,4.78332,240.0
60.76,-33.72225,150.67436,-0.31543323,56.610962,34.280487,0.0073447847,0.009833226,1.4609734,-3.0062737,-0.3026195,-0.20888849,-0.16904724,-0.014378747,0.5025998,0.029947475,4.9757466,240.0
60.9,-33.72225,150.67438,-0.3005194,56.529716,34.69912,0.0055272877,0.010389132,1.4499005,-2.9816995,-0.26494512,0.10109435,-0.0714239,-0.037958555,0.48280716,0.0807216,4.8322487,240.0
61.0,-33.722256,150.67438,-0.28953063,56.467567,35.030087,0.003764684,0.011138719,1.4440284,-2.960499,-0.2398616,-0.32704782,-0.12056107,0.005075822,0.5057267,0.090136856,5.2358594,240.0
61.2,-33.722256,150.67438,-0.28197923,56.409107,35.311787,0.0030122013,0.011059411,1.4405733,-2.9631197,-0.21457495,-0.18681514,-0.044102114,0.003584977,0.47532535,0.11371471,4.9016156,240.0
61.384,-33.722256,150.67438,-0.26887098,56.31969,35.713154,0.0018577763,0.012020872,1.4340765,-2.959925,-0.18077375,0.020662915,0.014927205,-0.019444907,0.50639415,0.09403752,4.972586,240.0
61.5,-33.722256,150.6744,-0.25582042,56.246197,36.07074,0.0013790156,0.01260517,1.4309493,-2.9526725,-0.16508423,-0.16442697,0.17385675,0.020021377,0.4910149,0.1083744,4.959743,240.0
61.6,-33.722256,150.6744,-0.2429379,56.17633,36.464302,0.0015233415,0.01195985,1.4311177,-2.9755712,-0.15059589,-0.18111572,0.1645673,-0.048611473,0.4954702,0.088359684,5.0795374,240.0
61.8,-33.722256,150.6744,-0.2328881,56.107418,36.88771,0.0026620724,0.010980311,1.4341464,-3.003894,-0.14810768,0.2768375,-0.1327461,-0.042329375,0.537595,0.017074406,4.8736944,240.0
61.976,-33.72226,150.6744,-0.2241115,56.029144,37.30751,0.002322302,0.01095737,1.4259325,-2.9990706,-0.13084142,-0.56631976,-0.06359446,-0.06472816,0.49972826,0.0648319,5.2031107,240.0
62.128,-33.72226,150.67441,-0.21711761,55.94982,37.745613,0.0007640042,0.012205097,1.4095339,-2.9803755,-0.06365389,-0.58315384,0.22723338,-0.04876164,0.48884907,0.10690817,4.600658,240.0
62.3,-33.72226,150.67441,-0.21243137,55.883987,38.201305,0.0002458537,0.0117877,1.4027398,-2.9864347,-0.009005727,-0.33530605,0.12536256,-0.004982773,0.47634166,0.106100395,4.61532,240.0
62.4,-33.72226,150.67441,-0.20744461,55.837242,38.535786,6.952206e-05,0.012154497,1.3986626,-2.9798272,0.018262153,-0.44999382,0.24927942,-0.0291025,0.49877328,0.09227519,4.861324,240.0
62.6,-33.72226,150.67442,-0.1987893,55.777657,38.89486,-9.258615e-05,0.011804044,1.3930947,-2.9786134,0.052431062,-0.030723866,0.21734895,-0.06302913,0.5191409,0.08104639,4.7956676,240.0
62.768,-33.72226,150.67442,-0.17992657,55.728092,39.25132,-0.0010896043,0.012691336,1.3846493,-2.960872,0.10183354,-0.32298285,0.036929034,-0.010295712,0.51249593,0.094334885,4.6105266,240.0
62.924,-33.72226,150.67442,-0.17633659,55.672478,39.667343,-0.0015503012,0.012373024,1.3789592,-2.957462,0.14701036,0.1439026,0.096352085,-0.044306524,0.48676795,0.11776452,4.547045,240.0
63.1,-33.722263,150.67442,-0.17964804,55.603275,40.16257,-0.0017157408,0.012492459,1.3741686,-2.9430518,0.17782174,0.09709293,-0.063463666,-0.0038336315,0.50040853,0.10782042,4.7219815,240.0
63.2,-33.722263,150.67444,-0.17905033,55.580753,40.489067,-0.0022400268,0.0127471015,1.3705034,-2.9313977,0.21461128,-0.27754578,0.024772689,0.002768305,0.5343528,0.08506082,4.7658772,240.0
63.4,-33.722263,150.67444,-0.17147541,55.571438,40.829098,-0.0025947264,0.012643151,1.3679163,-2.9285324,0.25786987,-0.2797214,0.23109227,-0.042770788,0.48801896,0.11413339,4.5362244,240.0
63.5,-33.722263,150.67444,-0.15454137,55.564007,41.213116,-0.0035928881,0.012715746,1.3577086,-2.9013946,0.32320505,0.2293087,-0.021813402,-0.040099118,0.48135042,0.13900971,4.399289,240.0
63.692,-33.722263,150.67444,-0.1435538,55.552406,41.446342,-0.0039397804,0.013196909,1.3530087,-2.8947275,0.3509907,-0.7255832,0.22810125,-0.04518143,0.4933957,0.13636126,4.724361,240.0
63.892,-33.722263,150.67445,-0.1265614,55.52568,41.931507,-0.004429693,0.013356992,1.3444129,-2.8801086,0.414464,-0.2018352,0.26000625,-0.057189666,0.49499983,0.13612013,4.520632,240.0
64.0,-33.722263,150.67445,-0.1114921,55.50838,42.37854,-0.005018034,0.014486666,1.3405359,-2.8478363,0.44502208,-0.098072715,0.19499889,-0.02703105,0.549971,0.10784544,4.69806,240.0
64.1,-33.722263,150.67445,-0.10260445,55.499283,42.647984,-0.0052140537,0.014994993,1.3404437,-2.8386788,0.45177865,-0.41139874,0.20854248,0.00014782508,0.5510767,0.108385995,5.0731087,240.0
64.3,-33.722263,150.67445,-0.09123409,55.487232,43.022354,-0.0055274703,0.014528222,1.3402842,-2.8305216,0.4686587,0.20183249,-0.04901703,-0.02917193,0.58624876,0.0766958,4.9726896,240.0
64.484,-33.722263,150.67447,-0.084753275,55.471962,43.4037,-0.005970762,0.01548835,1.3370366,-2.8201737,0.47888613,-0.16290513,0.033109322,0.022873046,0.59904605,0.07036823,5.0719504,240.0
64.6,-33.722263,150.67447,-0.06141299,55.446476,43.861553,-0.006271208,0.015869135,1.3322417,-2.8112671,0.49623728,-0.26337808,-0.0035751334,0.008418537,0.5986459,0.07874155,5.301477,240.0
64.8,-33.722263,150.67447,-0.053391874,55.424282,44.17117,-0.0063608494,0.015800534,1.3277438,-2.8099463,0.51360166,-0.043823835,-0.13159603,-0.00031367803,0.6020376,0.07360035,5.033815,240.0
64.9,-33.722263,150.67448,-0.046848834,55.402466,44.70484,-0.00664084,0.016092043,1.3208593,-2.8026636,0.53520745,-0.42638692,0.11211477,0.021652674,0.578675,0.10827331,5.3252783,240.0
65.08,-33.722263,150.67448,-0.04683131,55.402927,44.98156,-0.0068281554,0.016287334,1.3190364,-2.7977486,0.54505324,0.11402667,-0.21837816,-0.04489582,0.6014635,0.087251246,5.511952,240.0
65.276,-33.722263,150.67448,-0.035078824,55.406437,45.608074,-0.006405638,0.014136733,1.3229454,-2.8382697,0.55007106,-0.17594853,-0.1824272,-0.034840353,0.6173543,0.02366054,5.6648283,240.0
65.4,-33.722263,150.6745,-0.02623266,55.402077,46.13514,-0.006623305,0.013066252,1.314654,-2.8378284,0.5812914,0.28877363,-0.15737376,-0.0887357,0.6112742,0.03231865,5.6325865,240.0
65.56,-33.722263,150.6745,-0.023715258,55.40124,46.489,-0.0071343165,0.013325111,1.3029972,-2.825581,0.62477225,0.1750896,-0.10369697,-0.12051303,0.57673603,0.075235784,5.489701,240.0
65.7,-33.722263,150.6745,-0.028851092,55.39715,46.864426,-0.0075553325,0.014657993,1.2899271,-2.8087866,0.6766197,0.37018445,0.3855635,-0.052179884,0.5717191,0.085442364,5.33232,240.0
65.872,-33.722263,150.6745,-0.04634589,55.38789,47.255363,-0.007626078,0.013843032,1.2797475,-2.803798,0.7320384,0.06077978,0.23293519,-0.07230867,0.5815423,0.075185,5.2629724,240.0
66.04,-33.722263,150.67451,-0.061154246,55.380527,47.69611,-0.007592125,0.014642734,1.270246,-2.7866342,0.7753268,-0.32172754,0.25717238,-0.021217283,0.61925507,0.046437055,5.3768573,240.0
66.2,-33.722263,150.67451,-0.06724322,55.372967,48.117596,-0.00757745,0.014625458,1.2627478,-2.7716937,0.8116853,0.24693601,-0.11361738,-0.06376383,0.63780975,0.02810195,5.467539,240.0
66.3,-33.722263,150.67451,-0.06943989,55.3664,48.638363,-0.007113237,0.012348314,1.2569163,-2.805288,0.8493868,-0.04773281,0.1991918,-0.055961948,0.6153717,0.016917467,5.562171,240.0
66.5,-33.722263,150.67453,-0.068624854,55.368835,49.014828,-0.0072127166,0.012423686,1.2524697,-2.7989318,0.8669754,0.10333951,0.12847957,-0.04414859,0.6479843,-0.004930556,5.6920567,240.0
66.6,-33.722263,150.67453,-0.06635165,55.36586,49.49758,-0.007531701,0.012957869,1.2408867,-2.7759206,0.90165263,-0.26727742,0.29399237,-0.01908621,0.6281661,0.026939988,5.9247737,240.0
66.796,-33.722263,150.67453,-0.05613792,55.363693,49.778904,-0.007569109,0.013596508,1.2343256,-2.7650807,0.9295118,-0.11836442,-0.01371748,-0.06927558,0.64395565,0.015823662,5.856684,240.0
66.992,-33.722263,150.67455,-0.033569813,55.36587,50.275673,-0.0078693,0.012859428,1.2208282,-2.7466614,0.99157387,0.09951946,-0.088988446,-0.097199075,0.6321603,0.02957666,5.6874332,240.0
67.1,-33.722263,150.67455,-0.007453084,55.36213,50.735535,-0.008118153,0.013466096,1.203842,-2.7071154,1.0690961,0.17559083,0.042845834,-0.12144124,0.629176,0.041692644,5.522273,240.0
67.2,-33.722263,150.67455,-0.0044826865,55.358044,51.042942,-0.008469292,0.014699116,1.1910849,-2.6743395,1.1207633,0.13220151,0.0038848596,-0.09701007,0.62331957,0.06632215,5.476196,240.0
67.4,-33.722263,150.67455,-0.008054733,55.356087,51.329933,-0.0084280465,0.014819247,1.1850555,-2.6523123,1.1485142,0.24316004,-0.03933974,-0.0807329,0.67188466,0.021950841,5.8041487,240.0
67.588,-33.722263,150.67456,-0.0070623755,55.372826,51.77269,-0.00830009,0.014646928,1.1724262,-2.6312547,1.2217535,0.086380556,0.23735058,-0.093274295,0.64526,0.04264316,5.7368608,240.0
67.7,-33.722263,150.67456,-0.0018234253,55.41497,52.27695,-0.008553128,0.014187679,1.1602507,-2.5986853,1.2904065,0.26604193,0.118551254,-0.103197165,0.6465044,0.04011461,5.749779,240.0
67.9,-33.722263,150.67456,0.014074683,55.44698,52.563152,-0.008963661,0.014577372,1.1498973,-2.5720804,1.3431113,-0.04335518,0.37763575,-0.07013274,0.66229445,0.023241699,5.600395,240.0
68.0,-33.722263,150.67458,0.04028189,55.502087,53.042854,-0.0093425,0.015019853,1.134311,-2.522885,1.4216594,-0.1117097,0.43859443,-0.04515627,0.6639879,0.031363487,5.5453787,240.0
68.18,-33.722263,150.67458,0.053812444,55.543495,53.371002,-0.009148487,0.014383357,1.1272132,-2.5119846,1.4679153,0.27015644,0.23610047,-0.025506947,0.7016217,-0.024927795,5.6473274,240.0
68.38,-33.722263,150.67458,0.06666064,55.6156,53.93976,-0.008401226,0.012156608,1.1141505,-2.499575,1.5450363,-0.067795485,0.003422923,-0.06226326,0.6896514,-0.039559543,5.6499104,240.0
68.5,-33.72226,150.67459,0.0806312,55.66949,54.4626,-0.008607502,0.012656196,1.0980546,-2.465596,1.6205317,-0.13809182,0.1597358,-0.088521555,0.70488155,-0.06741777,5.755742,240.0
68.6,-33.72226,150.67459,0.09269643,55.716034,54.85073,-0.009076475,0.012831375,1.0843871,-2.4380317,1.6925635,-0.02053087,0.41115323,-0.07471056,0.70126444,-0.07230884,5.6199317,240.0
68.8,-33.72226,150.67459,0.1056695,55.778564,55.287945,-0.009266273,0.011699294,1.0692376,-2.4024193,1.7753773,0.26106352,0.33346575,-0.1003119,0.66943556,-0.04758054,5.6469455,240.0
68.972,-33.72226,150.67459,0.11604643,55.855568,55.769444,-0.00891753,0.01043586,1.0503691,-2.3742905,1.8720567,-0.12485545,0.20249648,-0.12427756,0.6965865,-0.11047807,5.5198426,240.0
69.1,-33.72226,150.6746,0.12023878,55.92665,56.247444,-0.008171676,0.006466894,1.0490025,-2.1658235,1.566724,1.6009051,-2.4475243,0.13198517,-0.8416178,-1.0,5.703973,240.0
69.3,-33.72226,150.6746,0.12880284,55.943363,56.51607,-0.007908615,0.006454994,1.0786835,-2.0003366,1.21625,1.3903975,-1.8771793,0.27218106,1.0,-1.0,5.423352,240.0
69.4,-33.72226,150.6746,0.14130801,55.971462,56.966568,-0.008797081,0.008638272,1.1048392,-1.9719052,1.1070906,1.2670302,-1.698735,0.20822641,1.0,-1.0,5.4315968,240.0
69.568,-33.72226,150.67462,0.1479007,55.982933,57.190815,-0.009498361,0.0061989743,1.1123848,-2.14393,1.3155407,-0.86552525,2.5667582,0.033825293,-0.95940965,-1.0,5.3548713,240.0
69.764,-33.72226,150.67462,0.16860247,56.010326,57.627357,-0.009431532,0.006580116,1.12616,-2.1771262,1.2886046,1.553521,-2.155994,-0.05297567,-1.0,-0.95092815,5.648008,240.0
69.896,-33.72226,150.67462,0.18128884,56.022614,57.87594,-0.009124775,0.00438462,1.1306567,-2.0440648,1.0794176,1.3412483,-1.7554214,0.1429999,1.0,-1.0,5.616352,240.0
70.096,-33.72226,150.67462,0.20544529,56.04073,58.288097,-0.008876051,0.0108563835,1.1352366,-2.1069405,1.1384238,1.3882697,-1.7325606,0.114418134,-0.86269826,-1.0,5.3625317,240.0
70.2,-33.72226,150.67462,0.22250932,56.037407,58.59275,-0.009282255,0.0049159736,1.1594648,-2.1179755,1.0876713,-2.478491,3.000129,-0.011463043,1.0,-1.0,5.2522135,240.0
70.376,-33.72226,150.67464,0.22724384,56.040943,58.786377,-0.0093452595,0.01231187,1.1520402,-1.9946413,0.9836303,1.3112955,-1.5499718,0.02873535,1.0,-1.0,4.936199,240.0
70.5,-33.72226,150.67464,0.22772586,56.048416,59.016945,-0.009146908,0.011441588,1.1461512,-2.1057749,1.1489943,1.633646,-1.9188184,-0.043795273,-1.0,-0.8613839,5.067682,240.0
70.688,-33.72226,150.67464,0.23828107,56.059742,59.27876,-0.00865773,0.011716059,1.1402397,-2.1290288,1.2281793,-1.5669712,2.2935698,-0.21761447,-1.0,-0.8608687,4.917759,240.0
70.8,-33.722256,150.67464,0.24641693,56.090137,59.621136,-0.008649051,0.012883873,1.1281426,-2.0972311,1.2629555,-2.3038545,2.4719028,-0.13721494,-1.0,-0.87948537,4.8302197,240.0
70.972,-33.722256,150.67464,0.24836808,56.114273,59.811268,-0.008654545,0.012566417,1.1302811,-1.937561,1.0711347,1.4728948,-1.7905372,0.10202002,1.0,-1.0,5.2233453,240.0
71.1,-33.722256,150.67465,0.25549507,56.15247,60.07816,-0.008922219,0.012720771,1.1178844,-1.996245,1.2356243,1.5890398,-2.0471504,-0.13006306,-1.0,-0.73605704,4.8727603,240.0
71.284,-33.722256,150.67465,0.2529416,56.17087,60.35292,-0.00891234,0.015480891,1.1082131,-2.0112479,1.3291373,2.103219,-2.283792,-0.111897595,-1.0,-0.8657229,4.686491,240.0
71.4,-33.722256,150.67465,0.25579762,56.19649,60.69167,-0.008770864,0.012048748,1.1063105,-1.9584702,1.3028319,-2.8665977,3.170675,-0.07210828,-1.0,-0.91347003,4.7679377,240.0
71.6,-33.722256,150.67465,0.26298362,56.2155,60.942917,-0.008369418,0.011463858,1.0987703,-1.8090721,1.1468062,-1.4438399,2.468143,-0.008277504,1.0,-1.0,4.9774866,240.0
71.7,-33.722256,150.67465,0.2737351,56.254776,61.355824,-0.008503663,0.015621701,1.072288,-1.9118019,1.3960462,1.4728295,-2.3220177,-0.08277479,-1.0,-0.7739801,4.9624367,240.0
71.876,-33.722256,150.67467,0.27991337,56.274464,61.58167,-0.008423652,0.011477262,1.0748392,-1.8259043,1.2544813,-1.8201137,2.651486,0.056423068,1.0,-1.0,5.1880474,240.0
72.076,-33.722256,150.67467,0.29667133,56.32488,62.001728,-0.008532644,0.013544038,1.0595067,-1.8597172,1.4064428,-1.1809864,2.200734,-0.045941036,1.0,-1.0,5.0529966,240.0
72.2,-33.722256,150.67467,0.30434996,56.3917,62.404427,-0.008837827,0.013497503,1.0361694,-1.8742244,1.5749304,1.438022,-2.5183177,-0.08359282,-1.0,-0.89968866,5.1660967,240.0
72.4,-33.722256,150.67467,0.31007212,56.44404,62.739197,-0.008616808,0.015204044,1.0312711,-1.8680717,1.6301541,1.3952783,-2.4641192,-0.101729475,-1.0,-0.8213467,5.1780906,240.0
72.5,-33.72225,150.67468,0.31119996,56.525043,63.187794,-0.008981665,0.0086457,1.0218935,-1.8940362,1.7712228,-0.8798376,2.519104,-0.1731902,-1.0,-0.7921717,4.841758,240.0
72.7,-33.72225,150.67468,0.31895334,56.57541,63.43422,-0.008999004,0.008514105,1.0133303,-1.7615944,1.5691267,1.2212721,-2.3551004,0.029168207,-1.0,-1.0,5.0593066,240.0
72.868,-33.72225,150.67468,0.33277756,56.64363,63.862675,-0.008767716,0.013344577,1.0301816,-1.7997054,1.581901,-1.9495906,3.0228648,-0.01745047,-1.0,-1.0,5.1658163,240.0
73.0,-33.72225,150.67468,0.34089464,56.73009,64.2632,-0.00913895,0.009321298,1.0143971,-1.7732745,1.6410993,1.2355646,-2.4568074,0.029611895,-0.9644657,-0.99999994,4.978007,240.0
73.196,-33.72225,150.6747,0.3451448,56.78028,64.54533,-0.009057851,0.010720922,1.0207378,-1.7852343,1.6755092,-1.0544095,2.8823235,-0.095351905,-1.0,-0.8855777,5.0847745,240.0
73.3,-33.72225,150.6747,0.340887,56.85287,64.95775,-0.008720695,0.012919033,1.0167463,-1.778814,1.7333071,-1.2236505,2.8937666,-0.10679271,-1.0,-0.83627653,5.03707,240.0
73.5,-33.72225,150.6747,0.33770102,56.899654,65.16208,-0.008885397,0.010898938,1.0144436,-1.6805494,1.5637469,1.1301688,-2.1914032,0.07395793,1.0,-1.0,4.7390237,240.0
73.6,-33.722248,150.6747,0.337645,56.997635,65.58494,-0.008887673,0.010133431,0.9972764,-1.6641666,1.6445704,1.030888,-2.3176765,-0.0048354347,-1.0,-0.9281273,4.8628187,240.0
73.792,-33.722248,150.67471,0.33136028,57.05924,65.835144,-0.008788709,0.011408839,0.99743736,-1.7206275,1.792108,-1.6607811,2.8236277,-0.07872267,-1.0,-0.90553284,5.1757674,240.0
73.936,-33.722248,150.67471,0.32916957,57.136383,66.17295,-0.008219838,0.009626813,1.0102568,-1.6853708,1.6653994,-0.7990292,2.607566,0.006737998,-1.0,-1.0,5.5437946,240.0
74.1,-33.722248,150.67471,0.32092303,57.211426,66.485466,-0.00834675,0.012537946,1.0154984,-1.6572778,1.6077727,-1.4662862,3.423448,0.008561671,1.0,-1.0,5.557068,240.0
74.2,-33.722248,150.67471,0.31379217,57.265438,66.731,-0.008590689,0.018346364,1.0146929,-1.5802988,1.4759041,0.9939126,-2.0671039,0.11071822,1.0,-1.0,5.2270417,240.0
74.4,-33.722248,150.67471,0.31266302,57.30848,66.95742,-0.008831479,0.008716651,1.0152773,-1.6653255,1.6811144,1.2728474,-2.7200565,-0.09167748,-1.0,-0.9186163,5.2349586,240.0
74.584,-33.722244,150.67473,0.31166083,57.379055,67.26511,-0.008708391,0.016744185,1.0133106,-1.6485398,1.6942909,-1.4599862,2.5026646,-0.1269888,-0.99999994,-0.8476134,5.224578,240.0
74.7,-33.722244,150.67473,0.30461937,57.458065,67.578606,-0.008587691,0.0139929205,1.0140306,-1.6136372,1.6579763,-1.4629127,3.0274022,-0.052674964,-1.0,-0.93679,5.225619,240.0
74.9,-33.722244,150.67473,0.2996152,57.52886,67.87518,-0.008601651,0.011162269,1.0203149,-1.5223635,1.4675914,-1.4390974,2.6212926,-0.00032739397,1.0,-1.0,5.2407327,240.0
75.0,-33.722244,150.67473,0.28777307,57.615448,68.17729,-0.009255656,0.02009995,0.9974135,-1.6558162,1.9086905,-1.054423,2.8762305,-0.23773438,-1.0,-0.71471876,5.2310696,240.0
75.2,-33.722244,150.67473,0.2873984,57.69475,68.44398,-0.009361567,0.01271301,0.98307633,-1.51151,1.6657879,1.1316959,-2.6014352,0.02855525,1.0,-1.0,5.0713625,240.0
75.376,-33.72224,150.67474,0.29229146,57.79146,68.8271,-0.008865548,0.016002292,0.98634136,-1.5688858,1.8355739,-0.873748,2.8432748,-0.13135731,-1.0,-0.8423712,5.166423,240.0
75.5,-33.72224,150.67474,0.2897659,57.880825,69.15537,-0.008627004,0.014711278,0.9859151,-1.5074221,1.7050053,-1.1215132,3.1725535,-0.004797341,1.0,-1.0,5.2856154,240.0
75.7,-33.72224,150.67474,0.29108387,57.982,69.51791,-0.008776827,0.015333489,0.98859537,-1.4748544,1.6517699,-0.8131911,2.7678528,-0.036761686,1.0,-1.0,5.2566633,240.0
75.8,-33.72224,150.67474,0.28914088,58.090256,69.85407,-0.0094878925,0.014954912,0.96349335,-1.5322808,2.0048141,1.173658,-3.1471334,-0.20136234,-1.0,-0.75836515,5.250217,240.0
76.0,-33.72224,150.67476,0.27968663,58.179436,70.12636,-0.009162445,0.016479006,0.96056795,-1.407291,1.6987482,0.9623166,-2.3492272,0.08628314,1.0,-1.0,4.768684,240.0
76.168,-33.722237,150.67476,0.26807505,58.286285,70.467735,-0.008931026,0.008839116,0.9654306,-1.4488994,1.8737059,-0.49188638,2.2630188,-0.19982311,-0.99999994,-0.76021224,4.798831,240.0
76.328,-33.722237,150.67476,0.25844097,58.40759,70.8508,-0.008614722,0.012997377,0.95744383,-1.4071707,1.8469981,-0.72364056,2.2096622,-0.13694464,-1.0,-0.8356664,4.73703,240.0
76.496,-33.722237,150.67476,0.2580924,58.49664,71.14932,-0.008449131,0.008022259,0.9505602,-1.3541718,1.734554,0.9044145,-2.5097947,0.06801711,1.0,-1.0,4.858983,240.0
76.6,-33.722237,150.67477,0.26869375,58.61402,71.561714,-0.008215954,0.017802859,0.94087994,-1.3345797,1.7826146,0.81764674,-2.3708947,0.06909623,1.0,-1.0,4.9758863,240.0
76.8,-33.722233,150.67477,0.27003306,58.68027,71.77102,-0.00832532,0.0098095825,0.9363418,-1.3732868,1.9943765,-0.5258112,2.739496,-0.17549904,-0.99999994,-0.7894011,4.955211,240.0
76.9,-33.722233,150.67477,0.27019817,58.77769,72.077736,-0.008033845,0.013811757,0.9252804,-1.3175467,1.9120167,-0.66703916,3.383018,0.004412774,1.0,-1.0,5.0283823,240.0
77.092,-33.722233,150.67477,0.26189244,58.89128,72.44197,-0.0074641868,0.00775763,0.9159365,-1.2909609,1.8787136,0.7297167,-2.8295965,0.08045397,1.0,-1.0,5.3109503,240.0
77.2,-33.722233,150.67479,0.25430083,59.03472,72.9107,-0.0071520605,0.016858641,0.9099878,-1.289278,1.9370795,0.67306894,-2.4644845,0.052886527,1.0,-1.0,5.301261,240.0
77.4,-33.72223,150.67479,0.25510806,59.118645,73.1786,-0.007400205,0.0072096074,0.90655285,-1.3204592,2.1549854,-0.2524206,2.382437,-0.19401728,-1.0,-0.82114357,4.9825983,240.0
77.5,-33.72223,150.67479,0.25509548,59.22149,73.49719,-0.007392343,0.010264692,0.90125054,-1.2695153,2.0423894,-0.367981,3.1532886,-0.07453312,1.0,-1.0,4.9310036,240.0
77.684,-33.72223,150.67479,0.25518757,59.318058,73.77294,-0.00712739,0.013974772,0.896719,-1.2280074,1.9552642,0.62987953,-2.5556602,0.09034324,1.0,-1.0,5.0499625,240.0
77.836,-33.72223,150.6748,0.26483124,59.46939,74.15049,-0.007251326,0.014465476,0.8821247,-1.1759888,1.9995872,0.54606986,-2.642409,0.012842639,1.0,-1.0,4.8942375,240.0
78.0,-33.722225,150.6748,0.28700548,59.60795,74.4885,-0.0073127556,0.0076096877,0.87260723,-1.1392413,2.070302,0.5499251,-2.910651,-0.045551777,-1.0,-0.8306012,5.102795,240.0
78.1,-33.722225,150.6748,0.2995451,59.71627,74.76793,-0.0070684864,0.015201079,0.86775607,-1.1295446,2.183767,-0.41662252,2.4104383,-0.13486293,-1.0,-0.8381645,4.845778,240.0
78.3,-33.722225,150.6748,0.30512542,59.844635,75.0872,-0.0068054753,0.012290656,0.87024236,-1.1109849,2.060575,-0.10407586,2.6084955,-0.053274192,1.0,-1.0,4.9950185,240.0
78.476,-33.72222,150.6748,0.31691962,59.985054,75.425385,-0.0068208463,0.008183856,0.85737604,-1.064985,1.9992471,0.39364973,-2.6816022,0.03874114,1.0,-1.0,5.1266427,240.0
78.6,-33.72222,150.67482,0.33387917,60.12371,75.761955,-0.0067509916,0.011689497,0.85455096,-1.0530547,2.0679617,0.37595835,-2.8960726,0.078359835,1.0,-1.0,5.254179,240.0
78.8,-33.72222,150.67482,0.34633142,60.21262,75.9967,-0.006530943,0.0128912125,0.85663474,-1.0657372,2.1986434,-0.21809018,1.9638827,-0.13397013,-1.0,-0.8392358,5.538112,240.0
78.9,-33.722218,150.67482,0.357315,60.359,76.388374,-0.0064961826,0.00881917,0.86399055,-1.0852741,2.1627107,-0.33855358,2.9199677,-0.033545706,-1.0,-0.9677787,5.748957,240.0
79.072,-33.722218,150.67482,0.3563828,60.431347,76.59475,-0.0063588573,0.0064923638,0.8672589,-1.0611947,1.9156369,0.13568674,-0.19616696,0.11658183,1.0,-1.0,5.80361,240.0
79.268,-33.722218,150.67484,0.3704961,60.577168,76.98733,-0.006132073,0.014207296,0.87500674,-1.1022882,2.0364199,-0.2621242,2.2145283,-0.008522535,1.0,-1.0,5.8502693,240.0
79.4,-33.722218,150.67484,0.3861013,60.687366,77.255775,-0.006377377,0.010133827,0.8848769,-1.1132977,1.9610544,-0.41643602,2.1669803,0.017506959,1.0,-1.0,5.992829,240.0
79.5,-33.722214,150.67484,0.3955831,60.80417,77.53977,-0.006538183,0.013539402,0.8962637,-1.1476686,1.9802829,-0.5269915,2.8990319,0.04218296,1.0,-1.0,5.8140745,240.0
79.7,-33.722214,150.67484,0.39079553,60.917416,77.821465,-0.0066086603,0.01331232,0.8907453,-1.1501228,2.0052328,0.5080976,-3.0037544,0.0869449,-1.0,-1.0,5.6897526,240.0
79.8,-33.722214,150.67484,0.38696903,61.03991,78.147415,-0.006544757,0.013092016,0.90252024,-1.1855917,2.0421748,-0.593958,2.1967444,-0.1107804,-1.0,-0.89969754,5.4670477,240.0
79.996,-33.722214,150.67484,0.38416153,61.11026,78.33485,-0.0065095965,0.016829103,0.9054081,-1.149471,1.8308318,0.540923,-2.446855,0.11836277,1.0,-1.0,5.3422966,240.0
80.192,-33.72221,150.67485,0.38749677,61.2499,78.7128,-0.0067175967,0.009359937,0.9001477,-1.1382706,1.8415413,0.55649436,-2.681354,0.057259075,1.0,-1.0,5.2269077,240.0
80.3,-33.72221,150.67485,0.3968945,61.37496,79.04625,-0.0066369185,0.016058603,0.90106344,-1.1452166,1.8700138,0.5526879,-2.7198713,0.10326504,1.0,-1.0,5.1931777,240.0
80.4,-33.72221,150.67485,0.39884895,61.437637,79.23315,-0.0066618472,0.013507388,0.90151644,-1.176187,2.032958,-0.3515913,1.9419309,-0.15664971,-1.0,-0.88485736,5.6089773,240.0
80.588,-33.72221,150.67485,0.40225273,61.506287,79.43743,-0.0064045843,0.016745206,0.90103364,-1.1385233,1.8163301,0.5356271,-2.6502895,0.10246808,1.0,-1.0,5.570929,240.0
80.788,-33.722206,150.67487,0.4137078,61.643906,79.824554,-0.006511563,0.008929387,0.900028,-1.133842,1.7969667,0.5748465,-2.7632635,0.06522282,1.0,-1.0,5.3108287,240.0
