timestamp,lat,lon,alt,x,y,roll,pitch,yaw,vel_x,vel_y,accel_x,accel_y,yaw_rate,right_engine,left_engine,wind_speed,wind_direction
31.088,-33.722763,150.674,0.38046128,-0.013378773,0.11638285,-0.0020243844,0.01570627,0.6453097,0.06416222,0.0255235,0.021721285,0.013721774,0.00070097804,0.0,0.0,-0.19918112,240.0
31.2,-33.722763,150.674,0.39086717,-0.014625222,0.113686204,-0.0014494471,0.016047534,0.6453804,0.05806905,0.023956262,0.020328524,0.018053716,0.0015072684,0.0,0.0,-0.2881059,240.0
31.3,-33.722763,150.674,0.3933222,-0.008208389,0.12172817,-0.0012019859,0.015891297,0.64556366,0.05527345,0.029045992,0.026228268,0.023159679,0.002738071,0.0,0.0,-0.6656113,240.0
31.5,-33.722763,150.674,0.39180622,-0.0052342815,0.12615222,-0.0012563762,0.016364094,0.6461861,0.053755105,0.030123485,0.023462476,0.031492736,0.00503477,0.0,0.0,-0.88818425,240.0
31.684,-33.722763,150.674,0.3830647,-0.00369884,0.13471426,-0.0008244114,0.016650466,0.6470116,0.04933767,0.034288205,0.026230436,0.033744395,0.006964413,0.0,0.0,-0.88389474,240.0
31.8,-33.722763,150.674,0.369233,0.017737115,0.15807799,-8.907579e-05,0.015709836,0.6484066,0.0472994,0.057818267,0.033603564,0.051438924,0.009993438,0.0,0.0,-1.0615999,240.0
32.0,-33.722763,150.674,0.3592262,0.03396802,0.17821337,0.0005170407,0.01516874,0.6498757,0.043664873,0.076712854,0.015952699,0.04815767,0.011092231,0.0,0.0,-1.2163663,240.0
32.1,-33.722763,150.674,0.33393595,0.05124712,0.18987297,0.0004439408,0.01582694,0.6514196,0.042618927,0.08608927,0.0076893754,0.035994425,0.00845574,0.0,0.0,-0.912403,240.0
32.276,-33.722763,150.674,0.3205778,0.0625411,0.19594678,0.00046262477,0.015640052,0.6523687,0.043546785,0.09305719,0.0048000305,0.026657688,0.00694553,0.0,0.0,-0.7243122,240.0
32.432,-33.722763,150.674,0.30948812,0.08511769,0.20794602,0.00046812178,0.014770683,0.6534514,0.048281446,0.108303756,0.012072463,0.03233954,0.005470092,0.0,0.0,-0.63353616,240.0
32.6,-33.72276,150.674,0.30109203,0.10039688,0.22009163,0.0007256587,0.014749655,0.64371127,0.14697465,0.4443018,1.2336372,5.9403367,-0.25048122,1.0,-0.3347478,-0.57645684,240.0
32.7,-33.72276,150.674,0.29300436,0.18355116,0.2857825,0.0003683483,0.020635428,0.58805764,0.43891826,1.1217619,2.1341052,5.2982774,-0.5279608,1.0,0.39695618,-0.4107993,240.0
32.9,-33.72276,150.674,0.28025675,0.33528176,0.3899935,-0.00033829795,0.022540122,0.5292086,0.8636055,1.7792286,3.2765484,6.436385,-0.47672513,1.0,0.754015,-0.61730665,240.0
33.068,-33.722755,150.674,0.2732187,0.82003886,0.69203395,0.0014245226,0.01190852,0.46178144,1.5982386,2.605924,0.32888773,0.49061656,-0.27061328,0.3385995,0.31659573,-0.61051744,240.0
33.2,-33.72275,150.67401,0.279221,1.3135791,0.99020916,0.0028140028,0.011526982,0.44756886,1.6443292,2.6136692,-0.5087351,-0.75094616,-0.05728619,0.3474731,0.1559476,-0.48413765,240.0
33.3,-33.722748,150.67401,0.27510193,1.759473,1.2774409,0.0017129375,0.0072209723,0.45270324,1.5854406,2.5962234,-0.6211421,-0.8563088,-0.027343681,0.3528355,0.07112113,2.2346568,240.0
33.5,-33.72274,150.67401,0.26295853,2.2880974,1.6357937,-0.0006065897,0.00084243785,0.44875002,1.5574573,2.5788777,-0.33134097,-0.5114527,-0.07309088,0.33004898,0.09152193,2.2224507,240.0
33.6,-33.72274,150.67401,0.2537494,2.5831742,1.8440886,-0.0012486477,-0.0030326315,0.4475417,1.5545955,2.5953786,0.014465936,-0.11689698,-0.0459833,0.33868295,0.0697525,2.001255,240.0
33.8,-33.722736,150.67401,0.24093625,2.8907857,2.0648468,-0.00018024091,-0.0014012773,0.44040674,1.560625,2.579461,0.045517214,0.078789786,-0.049348183,0.3280268,0.09538802,1.9451429,240.0
33.992,-33.722733,150.67403,0.22351402,3.3254848,2.3752706,0.001634895,0.0020938003,0.42832354,1.576243,2.531898,0.28506333,0.18015882,-0.036914863,0.32388002,0.13815504,1.8714821,240.0
34.1,-33.72273,150.67403,0.22424808,3.6884136,2.6284704,0.0022697211,0.0077712596,0.42126942,1.5860834,2.4792094,0.34236452,0.29685596,0.006992673,0.3538584,0.14997905,2.0534344,240.0
34.3,-33.72273,150.67403,0.22541338,3.8971672,2.7653322,0.001985292,0.009072622,0.41932434,1.5945851,2.457724,0.06371561,0.06720201,-0.028631067,0.34159344,0.17476313,2.278041,240.0
34.4,-33.722725,150.67403,0.21924293,4.223861,2.9687726,0.0026442648,0.012074985,0.41663614,1.6148964,2.428299,0.27367353,0.076010406,-0.03131728,0.3615678,0.16483289,2.1038496,240.0
34.588,-33.72272,150.67403,0.20266706,4.508886,3.149116,0.0035211237,0.012999053,0.41520813,1.6266747,2.4130251,0.090686455,0.11039343,-0.030544318,0.3482785,0.1847991,2.2148976,240.0
34.7,-33.722717,150.67403,0.18159488,4.8646054,3.3744724,0.0040677683,0.012966228,0.41426903,1.6474838,2.408464,0.108171225,-0.05699054,-0.0391446,0.34515887,0.17809398,2.157559,240.0
34.9,-33.722717,150.67403,0.17990473,5.157311,3.5449207,0.0050066547,0.017343884,0.41126314,1.6515371,2.3700151,0.24011736,0.34848619,0.0006388954,0.37840146,0.17431943,2.119699,240.0
35.0,-33.722713,150.67404,0.17100179,5.464745,3.7205877,0.005548876,0.019333906,0.41029972,1.6547683,2.3365471,0.10438723,-0.0587121,-0.008532896,0.39338556,0.18311235,2.570643,240.0
35.2,-33.72271,150.67404,0.16989258,5.7175055,3.8689578,0.004834088,0.018714469,0.41139653,1.6773869,2.3616269,0.32396656,0.2085071,0.025723657,0.4002507,0.1415461,2.3103423,240.0
35.38,-33.722706,150.67404,0.16169393,6.212283,4.16798,0.002641507,0.013773443,0.41135874,1.7017335,2.389048,-0.08339072,-0.2446867,0.0037914352,0.37821332,0.12514827,2.6103044,240.0
35.5,-33.722702,150.67404,0.16197753,6.5918326,4.3983064,0.004267924,0.016009165,0.40871975,1.6915294,2.3625913,0.2291946,0.32719898,0.015022373,0.39434925,0.13796756,2.852215,240.0
35.66,-33.722702,150.67404,0.16734517,6.8479877,4.549185,0.005451777,0.018446472,0.40595835,1.6933446,2.3424726,0.24643081,-0.0842626,0.012751541,0.39905965,0.1496327,2.7008917,240.0
35.776,-33.7227,150.67404,0.16991228,7.075731,4.673729,0.0049873823,0.01883248,0.40608227,1.7015063,2.3372543,-0.04565848,-0.02425592,-0.03087257,0.3841008,0.16272998,2.7382789,240.0
35.9,-33.722694,150.67404,0.16135111,7.481844,4.8950834,0.0029726264,0.016593058,0.40444162,1.7462251,2.3651047,0.22128181,0.0832875,-0.0467061,0.35253572,0.14383805,2.6361823,240.0
36.1,-33.72269,150.67406,0.14172933,7.9224114,5.14426,0.0019761964,0.01386869,0.39868468,1.779022,2.3677995,0.19842021,0.40042046,-0.026333814,0.34529442,0.12966438,2.0187016,240.0
36.2,-33.722687,150.67406,0.12622938,8.224414,5.309448,0.0040999632,0.016922439,0.39188495,1.783141,2.3210108,0.056232177,-0.123251125,-0.059504278,0.32455772,0.18695253,1.8630658,240.0
36.4,-33.722687,150.67406,0.11521998,8.494895,5.4608464,0.0040920074,0.017376171,0.38744125,1.8115237,2.3224986,0.22012904,0.10761463,-0.04735224,0.3144137,0.1798813,1.6653833,240.0
36.568,-33.722683,150.67406,0.09547943,9.025442,5.77019,0.00014969546,0.010504696,0.3888772,1.8577551,2.38034,-0.14524019,-0.30227563,-0.012028694,0.32334197,0.0939157,1.9666511,240.0
36.7,-33.72268,150.67406,0.07044971,9.364692,5.9682503,0.0018331568,0.013899287,0.3833769,1.8350123,2.3159318,0.18187885,0.17086892,-0.008076299,0.34858817,0.1355011,2.0539346,240.0
36.896,-33.722675,150.67406,0.04771003,9.656265,6.143491,0.0021140715,0.013978401,0.37902418,1.8562634,2.3212655,0.21495157,0.20884274,0.00624006,0.33516634,0.1336112,2.3338578,240.0
37.0,-33.72267,150.67406,0.03964451,10.020028,6.3398266,0.0032530557,0.01742883,0.3783049,1.8386363,2.2689843,0.37617287,0.25421754,0.005309212,0.36582434,0.15165329,2.4134219,240.0
37.1,-33.72267,150.67406,0.03798783,10.223497,6.4371247,0.0045502177,0.021409737,0.375832,1.8345613,2.2276728,0.3273231,0.30303875,-0.016168294,0.37897715,0.175082,2.340555,240.0
37.3,-33.722668,150.67407,0.03290671,10.378028,6.5035257,0.0053105135,0.023640808,0.3740179,1.8389975,2.1949437,0.16733727,0.01015581,-0.036937002,0.36286062,0.21258442,2.5073874,240.0
37.492,-33.722668,150.67407,0.027510673,10.68056,6.6365695,0.0064611705,0.02800501,0.3734657,1.8432631,2.148807,0.18122728,0.07211411,-0.024355091,0.38709196,0.21826819,2.303005,240.0
37.6,-33.722664,150.67407,0.036176115,10.961962,6.7501745,0.0068984963,0.03113095,0.37543705,1.857461,2.1252203,0.52106273,0.2772044,-0.005131339,0.41351706,0.19762999,2.2775118,240.0
37.7,-33.72266,150.67407,0.041600555,11.2182455,6.8604794,0.007126107,0.032208625,0.3756178,1.8650925,2.1020062,0.11622017,-0.033263825,-0.020355843,0.40960813,0.21169674,2.3721094,240.0
37.9,-33.72266,150.67407,0.041377544,11.408624,6.9491057,0.007664256,0.033669475,0.37366682,1.8760612,2.0925508,0.49009228,0.30670795,-0.008421704,0.41946715,0.20412415,2.2189178,240.0
38.084,-33.722656,150.67407,0.03703952,11.769597,7.1126323,0.008026737,0.035243917,0.36981386,1.8932979,2.068322,0.44573054,0.34533295,0.0006360644,0.4133309,0.21418835,2.080614,240.0
38.2,-33.722652,150.67407,0.02565661,12.182634,7.2990804,0.008192341,0.036353633,0.3685959,1.9067069,2.055893,0.39422324,0.24752238,0.017961625,0.4152844,0.21166907,2.1021273,240.0
38.4,-33.72265,150.67407,0.013889998,12.505436,7.4584026,0.00757034,0.033003356,0.37018958,1.9359373,2.0905654,0.3363617,0.22417995,0.012927667,0.4043665,0.17580926,2.2343373,240.0
38.5,-33.722645,150.67407,-0.011297166,12.987238,7.708439,0.008076495,0.03270237,0.3669093,1.9329478,2.077226,0.08642142,-0.055605415,0.010944682,0.4131099,0.18004465,2.0568514,240.0
38.68,-33.722645,150.67407,-0.022561967,13.222057,7.8302727,0.008235966,0.032183867,0.36546543,1.9447391,2.0860255,-0.24850176,-0.17820752,-0.021172764,0.3965627,0.18243574,2.207208,240.0
38.876,-33.722637,150.67409,-0.032991648,13.756463,8.11052,0.0082091605,0.030291965,0.36461803,1.9566519,2.1053162,-0.2192184,-0.08910813,-0.0110563915,0.41301107,0.14395319,2.453404,240.0
39.0,-33.722633,150.67409,-0.031044543,14.162473,8.318907,0.008614443,0.03194562,0.35872024,1.9558145,2.076187,-0.18130217,-0.15830554,-0.04146366,0.39203724,0.18854645,2.4406347,240.0
39.184,-33.722633,150.67409,-0.035000384,14.467391,8.467074,0.008691713,0.03288294,0.3554662,1.9609067,2.0587127,-0.063443094,0.02124258,-0.053673327,0.3858442,0.20480481,2.2482796,240.0
39.3,-33.72263,150.67409,-0.039430737,14.83697,8.639415,0.00889776,0.033973176,0.34969056,1.9760275,2.0341802,-0.012633664,-0.15793027,-0.06271353,0.38018885,0.21659157,2.5159311,240.0
39.472,-33.722626,150.67409,-0.037584662,15.182985,8.812727,0.0095655965,0.030637948,0.34644374,2.0325942,2.0756176,0.05008676,-0.10148443,-0.03910633,0.35417208,0.17502311,2.1714683,240.0
39.6,-33.722622,150.67409,-0.042536497,15.630669,9.033027,0.010200127,0.0292504,0.3459261,2.0336301,2.0769732,0.08159631,0.041584115,0.004606008,0.39047232,0.13678738,2.4958801,240.0
39.8,-33.72262,150.67409,-0.040983498,16.05531,9.237959,0.010692173,0.03017634,0.34104833,2.0486705,2.0657587,-0.15756634,-0.08836909,-0.0160959,0.38694477,0.1388272,2.257616,240.0
39.9,-33.722614,150.6741,-0.04616368,16.490187,9.443875,0.011041137,0.02965149,0.33648768,2.059141,2.048757,-0.19162364,-0.24655515,-0.045179415,0.35993677,0.17120583,2.174817,240.0
40.1,-33.72261,150.6741,-0.05311531,16.726322,9.5523615,0.011074602,0.03078275,0.33293,2.06154,2.0315747,0.24372138,0.06967502,-0.02285219,0.38927013,0.15477948,2.3855112,240.0
40.2,-33.722607,150.6741,-0.05109334,17.110264,9.737062,0.011595365,0.033517707,0.32989857,2.0454519,1.998296,0.47235224,0.2932979,0.019844709,0.4117198,0.16695583,2.7180915,240.0
40.396,-33.722607,150.6741,-0.053586245,17.355768,9.860268,0.012015671,0.033673413,0.32837772,2.0514958,1.9952257,0.17447665,0.2734207,-0.012408633,0.415183,0.161406,2.645126,240.0
40.564,-33.722603,150.6741,-0.047531366,17.756247,10.071175,0.0129096825,0.034314755,0.32492086,2.0615542,1.9925908,0.02698581,0.11452795,0.0023425801,0.4244309,0.14784484,2.8325505,240.0
40.7,-33.7226,150.6741,-0.031018972,18.13998,10.2654,0.013866036,0.03317393,0.32262415,2.0782568,1.9993905,0.06928533,-0.07503264,-0.04510298,0.41075468,0.14557898,3.1167665,240.0
40.8,-33.722595,150.6741,-0.012933552,18.442188,10.414597,0.013753457,0.035260715,0.3175684,2.0682528,1.9698887,-0.206057,-0.13416529,-0.049869966,0.41126442,0.17367922,2.8643274,240.0
40.988,-33.722595,150.6741,0.0008831322,18.670326,10.510491,0.013255998,0.036728762,0.31543908,2.0670197,1.946556,0.17268828,-0.08262621,-0.03702667,0.42738712,0.17444135,2.903008,240.0
41.188,-33.72259,150.6741,0.016271353,19.063248,10.677423,0.012672108,0.038758628,0.30919757,2.0815558,1.9067435,-0.03781749,-0.045894675,-0.07187884,0.4069429,0.21095522,2.741127,240.0
41.3,-33.722588,150.67412,0.02140963,19.42503,10.817495,0.012140271,0.0399678,0.30367067,2.1112468,1.8788239,0.22639135,-0.050866317,-0.057252664,0.41470143,0.19840565,2.646008,240.0
41.4,-33.722584,150.67412,0.01932925,19.65903,10.907574,0.0119515555,0.040916193,0.3012686,2.1225684,1.8619444,0.45955625,0.1496555,-0.011819769,0.44071406,0.17517371,2.5170248,240.0
41.584,-33.722584,150.67412,0.01691863,19.888474,10.987041,0.011516257,0.042029772,0.29937688,2.1253307,1.8349162,0.3389084,0.11270383,0.004926278,0.44539958,0.1848491,2.5830402,240.0
41.752,-33.72258,150.67412,0.010242522,20.274387,11.119738,0.010952542,0.04323668,0.29620725,2.1341705,1.7960784,0.3200219,0.34189433,0.0097864615,0.4521467,0.19554012,2.7711198,240.0
41.9,-33.722576,150.67412,0.010010302,20.660028,11.255125,0.01068332,0.0444364,0.29211795,2.1394548,1.7569212,0.05295827,0.15232694,0.004418006,0.45642084,0.20933717,2.3770432,240.0
42.0,-33.722572,150.67412,0.010405183,20.905506,11.348645,0.010637322,0.04560496,0.2903073,2.1427011,1.7386593,-0.026657017,0.050332945,-0.0060038003,0.4648229,0.21066453,2.91775,240.0
42.2,-33.722572,150.67412,0.0015102923,21.152489,11.44104,0.010761849,0.045037568,0.29000986,2.1531415,1.7323358,-0.1311112,-0.16085473,-0.022996379,0.45559812,0.2149669,3.049299,240.0
42.376,-33.72257,150.67412,-0.025218487,21.609425,11.621778,0.011310598,0.044771187,0.29024002,2.1529486,1.7206434,-0.113052085,-0.03181106,-0.033796966,0.34632266,0.33083105,3.3224285,240.0
42.5,-33.722565,150.67412,-0.04107958,21.9819,11.771654,0.011653621,0.045893822,0.29759625,2.1436763,1.7349888,0.00065429974,-0.13330294,0.04908448,0.4248038,0.24910337,2.948948,240.0
42.6,-33.72256,150.67412,-0.045178115,22.248878,11.881645,0.012070153,0.046210453,0.30627355,2.1254554,1.7500101,0.16431603,-0.00068901014,0.050975826,0.4615179,0.21520784,3.0066557,240.0
42.8,-33.72256,150.67412,-0.04339552,22.55318,12.005793,0.012312608,0.04694324,0.31151238,2.1144354,1.758015,-0.0211093,-0.110878006,-0.012760645,0.45440036,0.22411351,2.8439581,240.0
42.968,-33.722557,150.67413,-0.032696307,22.968513,12.168525,0.013859465,0.04576899,0.31092486,2.145937,1.7804742,0.106224515,0.27664056,0.022570813,0.4492885,0.18995284,2.545612,240.0
43.1,-33.72255,150.67413,-0.02146238,23.44706,12.353368,0.015526796,0.042910527,0.30890763,2.1685455,1.7901448,-0.3871582,-0.2582696,-0.027319083,0.404693,0.20680715,2.5386393,240.0
43.2,-33.72255,150.67413,-0.012928963,23.833567,12.513445,0.01629839,0.043718014,0.3075608,2.1686232,1.7956581,-0.037098162,0.13245898,0.00895961,0.41824234,0.19359612,2.4700735,240.0
43.364,-33.722546,150.67413,-0.004916191,24.172583,12.656104,0.018150287,0.04142445,0.30553213,2.195541,1.811806,-0.45296532,-0.26152,-0.037619114,0.37624174,0.20436911,2.306032,240.0
43.5,-33.72254,150.67413,0.0054469407,24.507637,12.793315,0.018564034,0.040873896,0.30352035,2.1948252,1.8088707,-0.4384673,-0.28299725,-0.035804816,0.37683773,0.20661868,2.4390004,240.0
43.696,-33.722538,150.67413,0.012759507,24.93503,12.963707,0.01761718,0.042268034,0.30244845,2.1749294,1.7952278,0.15670158,0.021100895,-0.0032636933,0.41017753,0.19810253,2.7266784,240.0
43.8,-33.722534,150.67413,0.022212118,25.358004,13.1459875,0.01808627,0.04363915,0.30248326,2.1655035,1.7936088,0.16579702,-0.1764534,0.022581361,0.4375925,0.18060291,2.5346777,240.0
43.9,-33.72253,150.67413,0.031095415,25.672049,13.282063,0.018336883,0.044053406,0.30212155,2.155854,1.7911308,0.23223297,0.09782733,0.03422394,0.44820073,0.17813334,2.8217137,240.0
44.092,-33.72253,150.67413,0.040162563,25.9127,13.376938,0.019750038,0.042399336,0.30087584,2.1801622,1.7993709,-0.14212736,-0.12250991,-0.03304515,0.39397496,0.20745511,2.8562539,240.0
44.264,-33.722523,150.67415,0.055495948,26.412233,13.570817,0.0212654,0.041120894,0.29847756,2.2009587,1.8040861,-0.3470694,-0.17075892,-0.021231946,0.3879066,0.1942275,2.3459432,240.0
44.4,-33.722523,150.67415,0.062521756,26.7418,13.70116,0.02065529,0.04267534,0.2988472,2.1727781,1.7889056,0.12118799,0.204826,0.030385146,0.434707,0.1791466,2.622033,240.0
44.5,-33.72252,150.67415,0.0613575,27.125288,13.856351,0.019758735,0.04374104,0.29778883,2.1627927,1.7753597,-0.15753713,0.002861441,-0.03879725,0.40722242,0.22344992,2.7538924,240.0
44.684,-33.722515,150.67415,0.059636652,27.31686,13.929173,0.019389013,0.044428565,0.29709908,2.1618924,1.7713151,0.31401962,0.18493254,0.009903597,0.43219778,0.20210019,2.8888996,240.0
44.884,-33.72251,150.67415,0.062227875,27.75155,14.102065,0.01922422,0.045160778,0.29874325,2.1414742,1.7608951,0.14323847,-0.010210046,-0.006260808,0.45453092,0.20155469,3.298079,240.0
45.0,-33.722507,150.67415,0.07415682,28.096195,14.244774,0.019189486,0.046484478,0.30032536,2.125808,1.7580614,0.100607015,0.28493127,0.024486128,0.48642635,0.18326749,3.3786414,240.0
45.1,-33.722507,150.67415,0.085590065,28.45744,14.394422,0.020300165,0.04590228,0.29952773,2.1538873,1.7747759,0.2538231,0.08677721,0.023803897,0.4713552,0.16567051,3.237988,240.0
45.3,-33.722504,150.67415,0.09836349,28.77087,14.525224,0.022796704,0.044185683,0.29707706,2.1756046,1.7836639,0.24633679,0.093670815,0.022293296,0.45811597,0.16260192,2.9847443,240.0
45.476,-33.7225,150.67415,0.10610753,29.197,14.699797,0.02319349,0.043845173,0.29387498,2.1772265,1.7775693,-0.025571173,0.17437822,-0.00012093618,0.43861428,0.17941186,2.9642987,240.0
45.6,-33.722496,150.67415,0.106066555,29.61669,14.87079,0.022482896,0.044504892,0.29236534,2.171034,1.7690109,-0.21438135,-0.06641207,-0.0032287878,0.4447613,0.18415508,2.9252765,240.0
45.8,-33.722492,150.67416,0.10066071,30.008251,15.034145,0.023213672,0.043946058,0.29073292,2.1842797,1.7733744,0.2711438,0.09508926,-0.026412703,0.42314246,0.19345388,2.9237816,240.0
45.9,-33.72249,150.67416,0.089689344,30.427689,15.206387,0.023060586,0.04429114,0.28761482,2.1802626,1.7615149,0.19090945,0.12634666,-0.00039749633,0.4395905,0.18872005,2.671602,240.0
46.096,-33.72249,150.67416,0.08065984,30.629608,15.290912,0.022817299,0.044080347,0.28637543,2.1843827,1.7573982,-0.03037341,-0.121644095,-0.04091452,0.41438207,0.21353748,2.9598544,240.0
46.268,-33.72248,150.67416,0.06047508,31.090668,15.474437,0.02204488,0.045072313,0.2838972,2.180189,1.7413064,-0.15785646,-0.08607135,-0.031422455,0.4251524,0.21690968,2.934799,240.0
46.4,-33.722477,150.67416,0.04536411,31.488092,15.631793,0.022298614,0.044575296,0.28161162,2.1992552,1.7411933,0.12616925,-0.058758125,-0.035171106,0.41341424,0.21403445,2.724397,240.0
46.6,-33.722477,150.67416,0.033058196,31.870886,15.782234,0.022756604,0.044636566,0.27865878,2.2035587,1.7297133,0.13628367,0.25292382,0.013013738,0.43124372,0.20050603,2.6623297,240.0
46.7,-33.722473,150.67416,0.024191082,32.272446,15.923307,0.02196759,0.044540893,0.27645123,2.2179801,1.7133688,-0.18326469,-0.1535679,-0.043298174,0.40107137,0.22807343,2.5358481,240.0
46.896,-33.72247,150.67416,0.025853962,32.560085,16.021843,0.02262854,0.043934453,0.27475336,2.239214,1.7105076,0.078956924,-0.070472345,0.0026256011,0.41561466,0.19782428,2.4237587,240.0
47.0,-33.722466,150.67416,0.0359686,32.902775,16.145067,0.022419732,0.044464827,0.27274084,2.2358928,1.6907197,-0.20248556,-0.08691315,-0.01952575,0.42003676,0.20733204,2.5236564,240.0
47.192,-33.72246,150.67416,0.0483073,33.23747,16.272188,0.02194274,0.04564396,0.27168682,2.2329803,1.6801486,0.1639872,0.18830861,0.018966807,0.42547196,0.21019334,2.514919,240.0
47.3,-33.722458,150.67418,0.05591613,33.695515,16.4428,0.021351915,0.046372063,0.26896405,2.2462664,1.6687274,0.4526335,0.2825974,0.00582018,0.4203072,0.21118745,2.2466612,240.0
47.5,-33.722458,150.67418,0.056677848,33.949383,16.527613,0.020617735,0.046728484,0.2668322,2.242806,1.6495559,0.12554647,0.22867338,-0.030246617,0.4035635,0.24166143,2.123472,240.0
47.6,-33.722454,150.67418,0.052107424,34.4061,16.684107,0.021414885,0.046022918,0.26337585,2.2646286,1.6341311,-0.020133376,0.07679347,0.016369497,0.41032708,0.22541785,2.10804,240.0
47.788,-33.72245,150.67418,0.04941562,34.660366,16.77122,0.021348443,0.045398045,0.261958,2.2759845,1.6267729,-0.13597582,-0.18237431,-0.041775513,0.38047194,0.24974619,2.032876,240.0
47.952,-33.722446,150.67418,0.056614935,35.12735,16.927738,0.020961711,0.046229858,0.26171017,2.2731848,1.6102803,-0.24677557,-0.20592144,-0.025475709,0.40110266,0.2397263,2.2213144,240.0
48.1,-33.722443,150.67418,0.06744504,35.606438,17.083803,0.02026163,0.0464343,0.26147723,2.2770376,1.5937622,-0.116135105,-0.0036015161,-0.039194755,0.39617154,0.24532714,2.22019,240.0
48.2,-33.72244,150.67418,0.0744195,35.89743,17.177973,0.019994732,0.046391286,0.259322,2.2851815,1.5812374,-0.24195847,-0.12589,-0.051664807,0.3861236,0.2595448,1.8525975,240.0
48.4,-33.722435,150.67418,0.07387298,36.2057,17.278366,0.019495199,0.047156367,0.25713927,2.2888267,1.5670896,-0.23528418,-0.101100214,-0.022760428,0.4024591,0.24815479,2.0512505,240.0
48.58,-33.72243,150.67418,0.07535952,36.592052,17.408321,0.019295579,0.04758765,0.25608793,2.2927742,1.5579093,0.35257986,0.0537525,-0.0017900985,0.41779074,0.23463228,2.0157733,240.0
48.7,-33.722427,150.67418,0.08604318,37.099842,17.580114,0.022578115,0.044965327,0.25219968,2.3343725,1.5605934,0.08887842,0.034150574,0.017720431,0.39250588,0.22343479,2.0111654,240.0
48.9,-33.722424,150.67418,0.10269615,37.530807,17.726704,0.023705244,0.043806773,0.2518153,2.3397818,1.5588062,-0.12925442,-0.26191166,-0.020180413,0.3832898,0.2285794,2.4134648,240.0
49.0,-33.72242,150.6742,0.12864134,38.013428,17.873646,0.022859767,0.04485707,0.25328496,2.3301272,1.5473852,-0.0073362812,-0.13625875,0.010066292,0.4117697,0.2129789,2.2325177,240.0
49.172,-33.72242,150.6742,0.14054933,38.23378,17.93759,0.022144575,0.04543808,0.2526315,2.3200724,1.5323497,-0.15646948,0.008066188,-0.001985337,0.41963884,0.22115198,2.362719,240.0
49.372,-33.722412,150.6742,0.14848855,38.72734,18.090221,0.021617077,0.046130124,0.25174907,2.3258016,1.5219222,0.22421502,0.22742867,0.021620538,0.43525577,0.2058414,2.1696682,240.0
49.5,-33.72241,150.6742,0.15691194,39.123375,18.2271,0.021383235,0.046638746,0.24860139,2.3349662,1.5100126,-0.21769103,-0.08697295,-0.033606924,0.3968522,0.24282761,2.1105347,240.0
49.7,-33.72241,150.6742,0.1635938,39.48079,18.344896,0.020860177,0.047346275,0.24557161,2.3372855,1.4961853,0.33357096,0.122181006,-0.008988862,0.41507024,0.23211832,1.9962598,240.0
49.8,-33.7224,150.6742,0.17108652,40.021915,18.522644,0.023464033,0.044982728,0.23829667,2.4043329,1.5017403,0.3074015,0.119839564,0.0073813535,0.36630803,0.22001511,1.5877577,240.0
49.988,-33.7224,150.6742,0.1793434,40.276203,18.61181,0.024205647,0.043956608,0.23655444,2.3992376,1.4935222,-0.40009344,-0.19169088,-0.032472137,0.3503482,0.24466816,1.7307206,240.0
50.1,-33.722397,150.6742,0.19650072,40.75377,18.776798,0.023967592,0.04484792,0.23586854,2.386905,1.4860723,-0.31822056,-0.20171764,-0.025860758,0.3657583,0.23885703,1.8142781,240.0
50.296,-33.722393,150.6742,0.2086061,41.06195,18.882236,0.023766262,0.045365848,0.23537907,2.3870988,1.4842347,-0.1635543,-0.18429647,-0.014043898,0.38823688,0.22180699,1.9938041,240.0
50.4,-33.72239,150.6742,0.22616777,41.532032,19.048658,0.02422888,0.04494517,0.23309465,2.3893366,1.4786304,-0.07557403,-0.15399453,-0.034121808,0.37159252,0.23947728,1.9977971,240.0
50.6,-33.722385,150.67421,0.23300481,41.84791,19.160042,0.023686126,0.045538746,0.23384854,2.3685608,1.4679798,-0.22308081,-0.16498902,-0.015593461,0.4127093,0.22113472,2.299494,240.0
50.7,-33.72238,150.67421,0.25756258,42.242348,19.303473,0.023732726,0.046673182,0.23465703,2.3656807,1.4709151,0.34860274,0.053420335,-0.0020410358,0.42694062,0.20719405,2.4634688,240.0
50.888,-33.72238,150.67421,0.27208024,42.51287,19.401037,0.02383367,0.047158737,0.23315181,2.3662517,1.4671513,0.29247227,0.15074545,-0.0038006012,0.42841873,0.20707825,2.3211427,240.0
51.088,-33.722374,150.67421,0.30101424,43.005043,19.56275,0.023667071,0.047237266,0.22876406,2.381871,1.4548289,0.3122,0.04907969,0.01233612,0.42002106,0.20882715,2.224926,240.0
51.2,-33.72237,150.67421,0.30931664,43.451256,19.70092,0.023779357,0.04691992,0.22421244,2.3937473,1.440258,0.22902106,0.04362604,0.0076445984,0.4118958,0.21464427,2.1917882,240.0
51.368,-33.72237,150.67421,0.3152181,43.733044,19.791693,0.023790566,0.047099035,0.22211386,2.3938577,1.4301896,-0.10478007,0.029307619,-0.0070905015,0.4131986,0.21844198,2.1353886,240.0
51.5,-33.722366,150.67421,0.31852072,44.133034,19.920353,0.023650538,0.047036126,0.21881919,2.4057386,1.4218323,-0.09751005,-0.05441236,-0.036779944,0.38581577,0.24041721,2.0155427,240.0
51.68,-33.722363,150.67421,0.3162126,44.542103,20.049238,0.024150383,0.046234533,0.21519424,2.426476,1.4149657,-0.19186063,-0.037039183,-0.04064664,0.37161028,0.24038841,2.1080549,240.0
51.828,-33.72236,150.67421,0.31453604,45.027523,20.200613,0.025898563,0.04399833,0.2116139,2.4557776,1.414585,-0.25061977,-0.21183361,-0.029623646,0.3656089,0.22194353,2.2846408,240.0
52.0,-33.722355,150.67421,0.3116119,45.437664,20.334225,0.025743276,0.0445537,0.21193115,2.439796,1.4090894,-0.13687329,0.044128705,0.01367521,0.4033726,0.20058803,2.3525572,240.0
52.1,-33.72235,150.67421,0.3063867,45.87007,20.463037,0.025011113,0.044372562,0.21169668,2.438457,1.3963426,-0.23637219,-0.18446556,-0.03445954,0.39609978,0.21462527,2.442163,240.0
52.3,-33.722347,150.67421,0.30328792,46.15942,20.5441,0.024858853,0.044436865,0.21182625,2.4373915,1.3884227,0.106173925,-0.071053214,0.020869236,0.4370637,0.17794524,2.6859953,240.0
52.472,-33.722343,150.67422,0.3003031,46.716442,20.699438,0.025690978,0.04281215,0.207682,2.476155,1.3783971,-0.21888277,-0.18773817,-0.02977869,0.3887094,0.19695428,2.5106635,240.0
52.6,-33.722336,150.67422,0.31537002,47.178547,20.831638,0.026360232,0.04229629,0.2032925,2.4857018,1.3642807,0.34286824,0.29311493,-0.008782206,0.40258464,0.18208507,2.5737448,240.0
52.8,-33.722336,150.67422,0.32319322,47.524437,20.925112,0.025611745,0.04251692,0.20150606,2.479338,1.3476489,0.030470405,-0.09060255,-0.023618665,0.39682305,0.20095158,2.6334026,240.0
52.9,-33.722332,150.67422,0.3427577,48.001595,21.062439,0.025412839,0.043347917,0.20082106,2.4753325,1.3330195,-0.059032835,-0.151474,-0.014074121,0.42471254,0.18272209,2.7636843,240.0
53.068,-33.72233,150.67422,0.34532955,48.21185,21.121864,0.024910808,0.043819852,0.19880453,2.468359,1.3198473,0.022469707,0.1193474,-0.0076784077,0.43061745,0.18915106,2.7435184,240.0
53.264,-33.722324,150.67422,0.33800292,48.68127,21.249424,0.023921374,0.044556685,0.19660337,2.4718502,1.3005317,0.2207593,-0.13763018,0.0154008055,0.4378597,0.1875481,2.7761142,240.0
53.396,-33.72232,150.67422,0.33845478,48.977192,21.336987,0.024826,0.043056063,0.19392902,2.495506,1.2986218,-0.046423648,0.0678382,-0.038897727,0.4036374,0.2019087,2.8955307,240.0
53.544,-33.722317,150.67422,0.36211115,49.425957,21.467638,0.024930496,0.04391091,0.19151682,2.485473,1.2815228,-0.21902725,-0.03328063,-0.015428434,0.44342965,0.17850013,2.9147651,240.0
53.7,-33.722313,150.67422,0.37205866,49.758694,21.555943,0.024360338,0.044213213,0.18872215,2.4842846,1.2650799,0.20663254,0.21621934,-0.0035823067,0.44761097,0.18291138,2.9162564,240.0
53.8,-33.72231,150.67422,0.3774877,50.172432,21.656706,0.023375167,0.044573605,0.1833498,2.4939675,1.2346354,-0.12228698,-0.0147368945,-0.07487068,0.39572304,0.23940627,2.700918,240.0
53.992,-33.72231,150.67422,0.3827584,50.416023,21.711178,0.022978855,0.04538543,0.17956103,2.5060446,1.2180189,0.10615707,-0.088135704,-0.02813347,0.4128722,0.21880984,2.504433,240.0
54.188,-33.722305,150.67422,0.4026028,50.894672,21.830555,0.023008639,0.045502756,0.173224,2.512047,1.1870736,-0.18923736,-0.14671075,-0.04456743,0.39645767,0.23976743,2.4908078,240.0
54.3,-33.7223,150.67422,0.42235097,51.311325,21.945545,0.022987701,0.04656046,0.17105366,2.5118499,1.1748501,-0.05284175,-0.02641434,-0.029305449,0.43682212,0.20741886,2.6195908,240.0
54.4,-33.722298,150.67424,0.4284493,51.57918,22.022684,0.022868602,0.0470397,0.17020021,2.5108914,1.1696435,0.50364125,0.173045,-0.00022006633,0.4489528,0.19859551,2.534304,240.0
54.6,-33.722294,150.67424,0.42552373,51.886368,22.109732,0.022511544,0.047321707,0.16804469,2.5156665,1.1600765,0.42840007,0.06193401,-0.019362364,0.45589373,0.19136134,2.4767165,240.0
54.784,-33.72229,150.67424,0.41634563,52.32855,22.231937,0.02208151,0.047811367,0.16269463,2.514219,1.1362569,0.41707805,0.085413404,-0.014109155,0.4635797,0.19585569,2.6422455,240.0
54.9,-33.722286,150.67424,0.4038784,52.74417,22.34857,0.021754218,0.048056312,0.1536052,2.5250995,1.1057249,-0.13716894,0.010488922,-0.04620233,-1.0,-0.9445572,2.5413918,240.0
55.0,-33.722286,150.67424,0.40134594,53.03865,22.43381,0.022052662,0.045000285,0.15209395,2.2318945,1.0063473,-2.9344296,-0.9483926,0.022802124,-0.9726374,-1.0,2.6151915,240.0
55.18,-33.722282,150.67424,0.4005004,53.269173,22.504543,0.022620432,0.0428395,0.15640366,1.9640113,0.9288856,-2.335116,-0.7957416,0.0651667,-1.0,1.0,2.2303443,240.0
55.356,-33.72228,150.67424,0.41356328,53.63042,22.605305,0.0241367,0.04764902,0.20179416,2.0192988,1.0591214,-2.2505414,-1.0514693,0.39596847,-0.5248378,-0.99999994,2.0876381,240.0
55.5,-33.72228,150.67424,0.42912346,53.940388,22.687046,0.02500419,0.040562354,0.25243768,1.9774865,1.1798714,0.13294055,0.3007067,0.5054775,-0.4178758,-1.0,2.3941255,240.0
55.6,-33.722275,150.67424,0.4448321,54.279213,22.784828,0.026490092,0.038636677,0.32370973,1.9761993,1.4117249,1.5162164,1.5624415,0.51501226,-0.38198522,-1.0,2.6724477,240.0
55.772,-33.72227,150.67424,0.44949397,54.553867,22.868404,0.028433774,0.04253469,0.38326874,1.7579434,1.4300548,-1.8809636,-1.5689447,0.40962252,-0.5084529,-1.0,2.6891916,240.0
55.948,-33.722267,150.67424,0.4485544,54.89726,22.974493,0.029770235,0.03167702,0.43971485,1.6012878,1.5322242,1.6589466,3.0008516,0.4794229,-0.42469257,-1.0,2.7004957,240.0
56.1,-33.722263,150.67424,0.4518739,55.26955,23.092794,0.031156832,0.034538794,0.5128559,1.4686599,1.7138102,1.7939689,3.786707,0.5070306,-0.3915632,-1.0,2.4419076,240.0
56.2,-33.722263,150.67424,0.441749,55.56169,23.18275,0.03174594,0.032200057,0.5714689,1.2775306,1.7037148,-1.1740512,-1.5886788,0.2845533,-1.0,1.0,2.3140404,240.0
56.392,-33.72226,150.67424,0.44400015,55.80939,23.27347,0.032898985,0.028115392,0.60969865,1.2509948,1.9961612,-1.0735576,-1.9666791,0.5423764,-0.34914827,-1.0,2.217093,240.0
56.564,-33.722256,150.67426,0.44766042,56.21487,23.455845,0.034145594,0.022651646,0.68734944,1.025997,2.249438,0.4901261,3.723526,0.5231974,-0.37216306,-1.0,2.1889906,240.0
56.696,-33.722256,150.67426,0.44712377,56.389477,23.549107,0.034408294,0.021384079,0.7313345,0.857339,2.1380289,-0.7759669,-1.9087775,0.33401123,-0.5991865,-0.99999994,2.0550609,240.0
56.8,-33.72225,150.67426,0.45767576,56.748093,23.740646,0.034739394,0.025641112,0.7973902,0.58851343,2.2912083,-0.7904655,3.385386,0.48051015,-0.4233878,-1.0,2.3146656,240.0
57.0,-33.722248,150.67426,0.4572585,56.993504,23.897219,0.0353372,0.022335697,0.85833865,0.3687885,2.408295,-0.28842902,-1.945559,0.37871632,-0.5197773,-1.0,2.2242012,240.0
57.1,-33.722248,150.67426,0.47299308,57.355583,24.126574,0.037452064,0.011004187,0.8973635,0.23636216,2.1433463,-0.28520432,-1.4200902,0.21763648,-1.0,1.0,2.1858795,240.0
57.292,-33.722244,150.67426,0.47862145,57.508835,24.231276,0.03658287,0.011781645,0.93531233,0.006992371,2.4375224,-2.0749454,3.7653186,0.5459707,-0.34483522,-1.0,2.2798226,240.0
57.44,-33.72224,150.67426,0.46406898,57.799934,24.455566,0.033095565,0.014500676,1.0259786,-0.3866671,2.460366,-2.8150814,3.7853992,0.5197715,-0.37627414,-1.0,2.0150774,240.0
57.6,-33.72224,150.67426,0.46546876,58.00918,24.659847,0.032447044,0.014506517,1.0868449,-0.5634757,2.27068,0.29563913,-1.551292,0.2927051,-0.6487539,-1.0,2.2830405,240.0
57.7,-33.722237,150.67427,0.4615992,58.229687,24.88234,0.031592138,0.011467476,1.1456028,-0.9984491,2.3778248,-3.3622923,2.8738687,0.59849864,-0.28180164,-1.0,2.0938807,240.0
57.884,-33.722237,150.67427,0.45622128,58.353825,25.0213,0.030015182,0.009812061,1.1963831,-1.0736188,2.1990848,0.7350052,-1.5962731,0.37462327,-0.550452,-1.0,2.212639,240.0
58.084,-33.722237,150.67427,0.46255988,58.586525,25.296621,0.027307736,0.013267916,1.2641824,-1.2484468,1.9299854,-1.5572492,0.18671222,0.35127145,-1.0,0.21934801,2.2250514,240.0
58.2,-33.722233,150.67427,0.47425961,58.832516,25.592857,0.031398404,0.00306263,1.2992349,-1.3713366,1.8664347,0.46203047,-0.9897828,0.29197404,-1.0,0.054841757,2.3081367,240.0
58.3,-33.722233,150.67427,0.47852904,59.01626,25.806944,0.03452788,-0.00868463,1.3159051,-1.3951263,1.8201602,0.22961006,-0.83396924,0.24202597,-1.0,0.022977114,2.5996978,240.0
58.48,-33.72223,150.67427,0.48337716,59.24742,26.08929,0.033259824,-0.009954669,1.3534943,-1.7439749,1.843338,-5.0890045,1.458908,0.45867977,0.252584,0.78618777,2.6627293,240.0
58.6,-33.72223,150.67429,0.46453902,59.464848,26.492805,0.02979323,-0.0013808055,1.4468157,-2.5556395,1.7549837,-1.1230038,-0.13610172,0.46726203,0.30133456,0.18495554,2.7722132,240.0
58.7,-33.722225,150.67429,0.45238793,59.598637,26.827559,0.028001735,-0.0052709747,1.4927642,-2.746986,1.5469608,-0.9542389,-0.47597995,0.30095384,0.33782727,0.10765892,2.9922342,240.0
58.9,-33.722225,150.67429,0.43880308,59.716873,27.1508,0.027481759,-0.0076657343,1.5183141,-2.867806,1.406248,-0.72718775,-0.4714232,0.1687684,0.31734562,0.082473144,2.8366215,240.0
59.072,-33.722225,150.6743,0.42015433,59.896935,27.659998,0.030395534,-0.011218281,1.5316787,-3.0001721,1.2982054,-0.08186055,-0.5820105,0.07061394,0.24404633,0.060379498,2.7483673,240.0
59.2,-33.72222,150.6743,0.40488267,60.012737,28.084116,0.026559487,-0.0072862976,1.5476633,-2.976761,1.1117845,-0.16284816,-0.49109617,0.032047708,0.30429828,0.06999803,2.6281936,240.0
59.4,-33.72222,150.6743,0.39876753,60.035805,28.393492,0.021267971,0.0013404201,1.5588268,-2.9081519,0.89603674,-0.6293408,-0.41182834,-0.030061634,0.35624486,0.11276275,2.685823,240.0
59.5,-33.72222,150.6743,0.3973488,60.05454,28.670792,0.019969488,0.0049434663,1.5578687,-2.9101121,0.7740299,-0.70643467,-0.47829288,-0.02945595,0.3516314,0.11950767,2.7898998,240.0
59.668,-33.72222,150.6743,0.40192485,60.053513,28.839558,0.018974893,0.0061622118,1.5563002,-2.8986173,0.7005197,-0.43729898,-0.397044,-0.038714595,0.34693965,0.13577893,2.8406641,240.0
59.864,-33.72222,150.67432,0.40244308,60.06098,29.262732,0.019261839,0.005752487,1.5541178,-2.928734,0.57568556,-0.22795904,-0.44114628,-0.029972963,0.3312239,0.12270923,2.9769413,240.0
59.996,-33.72222,150.67432,0.39905745,60.062584,29.438824,0.018419068,0.008072293,1.5538594,-2.9118946,0.5203693,-0.7142082,-0.5511464,0.009797622,0.3586269,0.11402971,2.8215601,240.0
60.144,-33.72222,150.67432,0.4090527,60.067093,29.794233,0.014036687,0.011527393,1.5503032,-2.860486,0.43269676,-0.6618345,-0.21326657,-0.012400247,0.3734588,0.15175955,2.6297176,240.0
60.3,-33.72222,150.67432,0.42337713,60.07085,30.087717,0.012528237,0.01328433,1.5461085,-2.8503525,0.38949788,-0.34192482,-0.2433965,-0.040111087,0.3350993,0.20007089,2.497751,240.0
60.4,-33.72222,150.67432,0.4343913,60.07643,30.435137,0.0113207875,0.015191569,1.5415503,-2.8486483,0.35008222,-0.41295052,-0.14455055,0.0026262961,0.35006198,0.18697646,2.0096211,240.0
60.6,-33.72222,150.67433,0.43744892,60.070587,30.699062,0.012570403,0.014259671,1.5424551,-2.8846102,0.31605542,-0.37164497,-0.23204142,0.010050447,0.3387278,0.164552,2.2581975,240.0
60.788,-33.72222,150.67433,0.428082,60.05552,31.17227,0.014133201,0.013816029,1.5450603,-2.902234,0.24780537,-0.11377707,-0.22590767,0.0061655394,0.34594312,0.14401051,2.4757466,240.0
60.9,-33.72222,150.67433,0.4214515,60.038403,31.580011,0.011775549,0.016029323,1.5410082,-2.8576648,0.20348553,-0.09984947,-0.16644111,0.004033438,0.35897523,0.17763811,2.3322484,240.0
61.068,-33.72222,150.67433,0.41971895,60.020626,31.806963,0.010255435,0.017390866,1.5388019,-2.8342903,0.17612278,0.0016280288,-0.3194547,-0.016878437,0.3669381,0.19474234,2.7194934,240.0
61.2,-33.72222,150.67435,0.4176635,59.986122,32.178204,0.009171201,0.018368227,1.537425,-2.8311365,0.13474795,-0.14660373,-0.10367621,-0.022191651,0.3589355,0.20875022,2.4016156,240.0
61.384,-33.72222,150.67435,0.41780108,59.96415,32.451317,0.008298091,0.019149264,1.5359284,-2.8134034,0.10811708,-0.07170238,-0.20224424,-0.014333709,0.37962478,0.20787066,2.4725864,240.0
61.552,-33.72222,150.67435,0.4315165,59.942043,32.82375,0.0076390067,0.02039052,1.5343359,-2.806139,0.07780359,-0.14340045,-0.10941329,0.0071937162,0.38393506,0.21332696,2.462423,240.0
61.7,-33.72222,150.67436,0.4347381,59.93161,33.28927,0.008849268,0.018792674,1.5404645,-2.852246,0.042905334,-0.25454238,-0.061835762,-0.0044333613,0.39018673,0.16549796,2.6093462,240.0
61.8,-33.72222,150.67436,0.4440407,59.922474,33.68984,0.009484097,0.017684912,1.5417728,-2.8668623,0.022815198,0.19005547,-0.12245714,-0.021564996,0.3770141,0.16107267,2.3736944,240.0
62.0,-33.72222,150.67436,0.46011207,59.914837,34.03152,0.00895462,0.0182897,1.5371865,-2.8572302,0.017710444,0.24250853,-0.14691103,-0.04761982,0.35435534,0.19498026,2.5128732,240.0
62.176,-33.722225,150.67436,0.48119813,59.898914,34.420673,0.007825614,0.019422477,1.5298942,-2.8429785,0.021597004,-0.4150162,-0.073896356,-0.00727324,0.3699702,0.19628619,2.1006582,240.0
62.324,-33.722225,150.67438,0.49283946,59.87904,34.870087,0.007826851,0.019621225,1.5270325,-2.8467016,0.01652666,-0.07040699,-0.120316796,0.0013575647,0.36471286,0.1994805,2.1739337,240.0
62.5,-33.722225,150.67438,0.48448545,59.858112,35.361217,0.007535909,0.02009864,1.5251755,-2.8335812,0.0035165967,-0.35313457,-0.058017626,0.0073019774,0.37240553,0.20695795,2.4429867,240.0
62.6,-33.722225,150.67438,0.4802301,59.85379,35.686096,0.007002229,0.020365521,1.5231344,-2.829964,0.007993756,-0.27694094,0.029654821,0.012980938,0.37027663,0.21334381,2.2956676,240.0
62.8,-33.722225,150.67438,0.47642925,59.851036,36.066845,0.0061590835,0.020656455,1.5201844,-2.8199105,0.016748391,-0.26597333,-0.035065837,-0.03126667,0.3483269,0.24298611,2.0264366,240.0
62.968,-33.722225,150.6744,0.47333115,59.84655,36.40255,0.0063001746,0.020547606,1.5208205,-2.8325398,0.01675537,-0.058895603,-0.118523285,-0.0047881054,0.3686097,0.2127944,2.0470452,240.0
63.124,-33.722225,150.6744,0.47970426,59.84124,36.84192,0.0064254263,0.020196877,1.5227082,-2.8331566,0.008884987,0.09826448,0.0076306877,-0.022173831,0.36664116,0.21386673,2.3305628,240.0
63.296,-33.722225,150.6744,0.48012024,59.82024,37.21807,0.0063458392,0.020617355,1.5191702,-2.8286872,0.010985213,-0.09326479,0.011898134,-0.04471537,0.34913212,0.23754007,2.1167583,240.0
63.4,-33.722225,150.67441,0.46454647,59.795387,37.69768,0.0061221393,0.020931482,1.5175039,-2.8299944,0.012378384,0.09541784,-0.14903718,-0.026843276,0.36284664,0.22335371,2.0362246,240.0
63.6,-33.722225,150.67441,0.45764232,59.77619,37.955986,0.005735971,0.02089816,1.5143083,-2.8219237,0.017218191,0.03452484,0.034580152,-0.027476208,0.3610345,0.23450802,1.9620044,240.0
63.7,-33.722225,150.67441,0.45005298,59.73914,38.392365,0.0054830974,0.021959078,1.5100869,-2.8177412,0.019865617,-0.377857,0.06085757,-0.00789968,0.37593177,0.22738323,2.062184,240.0
63.892,-33.722225,150.67441,0.45191988,59.725166,38.707973,0.005027407,0.022177672,1.5075951,-2.8074684,0.03006086,-0.12793805,0.06295914,0.0050520045,0.3772729,0.23548205,2.0206316,240.0
64.0,-33.722225,150.67442,0.44826892,59.72136,39.134533,0.004611271,0.022288041,1.5081154,-2.802469,0.0335009,-0.37670976,0.011216774,0.020764638,0.39996284,0.21715228,2.19806,240.0
64.2,-33.722225,150.67442,0.44469061,59.71179,39.509254,0.0048131403,0.021870812,1.5111523,-2.8062954,0.026076807,0.090329394,0.034048423,-0.010925428,0.40182385,0.21034887,2.525649,240.0
64.3,-33.722225,150.67442,0.44461626,59.703312,39.927208,0.0043771695,0.02262595,1.5083345,-2.7904804,0.030073212,-0.36075652,0.00820165,0.0064878943,0.40721834,0.2219324,2.4726899,240.0
64.484,-33.722225,150.67442,0.4448861,59.69074,40.205784,0.0041858647,0.022820959,1.5060714,-2.7815926,0.02913323,-0.052716915,-0.099739775,-0.014297332,0.409069,0.23050185,2.5719507,240.0
64.684,-33.722225,150.67444,0.45392275,59.67926,40.66287,0.003905611,0.023494853,1.5061963,-2.7775388,0.026484158,-0.051358037,-0.07041027,0.008791485,0.42022222,0.22369213,2.6009977,240.0
64.8,-33.722225,150.67444,0.47310862,59.665398,41.1423,0.0037990017,0.023428151,1.5060325,-2.7783473,0.02219096,-0.021301327,-0.21187063,-0.010675429,0.4292966,0.2143879,2.533815,240.0
64.9,-33.722225,150.67444,0.47678125,59.654156,41.449528,0.00368289,0.023318918,1.5052271,-2.7733026,0.01920932,0.35379183,-0.275689,-0.026465535,0.41996172,0.22961316,2.8252783,240.0
65.1,-33.722225,150.67445,0.4805128,59.642963,41.78931,0.0035136333,0.02386126,1.5047209,-2.7625823,0.011478537,-0.03220302,-0.16103156,0.017949134,0.4466843,0.21503729,3.03508,240.0
65.276,-33.722225,150.67445,0.4645798,59.61933,42.327156,0.0043042405,0.021796275,1.5129883,-2.8095126,-0.018375535,0.4029472,-0.17502417,-0.025516503,0.44922706,0.16382924,3.1648283,240.0
65.428,-33.722225,150.67445,0.4593288,59.5908,42.805283,0.004193225,0.021052532,1.5085268,-2.807303,-0.01856958,0.019617118,0.03230274,-0.04498413,0.43854904,0.17972483,3.032388,240.0
65.6,-33.722225,150.67447,0.45932016,59.57946,43.31672,0.0035512636,0.022054771,1.4997902,-2.798395,0.008493785,0.065820165,0.05029734,-0.04333492,0.4383589,0.19203234,2.989701,240.0
65.7,-33.722225,150.67447,0.46468407,59.569233,43.64245,0.003232049,0.022055896,1.4941833,-2.7931528,0.02864067,0.024743464,0.079017796,-0.039346695,0.4189157,0.2179176,2.8323202,240.0
65.9,-33.722225,150.67447,0.4669315,59.554928,43.949688,0.003177983,0.02237882,1.490533,-2.7911344,0.042837754,-0.107652836,0.12668204,-0.026521746,0.42354193,0.21601436,2.641085,240.0
66.068,-33.722225,150.67447,0.46754342,59.523323,44.44867,0.0031574531,0.022727022,1.4843531,-2.7850773,0.05962556,0.012310107,0.061644994,-0.0085126255,0.43626055,0.2117913,2.8768573,240.0
66.2,-33.722225,150.67448,0.46377075,59.491283,44.859745,0.0031971592,0.02355493,1.4814351,-2.772021,0.061767135,-0.20454893,-0.070530444,0.010468656,0.44999444,0.21307111,2.967539,240.0
66.4,-33.72223,150.67448,0.4603096,59.454582,45.449535,0.003750326,0.020966146,1.4872466,-2.8206534,0.043274373,0.16871203,-0.10579032,0.0001652065,0.45449838,0.15884998,3.0795212,240.0
66.5,-33.72223,150.67448,0.4525363,59.435936,45.871086,0.0035256168,0.020472413,1.482635,-2.8185573,0.055011358,-0.16168174,0.016002573,-0.024328502,0.45275354,0.1644479,3.1920567,240.0
66.7,-33.72223,150.6745,0.45323238,59.42418,46.180267,0.0033349262,0.021153886,1.4772965,-2.8030374,0.067015246,-0.010269361,-0.05407166,-0.05202444,0.43580863,0.19943395,3.3934205,240.0
66.8,-33.72223,150.6745,0.46002316,59.4073,46.653687,0.003254503,0.020505585,1.4717412,-2.8145468,0.09179906,0.23515323,-0.009114303,-0.0671319,0.42014584,0.20398644,3.1655493,240.0
66.992,-33.72223,150.6745,0.46242532,59.393024,46.981777,0.0031258573,0.02036427,1.4676262,-2.8119528,0.108243644,0.2515661,0.03218682,-0.060142938,0.4223897,0.20476978,3.1874332,240.0
67.1,-33.72223,150.67451,0.44411287,59.372482,47.505413,0.002774666,0.020779695,1.4603877,-2.8016264,0.14411756,0.28929415,-0.23631206,-0.052450277,0.42667437,0.21016419,3.022273,240.0
67.3,-33.72223,150.67451,0.42852077,59.358917,47.816162,0.0026412345,0.021098088,1.4556137,-2.7982612,0.16650462,0.24981087,-0.04767988,-0.0600019,0.4196155,0.21988,2.9330018,240.0
67.4,-33.72223,150.67451,0.40889508,59.336067,48.3062,0.0027622783,0.021890752,1.4513425,-2.7824256,0.182831,0.27038935,-0.16486983,-0.042025864,0.44459426,0.21102357,3.304149,240.0
67.588,-33.72223,150.67451,0.4028583,59.328278,48.57207,0.0028434184,0.021833925,1.4509084,-2.7980838,0.19162337,-0.2441576,0.14398834,0.0059095277,0.47260413,0.16617468,3.2368605,240.0
67.784,-33.72223,150.67453,0.39444998,59.308186,49.098854,0.0026968394,0.020860268,1.4463835,-2.8003187,0.21571828,-0.1862635,0.18990137,-0.03580058,0.45850307,0.17642146,3.3029351,240.0
67.9,-33.72223,150.67453,0.3931728,59.292404,49.611286,0.0023412348,0.021232208,1.4368482,-2.7901082,0.26000795,-0.03542435,0.18176672,-0.059101176,0.43981478,0.20312443,3.1003952,240.0
68.068,-33.72223,150.67453,0.4003511,59.290443,49.919186,0.002173847,0.021860536,1.4303355,-2.7759078,0.2861822,-0.17628892,0.1552674,-0.013788455,0.4707034,0.18522725,3.0806653,240.0
68.2,-33.72223,150.67455,0.40535223,59.27607,50.40829,0.0024883002,0.019750722,1.4287935,-2.811534,0.30461007,0.099391945,-0.110953666,-0.037071113,0.4407289,0.17716394,3.3312695,240.0
68.38,-33.72223,150.67455,0.4024091,59.275124,50.79479,0.0025985257,0.018615702,1.4267758,-2.8149989,0.32137585,0.22039992,-0.10268404,-0.045888044,0.45757425,0.15394212,3.1499104,240.0
68.576,-33.72223,150.67455,0.41110292,59.25578,51.35435,0.0025310996,0.019325025,1.4169996,-2.8014083,0.3535763,-0.17266963,0.08694399,-0.025777416,0.47750446,0.14766708,3.340822,240.0
68.7,-33.72223,150.67456,0.41430506,59.238445,51.84387,0.0024782554,0.018986478,1.4050025,-2.8026075,0.39926553,0.11545965,-0.051331263,-0.057247937,0.44829327,0.17376168,3.104398,240.0
68.88,-33.72223,150.67456,0.41272712,59.22986,52.220028,0.002454843,0.018605366,1.398336,-2.8032656,0.42850676,-0.10098939,0.11997408,-0.06567153,0.44104922,0.17808054,3.1149082,240.0
69.0,-33.72223,150.67456,0.40678883,59.22847,52.814194,0.0026687088,0.015714169,1.3916737,-2.8394408,0.46858618,0.121506065,0.014070765,-0.04847492,0.4423037,0.13664588,3.2081573,240.0
69.172,-33.72223,150.67458,0.40864217,59.22593,53.142326,0.0027166565,0.015318975,1.3832334,-2.8312519,0.5037362,0.22135231,-0.04810768,-0.108479,0.41317028,0.16986577,2.8762426,240.0
69.348,-33.72223,150.67458,0.4072386,59.230267,53.600674,0.0025378058,0.015616891,1.3683013,-2.8144784,0.5650476,0.12677197,0.16704886,-0.07977794,0.4218169,0.1703716,2.9325013,240.0
69.5,-33.72223,150.67458,0.39335704,59.240417,54.098976,0.0024218082,0.01606118,1.3552985,-2.7900174,0.62631404,0.15917417,0.12654407,-0.08087627,-0.99999994,-0.90294844,2.9539604,240.0
69.6,-33.72223,150.67458,0.38351312,59.244072,54.406178,0.0029035409,0.015120231,1.3536861,-2.5281515,0.52577025,2.6305332,-1.1317775,0.04617564,-0.9445892,-0.99999994,2.9327784,240.0
69.8,-33.72223,150.67459,0.3742973,59.226456,54.795444,0.0032901778,0.0119112795,1.3708946,-2.1400094,0.319756,1.9186763,-0.7425781,0.12474054,1.0,-1.0,3.1766286,240.0
69.9,-33.72223,150.67459,0.3699852,59.200542,55.07307,0.002690712,0.01581313,1.3647276,-2.3756413,0.45655352,-2.7377234,1.2052537,-0.2716449,-0.99999994,-0.6740261,3.0006444,240.0
70.1,-33.72223,150.67459,0.36431837,59.187843,55.254097,0.0022239657,0.019295523,1.3463656,-2.2156465,0.42985266,1.8625393,-0.84317225,-0.10987686,1.0,-1.0,2.720075,240.0
70.292,-33.72223,150.67459,0.3555023,59.175034,55.62055,0.0022164609,0.012084031,1.3103569,-2.381127,0.6572282,-2.5783746,1.4308653,-0.38357434,-1.0,-0.53971076,2.5610218,240.0
70.4,-33.72223,150.6746,0.36974776,59.187576,56.000664,0.0026652943,0.016735721,1.2669332,-2.294407,0.78435314,-3.112556,2.309582,-0.28034136,-1.0,-0.66359043,2.4361992,240.0
70.5,-33.72223,150.6746,0.37625396,59.199142,56.205296,0.0027636567,0.013066546,1.2436154,-2.0962627,0.73240274,1.8813113,-1.2263864,-0.1391238,1.0,-1.0,2.5676818,240.0
70.7,-33.72223,150.6746,0.38841146,59.22188,56.47597,0.0021753137,0.020080265,1.2053106,-2.1638873,0.95958245,1.8640171,-1.4311014,-0.3161754,-1.0,-0.59507084,2.219688,240.0
70.888,-33.72223,150.6746,0.3975283,59.247402,56.779713,0.0016641371,0.01723103,1.1650354,-2.1417665,1.1442671,-2.0145712,2.4831152,-0.29850885,-1.0,-0.64178944,2.5185444,240.0
71.0,-33.72223,150.6746,0.42661256,59.299957,57.15165,0.0018549961,0.01731078,1.1293919,-2.0337188,1.2597151,-1.9703664,3.1975396,-0.2976218,-0.99999994,-0.6428538,2.7233455,240.0
71.2,-33.72223,150.67462,0.4340718,59.339676,57.415714,0.0019094818,0.01930569,1.0873768,-1.8488606,1.2511169,-1.6658587,2.7878752,-0.17401226,1.0,-1.0,2.352299,240.0
71.3,-33.72223,150.67462,0.4353508,59.40619,57.797882,0.0018049937,0.020306611,1.0473931,-1.749457,1.3598933,1.3490615,-1.7226906,-0.12222578,1.0,-1.0,2.221292,240.0
71.48,-33.72223,150.67462,0.43890345,59.4536,58.00492,0.00152953,0.015422577,1.0246121,-1.792469,1.6354259,0.14864068,0.5450007,-0.2994511,-1.0,-0.6406586,2.4441164,240.0
71.68,-33.722225,150.67462,0.44204217,59.569187,58.464363,0.0013760931,0.018865762,0.98412156,-1.6579345,1.7607328,-0.6070327,2.7759206,-0.38702422,-1.0,-0.53557086,2.3891938,240.0
71.8,-33.722225,150.67464,0.4452917,59.689888,58.913986,0.0012586119,0.015026897,0.94273436,-1.5530424,1.9058353,-0.57496905,2.7431245,-0.30411112,-0.99999994,-0.63506657,2.4805648,240.0
71.988,-33.722225,150.67464,0.45239574,59.787575,59.23415,0.0017083986,0.011671168,0.9229777,-1.41607,1.7459488,0.904386,-1.9722766,-0.081539884,1.0,-1.0,2.5111759,240.0
72.1,-33.72222,150.67464,0.45355308,59.921753,59.627163,0.0018752364,0.015746018,0.87847584,-1.2794787,1.8967656,0.723944,-2.0539498,-0.14243947,1.0,-1.0,2.738361,240.0
72.272,-33.72222,150.67464,0.45475623,60.006557,59.857376,0.0014357703,0.019879417,0.85575026,-1.2243974,2.1715002,-0.10534277,2.891737,-0.33706218,-0.99999994,-0.5955253,2.6196096,240.0
72.444,-33.72222,150.67465,0.4534447,60.17979,60.29434,0.0011650518,0.011807911,0.8215506,-1.0991173,2.281018,0.03614088,3.5119646,-0.2530109,-0.99999994,-0.6963869,2.5370219,240.0
72.6,-33.722218,150.67465,0.45442617,60.36022,60.736145,0.0019952275,0.010744244,0.7987057,-0.97829103,2.115635,0.58009374,3.500512,-0.18163577,1.0,-1.0,2.3079364,240.0
72.7,-33.722218,150.67465,0.45824066,60.51842,61.086174,0.0020236163,0.019495318,0.7611041,-0.8453429,2.2892113,0.19934188,-2.0764482,-0.20126164,-1.0,-0.75848603,2.5593066,240.0
72.9,-33.722218,150.67465,0.4552427,60.606537,61.278473,0.0020653554,0.012943804,0.75251895,-0.81529796,2.1562576,0.19585688,-1.9011035,-0.04478857,1.0,-1.0,2.6139097,240.0
73.064,-33.722214,150.67467,0.4506981,60.83812,61.69064,0.001991079,0.0127317235,0.7060173,-0.60463405,2.3930128,-0.027286485,-2.1527393,-0.17116503,-1.0,-0.7946019,2.5762422,240.0
73.196,-33.722214,150.67467,0.45173112,60.94796,61.888992,0.0022293145,0.0143447695,0.6967525,-0.57495517,2.1666949,0.023116902,-1.7820075,-0.031088106,1.0,-1.0,2.5847747,240.0
73.3,-33.722214,150.67467,0.45234615,61.160076,62.232105,0.0020641598,0.012149802,0.6606537,-0.36300108,2.4064605,-0.22807649,-2.153578,-0.15791142,-1.0,-0.81050634,2.5370698,240.0
73.476,-33.72221,150.67467,0.45652774,61.267273,62.400177,0.0024757278,0.011419168,0.65247875,-0.35855886,2.1851897,-0.1567804,-1.8308966,-0.03219524,1.0,-1.0,2.2390237,240.0
73.6,-33.72221,150.67467,0.46217623,61.382027,62.583107,0.002667339,0.019672189,0.63270324,-0.16951494,2.4611807,1.5547081,3.1831892,-0.25337037,-1.0,-0.6959555,2.3628187,240.0
73.764,-33.72221,150.67467,0.4635306,61.610077,62.897545,0.0025704908,0.013993634,0.5958242,0.03428435,2.5076268,-0.84400415,-2.5644557,-0.3049175,-1.0,-0.634099,2.6757677,240.0
73.9,-33.722206,150.67468,0.46380353,61.801163,63.117588,0.0026252635,0.016746739,0.563473,0.12858248,2.3460538,1.5503902,1.9218063,-0.17609353,0.7145886,-0.99999994,3.0006528,240.0
74.0,-33.722206,150.67468,0.45760903,61.95963,63.293816,0.0026108117,0.021901311,0.544532,0.16728957,2.206631,-0.6802955,-1.9594897,-0.057858992,0.7281522,-0.99999994,3.0944936,240.0
74.2,-33.722202,150.67468,0.45145443,62.131245,63.47961,0.0021663718,0.016899835,0.5203912,0.3554806,2.2963097,0.6783438,0.09826259,-0.20381351,0.41948408,-0.99999994,2.7270417,240.0
74.384,-33.722202,150.67468,0.43843314,62.374306,63.72214,0.0019345796,0.018293917,0.48723444,0.47654667,2.2013946,-0.2509655,-0.88538665,-0.18328878,0.226574,-1.0,2.722941,240.0
74.5,-33.7222,150.67468,0.4299377,62.60653,63.94406,0.002143805,0.019257242,0.4663634,0.5057946,2.028858,-0.10486004,-0.7428435,-0.09931,0.21394116,-1.0,2.6426735,240.0
74.6,-33.7222,150.67468,0.43397593,62.793987,64.12619,0.0017515876,0.01633697,0.45418587,0.53635925,1.9749799,-0.015306447,-0.6129813,-0.056542102,0.20617342,-1.0,2.809637,240.0
74.8,-33.722195,150.6747,0.43176675,63.111073,64.43723,0.00060160656,0.013401269,0.42145792,0.90473783,2.259074,2.4365435,2.5111067,-0.354969,0.8873497,0.22547004,2.7175412,240.0
74.98,-33.72219,150.6747,0.42813325,63.49969,64.77146,-0.00025928573,0.016739396,0.36415488,1.4137002,2.52485,1.2780291,0.59696555,-0.25436443,0.540257,0.12502849,2.8433118,240.0
75.132,-33.722187,150.6747,0.425074,63.90595,65.07728,0.00024752368,0.012603692,0.32466674,1.6371846,2.4904997,0.3928933,-0.10430699,-0.1543795,0.44567883,0.14440465,2.6081455,240.0
75.3,-33.722183,150.6747,0.4256273,64.36972,65.38837,0.0007187916,0.014669152,0.30032068,1.777876,2.4049487,0.46783,-0.051945973,-0.071386985,0.40896472,0.16618231,2.5387673,240.0
75.4,-33.72218,150.6747,0.42818987,64.75291,65.62747,-0.00030291974,0.011788264,0.28589463,1.8933146,2.3833299,0.3595341,-0.115065835,-0.024949247,0.38775522,0.13086873,2.7156851,240.0
75.6,-33.722176,150.67471,0.4273812,65.11769,65.84667,-0.0012580126,0.0089932745,0.27958325,1.9460822,2.344335,0.2336088,-0.19873047,0.0053604837,0.3904545,0.11710802,2.9323478,240.0
75.772,-33.72217,150.67471,0.4350675,65.566,66.08497,-0.0014746881,0.011364196,0.27902636,1.9735066,2.2645574,0.3204924,-0.09909291,-0.031199062,0.3949914,0.13254225,2.6692963,240.0
75.924,-33.722168,150.67471,0.44028175,65.92518,66.26273,-0.0009909557,0.012271983,0.27519456,2.0118775,2.1898785,0.15561423,-0.29849702,-0.059803113,0.38331097,0.1567728,2.5269654,240.0
76.1,-33.722164,150.67471,0.4490289,66.34931,66.470634,-0.00060128607,0.012548741,0.266083,2.072473,2.107332,0.0031378763,-0.22489886,-0.058745846,0.367889,0.17764384,2.2595408,240.0
76.2,-33.722164,150.67471,0.45040423,66.66567,66.61546,-0.00075973506,0.01366588,0.26153448,2.1193924,2.0570126,0.31691113,-0.08296692,-0.052006077,0.3594666,0.17772919,2.1193743,240.0
76.4,-33.72216,150.67471,0.4513012,66.97914,66.76714,-0.0013569709,0.012132411,0.25245285,2.167768,2.0140357,0.22843288,-0.0669378,-0.014450968,0.3659267,0.1631619,2.3977985,240.0
76.5,-33.722157,150.67471,0.45920226,67.32924,66.93303,-0.0010667688,0.013212045,0.2530137,2.1719913,1.96318,-0.035364058,-0.30812785,-0.028672861,0.37280193,0.17643043,2.4554968,240.0
76.696,-33.722157,150.67471,0.46323752,67.55818,67.03694,-0.0006942915,0.014456596,0.25566655,2.1701221,1.9338957,0.3542715,-0.13098522,0.01861737,0.4122706,0.14949065,2.5741942,240.0
76.892,-33.722153,150.67473,0.46746588,67.98203,67.22177,-0.00040050538,0.015028595,0.25348395,2.1947327,1.8766094,0.12844183,-0.23550373,-0.021294015,0.4075562,0.16009638,2.451814,240.0
77.0,-33.72215,150.67473,0.46641043,68.36879,67.38789,-0.0004775538,0.015190588,0.24677664,2.2338092,1.8370359,0.38106263,-0.027873846,0.001284747,0.40746683,0.15872353,2.549966,240.0
77.1,-33.722145,150.67473,0.46382317,68.6739,67.51974,-0.0008932407,0.014212266,0.24015139,2.2739964,1.815118,0.44068658,0.089434616,0.014156752,0.3833474,0.1617608,2.8685064,240.0
77.3,-33.72214,150.67473,0.46418452,68.964355,67.64169,-0.00086893653,0.013989637,0.23887904,2.287189,1.7931023,0.20748004,0.012400966,8.040518e-05,0.38636762,0.15854578,2.5197704,240.0
77.488,-33.722137,150.67473,0.46277526,69.38752,67.81962,-0.00024168918,0.0153538985,0.24191993,2.2772605,1.7597994,0.4010161,0.0733785,-0.0106703015,0.421662,0.14434335,2.5821226,240.0
77.6,-33.722134,150.67473,0.4657503,69.74626,67.95836,0.00012902624,0.017001996,0.23962921,2.2784846,1.7119812,0.25175658,0.061960287,-0.040407814,0.41201815,0.17719677,2.3853292,240.0
77.8,-33.722134,150.67473,0.46315125,69.985756,68.04399,7.400062e-05,0.017225796,0.2354766,2.2982771,1.681984,-0.01821349,-0.13596301,-0.065140784,0.3878457,0.20116301,2.3699963,240.0
77.9,-33.72213,150.67473,0.46050495,70.425446,68.199715,0.00017332507,0.018037828,0.23017275,2.3195465,1.6352761,0.2964793,0.05387492,-0.05029505,0.39171737,0.20407768,2.567267,240.0
78.08,-33.722126,150.67473,0.46020246,70.6609,68.275566,0.0002728602,0.018174829,0.22883824,2.3235044,1.6039454,-0.020998454,-0.2094119,-0.037704244,0.4042175,0.20308957,2.2897675,240.0
78.28,-33.722122,150.67473,0.45820755,71.180664,68.45227,-0.00018821888,0.016777348,0.21514998,2.387484,1.5605433,0.08154812,-0.04573637,-0.03798716,0.35256478,0.2269539,2.692033,240.0
78.4,-33.72212,150.67474,0.46260044,71.6044,68.60063,-0.00018731087,0.016454127,0.21579282,2.4029286,1.5442362,-0.041297514,-0.2293956,0.009789062,0.38622385,0.18554455,2.5616164,240.0
78.6,-33.722115,150.67474,0.4658867,71.886246,68.69285,-0.00016319782,0.017179605,0.22094153,2.3894174,1.5312634,0.0736951,-0.19070925,0.021097893,0.4311204,0.1544286,2.7541792,240.0
78.7,-33.72211,150.67474,0.47190154,72.34037,68.82623,-0.00052433886,0.01764714,0.22125846,2.3882103,1.4917276,-0.01897395,-0.22426115,-0.010722551,0.43796363,0.16519997,3.0741923,240.0
78.872,-33.72211,150.67474,0.4694318,72.61886,68.90141,-0.0006365394,0.018374592,0.22149937,2.3859227,1.4672844,0.1836062,-0.13717148,0.02459697,0.46261877,0.15297098,3.201021,240.0
79.072,-33.722107,150.67474,0.46158275,73.07915,69.01727,-0.000713878,0.01866088,0.22092201,2.391603,1.4256237,-0.04593338,-0.21818759,-0.0070443163,0.45779243,0.17085597,3.30361,240.0
79.2,-33.722103,150.67474,0.46213675,73.43331,69.10419,-0.00058077433,0.020035401,0.22112396,2.3879983,1.3945605,0.41484183,0.10457896,0.0032676635,0.47140384,0.17367472,3.4554045,240.0
79.372,-33.7221,150.67474,0.45940498,73.70883,69.17122,-0.00050806307,0.020632198,0.22018346,2.3911645,1.3688437,0.47150925,0.12858248,0.0060195313,0.47546867,0.17810926,3.4928288,240.0
79.5,-33.722095,150.67474,0.4484951,74.08924,69.28702,-0.00031855973,0.019962529,0.21505713,2.4128492,1.344581,0.0211892,0.040671557,-0.02898367,0.43434706,0.2105858,3.3140748,240.0
79.664,-33.72209,150.67474,0.44572517,74.375854,69.37785,-5.390213e-05,0.020581214,0.2127486,2.4148912,1.3274397,0.16810708,-0.034867708,-0.02546279,0.44982988,0.20286445,3.2018366,240.0
79.8,-33.722088,150.67474,0.4495302,74.74939,69.50023,0.00023962895,0.020371515,0.20973004,2.436314,1.3191184,0.23869438,-0.10227679,-0.023548909,0.45846847,0.18103799,2.9670475,240.0
79.996,-33.722088,150.67474,0.45296487,75.11716,69.60685,0.00020421327,0.02006737,0.20518212,2.4473712,1.2959081,0.032864608,0.009703526,-0.060780197,0.4138144,0.22512868,2.8422964,240.0
80.1,-33.722084,150.67474,0.45164838,75.54134,69.717674,0.00042493735,0.020868119,0.20175584,2.4522092,1.2670676,-0.19963898,-0.08445631,-0.03820103,0.42827266,0.21906967,2.7214425,240.0
80.3,-33.72208,150.67474,0.44863245,75.779785,69.78128,0.0005538093,0.02113903,0.20079058,2.4562883,1.2557008,0.10389801,-0.1712816,-0.025713587,0.43792143,0.21055648,2.6931775,240.0
80.4,-33.722076,150.67474,0.44328117,76.158516,69.88782,0.00080376264,0.022476481,0.20052706,2.4432638,1.2363865,0.4173881,0.31254923,0.01462291,0.47087115,0.19728966,3.108977,240.0
80.588,-33.722073,150.67476,0.44525105,76.5084,69.979706,0.0006505864,0.02207982,0.19788851,2.4622633,1.2212621,0.21867056,-0.11679983,0.0053175846,0.46387863,0.19353138,3.070929,240.0
80.744,-33.72207,150.67476,0.44646078,76.953995,70.09077,0.00051498174,0.021458901,0.19177559,2.4770646,1.1917264,0.28973308,0.027410636,0.005521553,0.45153627,0.20555452,2.8108287,240.0
80.9,-33.72207,150.67476,0.45367366,77.30509,70.18307,0.0008190474,0.021787679,0.19134465,2.4768624,1.1766366,0.04766443,-0.18473119,0.007994205,0.46074152,0.202525,2.833813,240.0
81.0,-33.722065,150.67476,0.4662444,77.70568,70.29205,0.0010950953,0.022956561,0.19104138,2.4646685,1.1586541,0.39988035,0.07089918,0.020193724,0.49301976,0.18792911,3.2140613,240.0
81.188,-33.72206,150.67476,0.4772317,77.973,70.36169,0.0010905524,0.02267367,0.1899592,2.464369,1.1448799,0.086523764,-0.0009964628,-0.035166014,0.4648482,0.22159263,2.9818778,240.0
