timestamp,lat,lon,alt,x,y,roll,pitch,yaw,vel_x,vel_y,accel_x,accel_y,yaw_rate,right_engine,left_engine,wind_speed,wind_direction
30.0,-33.722763,150.67398,0.6531514,-0.05475113,-0.843325,-0.00941957,0.023730453,0.61994874,0.051835794,0.039906643,0.017920954,0.066490315,0.001193033,0.0,0.0,-0.09834054,240.0
30.164,-33.722763,150.67398,0.6352868,-0.056735005,-0.83413637,-0.00860012,0.021036325,0.61998713,0.045967646,0.048878916,0.0123251425,0.07310507,0.00084722525,0.0,0.0,-0.19245884,240.0
30.296,-33.722763,150.67398,0.6265573,-0.059891745,-0.82377875,-0.0076073706,0.01920845,0.61967397,0.03763337,0.054997135,0.007377172,0.0716547,0.00083172036,0.0,0.0,0.016449478,240.0
30.472,-33.722763,150.67398,0.61327624,-0.07011611,-0.8030305,-0.006252086,0.015999572,0.6197865,0.02284683,0.05959103,0.0060235034,0.06622996,0.00068055687,0.0,0.0,-0.21304052,240.0
30.6,-33.722763,150.67398,0.61069596,-0.07927701,-0.79283303,-0.0052738558,0.013701622,0.6197874,0.013322644,0.06161708,-0.0059607853,0.060566325,0.001218936,0.0,0.0,-0.24922176,240.0
30.7,-33.722763,150.67398,0.59954095,-0.08709828,-0.7863717,-0.004118515,0.010734214,0.62015796,0.0045612548,0.05579432,-0.006588318,0.046625666,0.0008649195,0.0,0.0,-0.13522814,240.0
30.892,-33.722763,150.67398,0.6007253,-0.083982386,-0.7875321,-0.0039942563,0.008752588,0.62106615,0.0077313436,0.05109339,0.0014674091,0.03534555,0.0011692358,0.0,0.0,-0.29301623,240.0
31.0,-33.722763,150.67398,0.60819346,-0.07891774,-0.7822734,-0.002999484,0.0058632493,0.62187463,0.009899208,0.042322844,-0.00073489046,0.026733004,0.0013045233,0.0,0.0,-0.45450225,240.0
31.2,-33.722763,150.67398,0.62323743,-0.07746046,-0.7851901,-0.0022690704,0.004482477,0.6221162,0.010600223,0.034715567,0.0031386204,0.029314611,0.0012655065,0.0,0.0,-0.2881059,240.0
31.3,-33.722763,150.67398,0.6572302,-0.06830299,-0.792841,-0.0015683852,0.0024089366,0.6229607,0.016848335,0.026412696,0.012147888,0.024711946,0.00268499,0.0,0.0,-0.6656113,240.0
31.484,-33.722763,150.67398,0.67731285,-0.064477116,-0.79905736,-0.00095705997,0.0009013279,0.6237376,0.021413878,0.021718614,0.01867312,0.03146058,0.0045715817,0.0,0.0,-0.8163856,240.0
31.6,-33.722763,150.67398,0.7160352,-0.0070875613,-0.75707734,0.00023997166,0.00084696215,0.58617127,0.33802736,0.78024906,2.5015852,6.032498,-0.36770225,0.99999994,0.4390164,-0.87215465,240.0
31.8,-33.72276,150.67398,0.74236345,0.16008155,-0.649503,0.0011453024,0.0031765702,0.5359406,0.8240402,1.6414579,4.3128285,6.68132,-0.32189688,1.0,0.7430531,-1.0615999,240.0
31.9,-33.72276,150.67398,0.75674677,0.554005,-0.40588656,0.003970668,0.00022775988,0.48495117,1.5138129,2.5385187,1.7726241,2.8195214,-0.26298872,0.5147053,0.4109647,-1.3292694,240.0
32.08,-33.722755,150.674,0.7680542,0.9225862,-0.16811167,0.006088743,-0.003180645,0.47350356,1.5894786,2.6123135,-0.20298733,-0.23720634,-0.10781309,0.29761267,0.21465562,-0.9884047,240.0
32.2,-33.722748,150.674,0.7701216,1.4192853,0.14394689,0.0062565207,-0.011224348,0.46283755,1.6084645,2.589891,-0.46440065,-0.8236788,-0.08207579,0.22654569,0.17334735,-0.8067671,240.0
32.4,-33.722744,150.674,0.7773754,1.8706665,0.43682405,0.005531573,-0.014266191,0.45928076,1.5767567,2.5502,-0.2927433,-0.3943668,-0.037796393,0.2423831,0.1765534,-0.5810768,240.0
32.5,-33.72274,150.674,0.780826,2.358953,0.74804,0.005752377,-0.013071772,0.45115,1.5784365,2.5064096,-0.19892037,-0.2595448,-0.04683383,0.25730222,0.18135543,-0.6874851,240.0
32.672,-33.72274,150.674,0.78231245,2.5813677,0.890872,0.006661645,-0.009942319,0.4471295,1.579928,2.478894,0.089561336,-0.083616324,-0.03851343,0.25442863,0.22352874,-0.35417512,240.0
32.872,-33.722736,150.67401,0.79307944,2.940086,1.1231623,0.008332977,-0.004531822,0.44311056,1.5733888,2.4347324,0.28680125,0.30359042,-0.015013704,0.2906822,0.22835684,-0.6943984,240.0
33.0,-33.722733,150.67401,0.7929995,3.4804173,1.4603925,0.005279336,-0.014353632,0.44361666,1.6350013,2.5258284,-0.037461516,-0.11626477,0.005275569,0.23330557,0.1817913,-0.6067941,240.0
33.1,-33.72273,150.67401,0.78987986,3.8568828,1.7019197,0.004999091,-0.014409298,0.44245544,1.6345855,2.5228345,0.00021790265,-0.19716933,-0.021197824,0.23832574,0.1735749,-0.4893142,240.0
33.3,-33.722725,150.67401,0.78697336,4.1208057,1.8766847,0.0056008333,-0.012187165,0.4409294,1.631961,2.524845,0.052076798,0.089145325,-0.0030419345,0.2529611,0.16327803,-0.26534322,240.0
33.464,-33.72272,150.67401,0.7934128,4.5744987,2.1863847,0.0054448755,-0.01005827,0.43778515,1.6252884,2.5150065,0.121498644,-0.07603017,-0.011222692,0.241742,0.18431284,-0.2896251,240.0
33.596,-33.722717,150.67401,0.7957101,4.856311,2.3737633,0.0035196785,-0.013217465,0.43607593,1.6604148,2.5610178,-0.034449372,0.00019099584,-0.04346547,0.20516725,0.16486304,-0.31813547,240.0
33.748,-33.722713,150.67403,0.78763974,5.3045416,2.6637113,0.002264396,-0.011746213,0.43118432,1.673151,2.5448267,-0.106280886,-0.1749882,-0.03246347,0.20905934,0.1686144,-0.8516608,240.0
33.9,-33.722713,150.67403,0.7865475,5.595119,2.8537445,0.0026077533,-0.0065169837,0.42667663,1.6677346,2.5086677,0.0647197,0.10069717,-0.026697002,0.2086789,0.19032973,-0.54670405,240.0
34.0,-33.72271,150.67403,0.78966826,5.9216695,3.0612981,0.0033417898,0.0022037479,0.42252773,1.6568668,2.453558,0.05763323,0.015396457,-0.034590803,0.25203755,0.2029141,-0.46177787,240.0
34.192,-33.722706,150.67403,0.7826428,6.114439,3.1796875,0.0031518324,0.0056611607,0.42113584,1.6640941,2.4423585,0.45209774,0.32785112,-0.003465589,0.25646204,0.21426244,-0.39535192,240.0
34.344,-33.722706,150.67403,0.76508987,6.4497604,3.3894448,0.0031884073,0.011317801,0.41778928,1.6704159,2.415354,0.45602962,0.5179985,0.007726372,0.2621421,0.22836348,-0.268392,240.0
34.5,-33.722702,150.67403,0.7625761,6.6548457,3.5014489,0.0028413448,0.017212423,0.41827127,1.6636989,2.378155,0.39037037,0.36788276,-0.00091149844,0.2821559,0.2413387,-0.3917563,240.0
34.6,-33.7227,150.67403,0.7544993,7.013807,3.6957297,0.0010495894,0.021488838,0.41854697,1.6858184,2.369596,0.40102243,0.39197475,0.017074086,0.28474987,0.23143126,-0.37812337,240.0
34.784,-33.7227,150.67403,0.7522089,7.228747,3.8135335,9.185437e-05,0.0232314,0.41771892,1.700493,2.3642182,0.06054561,0.07207358,-0.018295053,0.2831877,0.22894865,-0.59565306,240.0
34.936,-33.722694,150.67404,0.75077224,7.602441,4.020481,-0.00069850055,0.027643826,0.41588253,1.7048764,2.3358052,-0.050732106,-0.10244312,-0.022837002,0.279101,0.25410295,-0.2777449,240.0
35.1,-33.72269,150.67404,0.74312174,7.8464007,4.150354,-0.0010322315,0.032459743,0.41597512,1.6991892,2.3044841,0.015147821,-0.012450818,-0.021437274,0.29481578,0.26391947,0.11545082,240.0
35.2,-33.722687,150.67404,0.71055514,8.307058,4.4108114,-0.0042511625,0.02990418,0.41711074,1.7433646,2.3525712,-0.06434321,-0.042306647,-0.022974474,0.2935719,0.21165578,-0.18965769,240.0
35.38,-33.722687,150.67404,0.68877995,8.546117,4.540736,-0.0054389704,0.029636757,0.4168073,1.753144,2.3571467,0.12451392,-0.011806191,-0.0081798285,0.288202,0.19898409,0.11030433,240.0
35.5,-33.722683,150.67404,0.66306597,8.935815,4.7463355,-0.005923344,0.03476453,0.41452634,1.7400236,2.3092794,0.20633887,0.145984,0.00498102,0.30927867,0.22593087,0.35221508,240.0
35.7,-33.72268,150.67404,0.6448482,9.236311,4.9021416,-0.0068537258,0.03760364,0.41508552,1.7491316,2.299354,0.33555913,0.21166578,-0.014245641,0.31645742,0.22357222,0.20089167,240.0
35.8,-33.722675,150.67404,0.63008296,9.598134,5.0842814,-0.008418114,0.03831754,0.41511092,1.7607784,2.2830343,-0.02030359,-0.005847645,-0.033341814,0.32396978,0.21711653,0.19448073,240.0
35.972,-33.72267,150.67406,0.6063054,9.937607,5.2747893,-0.009611583,0.034561306,0.41217142,1.8034396,2.3197267,-0.118797645,-0.0852033,-0.028503623,0.2742912,0.21296093,-0.118064865,240.0
36.1,-33.722668,150.67406,0.58346236,10.381586,5.512721,-0.010463492,0.033112604,0.40776634,1.8234339,2.3138041,-0.1822072,-0.27792758,-0.036939662,0.2572359,0.22295949,-0.48129836,240.0
36.3,-33.722668,150.67406,0.5666443,10.6754875,5.6665974,-0.010067246,0.036657374,0.40305367,1.817953,2.274223,-0.08264573,-0.06678391,-0.035430294,0.25622866,0.2573122,-0.568101,240.0
36.4,-33.722664,150.67406,0.5421966,11.052135,5.868704,-0.0109074265,0.034109127,0.40079612,1.8641796,2.3108428,0.16143939,0.082141675,-0.003779569,0.24177961,0.25076514,-0.83461666,240.0
36.568,-33.72266,150.67406,0.51250803,11.481966,6.0962176,-0.012563255,0.025933493,0.40250286,1.8968225,2.3510664,-0.14795494,-0.2881578,-0.020989101,0.24130987,0.16253795,-0.53334886,240.0
36.7,-33.722656,150.67406,0.49290633,11.867435,6.308705,-0.011334881,0.028286487,0.39654988,1.8760275,2.301771,0.021213105,0.09912347,-0.003687324,0.25457227,0.20192933,-0.44606546,240.0
36.896,-33.722652,150.67406,0.4733979,12.212522,6.506862,-0.011090811,0.026255062,0.39477798,1.899206,2.3265254,0.08756928,0.17160748,0.011915594,0.24107881,0.18174879,-0.16614218,240.0
37.0,-33.72265,150.67407,0.45124662,12.537524,6.6959987,-0.0102425665,0.025872972,0.3934679,1.8750149,2.2947047,0.10676272,-0.02896812,-0.026229704,0.26224884,0.19693139,-0.08657813,240.0
37.1,-33.722645,150.67407,0.4324574,12.871682,6.8798347,-0.009495941,0.026929399,0.39084226,1.8697326,2.2704828,0.17749757,0.28579545,-0.0050578606,0.2554299,0.22866651,-0.15944499,240.0
37.292,-33.722645,150.67407,0.42825437,13.069349,6.9816456,-0.009048712,0.027627688,0.38896242,1.868155,2.2471182,-0.0025499747,-0.023807628,-0.04129931,0.25655225,0.2471362,-0.11393646,240.0
37.492,-33.72264,150.67407,0.42585433,13.397723,7.1394978,-0.007952688,0.029565567,0.3867287,1.8596196,2.2044768,0.0738481,-0.009817934,-0.026889546,0.2803329,0.26017192,-0.19699498,240.0
37.6,-33.72264,150.67407,0.4158482,13.678006,7.27414,-0.0069910386,0.030303748,0.38648283,1.8536834,2.1764848,0.42871323,0.10476454,0.020728586,0.30629027,0.25131726,-0.22248825,240.0
37.7,-33.722637,150.67407,0.4112429,13.951358,7.4060893,-0.005943704,0.029496914,0.3859515,1.8584102,2.160072,0.1683046,0.056021567,-0.024100808,0.31720585,0.25254005,-0.12789059,240.0
37.888,-33.722633,150.67407,0.40708977,14.134355,7.4935484,-0.005204913,0.029507106,0.3855708,1.8577224,2.1498857,0.32661724,0.2487842,0.021029001,0.3349751,0.24361518,-0.35075492,240.0
38.084,-33.722633,150.67407,0.38149112,14.522034,7.674063,-0.0038527101,0.027746188,0.38342986,1.8629787,2.1232843,0.40871772,0.24052414,-0.004013207,0.3275592,0.2682828,-0.41938585,240.0
38.2,-33.72263,150.67407,0.36446953,14.896358,7.850765,-0.0024679687,0.026801402,0.38165888,1.8702406,2.1052356,0.36108404,0.28071958,0.011675696,0.30891603,0.28800052,-0.39787263,240.0
38.3,-33.722626,150.67407,0.34831685,15.150017,7.9664793,-0.0017952212,0.025527503,0.38138014,1.875261,2.0942247,0.32623973,0.26553375,0.021212967,0.34622514,0.25745273,-0.29394546,240.0
38.5,-33.722622,150.67409,0.33298144,15.431071,8.093627,-0.00089133356,0.023879316,0.38036102,1.883025,2.081409,0.23092969,0.13439098,0.010607003,0.3112934,0.29337606,-0.4431487,240.0
38.68,-33.72262,150.67409,0.31832927,15.844981,8.294879,0.001258454,0.019876674,0.3790495,1.9049776,2.088934,-0.10199744,-0.03361472,-0.0054325457,0.3273363,0.25731528,-0.29279214,240.0
38.8,-33.722614,150.67409,0.29243577,16.341654,8.543896,0.0037327767,0.012830944,0.3783466,1.9366412,2.1176307,-0.35708004,-0.39903903,-0.02657141,0.2993833,0.2412009,-0.15173459,240.0
39.0,-33.72261,150.67409,0.2779698,16.760422,8.7516165,0.00505945,0.011288469,0.3757764,1.9340677,2.1040835,0.1249575,0.07500356,-0.004608632,0.2925396,0.2547263,-0.059365213,240.0
39.1,-33.722607,150.67409,0.28022283,17.171595,8.965168,0.0067983842,0.010670385,0.37136415,1.928449,2.08246,-0.15042436,-0.074057154,-0.027969543,0.30245906,0.26799518,-0.3626499,240.0
39.272,-33.722607,150.67409,0.2869383,17.430258,9.100949,0.008230546,0.0090627335,0.36896345,1.9380827,2.0849614,-0.026872775,-0.17044507,-0.031302642,0.30554733,0.2590938,-0.12464981,240.0
39.452,-33.722603,150.67409,0.29806498,17.817354,9.297974,0.009615704,0.008930693,0.36430216,1.9339355,2.0648782,0.19603609,0.1001897,-0.011775406,0.3298342,0.25338522,-0.32853165,240.0
39.6,-33.7226,150.6741,0.30993673,18.249815,9.5045,0.010634368,0.008702161,0.36320794,1.9327279,2.048868,0.18251662,0.019716328,0.017299192,0.34077045,0.25653854,-0.004119911,240.0
39.7,-33.722595,150.6741,0.3283114,18.565456,9.653282,0.011610224,0.0074018505,0.3617378,1.9532272,2.0507417,0.046943616,0.014331377,-0.021657053,0.3254329,0.25362563,-0.17876726,240.0
39.9,-33.72259,150.6741,0.35218096,19.016518,9.852424,0.013581703,0.0034476866,0.35883108,1.9896457,2.055547,-0.10026087,-0.038115248,-0.0048288573,0.32172543,0.22300513,-0.325183,240.0
40.064,-33.722588,150.6741,0.3728469,19.385557,10.004073,0.013802369,0.0039545223,0.35628787,1.9982042,2.0343537,0.15676449,0.11275258,0.0017798492,0.32233536,0.23585655,-0.37689903,240.0
40.2,-33.722588,150.6741,0.38875538,19.635054,10.111048,0.013988942,0.0052396213,0.3544375,1.9914416,2.011016,-0.10369827,-0.025887035,-0.012056572,0.31252912,0.26491103,0.21809143,240.0
40.396,-33.72258,150.6741,0.40457487,20.106955,10.312357,0.014945898,0.0051276996,0.35319287,2.0014741,1.9984871,-0.0037581166,0.0677009,0.007928496,0.33509856,0.24200445,0.14512601,240.0
40.5,-33.722576,150.6741,0.40043873,20.508343,10.488075,0.015682185,0.004567056,0.35217032,2.0212934,1.9993609,0.04863458,-0.1855553,-0.03145587,0.34372064,0.24366918,0.37177706,240.0
40.6,-33.722576,150.6741,0.3929842,20.890675,10.664347,0.017442985,0.0025243699,0.34987825,2.0463858,2.0093646,-0.26192236,-0.29299304,-0.034308974,0.3083622,0.23060481,0.5795662,240.0
40.792,-33.722572,150.6741,0.38782537,21.162271,10.789768,0.017587487,0.0031059645,0.3487418,2.0471141,2.0066562,0.072069116,-0.06719206,-0.003063192,0.33499852,0.20725223,0.4030333,240.0
40.9,-33.72257,150.67412,0.38007843,21.622023,11.005201,0.01693664,0.00646702,0.34478927,2.0374079,1.9823636,0.01659061,-0.06563919,-0.0065726466,0.35264105,0.21470658,0.3574684,240.0
41.1,-33.722565,150.67412,0.37876093,21.850744,11.117894,0.016391149,0.009194674,0.3408582,2.0317123,1.9634309,0.16768502,0.22517473,-0.0087483255,0.44126627,0.14464322,0.32828367,240.0
41.2,-33.722565,150.67412,0.37291348,22.176924,11.26427,0.015553833,0.010827738,0.32990584,2.0603592,1.9341736,0.38979706,0.122320786,-0.09667218,0.3430463,0.24714042,0.1964783,240.0
41.384,-33.72256,150.67412,0.3586858,22.531193,11.401696,0.013938083,0.014017738,0.31726247,2.0868285,1.885109,-0.013650836,0.030024312,-0.07371601,0.32640466,0.2772217,0.053988423,240.0
41.5,-33.722557,150.67412,0.3564322,22.925678,11.5658455,0.012582055,0.017503163,0.3091776,2.1055584,1.8486527,-0.08424031,-0.04797151,-0.03698782,0.32027164,0.28907868,-0.0019861548,240.0
41.7,-33.722553,150.67412,0.3488766,23.185163,11.683988,0.0117484825,0.019755995,0.30715787,2.1115372,1.8365294,-0.10436529,-0.12845108,-0.03755378,0.32590607,0.293408,0.09323008,240.0
41.8,-33.72255,150.67412,0.34420753,23.521946,11.841657,0.012127763,0.020051328,0.30640092,2.1448598,1.8549652,-0.1318129,-0.14059111,-0.030411143,0.33832657,0.2561438,-0.09229193,240.0
41.98,-33.722546,150.67412,0.33515006,23.994577,12.057415,0.012801187,0.019865634,0.305959,2.1618776,1.8669435,-0.14076982,-0.2431274,-0.008442141,0.32649246,0.23551817,0.58238024,240.0
42.1,-33.72254,150.67412,0.3262276,24.431929,12.24257,0.010698366,0.023154002,0.30456495,2.1583495,1.8508773,0.1060219,0.034320645,0.00622062,0.33370146,0.24483708,0.4787835,240.0
42.264,-33.722538,150.67413,0.3256389,24.79291,12.390167,0.009768148,0.024528487,0.30363277,2.1668053,1.8425974,0.17976671,-0.00032722682,0.01755959,0.3327242,0.24297976,0.6170326,240.0
42.4,-33.722538,150.67413,0.32340875,25.110006,12.520872,0.008516147,0.026829896,0.30316722,2.1684682,1.832845,0.3780742,0.38469636,-0.010891529,0.33721095,0.24779278,0.5849598,240.0
42.572,-33.722534,150.67413,0.32189527,25.517862,12.687035,0.0064755627,0.030076593,0.30107856,2.1731474,1.8161618,0.09017862,0.13306062,-0.001218945,0.3378001,0.2519291,0.53089744,240.0
42.7,-33.72253,150.67413,0.33007455,25.914589,12.841729,0.0042889263,0.03266079,0.2990463,2.1814077,1.7973009,-0.10060865,-0.1463972,-0.028063305,0.3201481,0.27605295,0.31242818,240.0
42.88,-33.722527,150.67413,0.32929018,26.227285,12.976209,0.003154675,0.03520927,0.2980559,2.1825416,1.7906485,-0.1215111,-0.065158404,-0.033723716,0.31900662,0.28192824,0.26530498,240.0
43.0,-33.722523,150.67413,0.31517276,26.645344,13.169275,0.0031876864,0.036088053,0.29742733,2.1984735,1.806046,-0.0009170053,-0.12089172,-0.0037034557,0.31581253,0.26768607,0.1568769,240.0
43.168,-33.72252,150.67413,0.3002806,26.959558,13.303099,0.0019669037,0.037515845,0.29617321,2.2010005,1.8021666,-0.0027758866,-0.1727972,-0.029152445,0.31651536,0.26629278,0.0669944,240.0
43.32,-33.722515,150.67413,0.27949062,27.420122,13.491546,0.0019995293,0.037419505,0.29343584,2.2375462,1.817732,0.10205601,0.1208213,-0.0031417033,0.31078863,0.2352413,-0.19396806,240.0
43.496,-33.72251,150.67413,0.26356986,27.826277,13.652395,0.0015845773,0.03716999,0.2914148,2.2490697,1.8158032,0.017124597,-0.11178702,0.005335354,0.30534607,0.23672539,-0.13323013,240.0
43.6,-33.722507,150.67415,0.25259796,28.298859,13.828719,-0.0008349754,0.03966489,0.288592,2.2429018,1.7913741,0.24312304,0.02631596,0.0071541974,0.2873459,0.26914704,-0.016327277,240.0
43.7,-33.722504,150.67415,0.24925068,28.58351,13.930783,-0.0017465648,0.040575452,0.28781435,2.2409596,1.7788793,0.15951267,0.119705215,0.024409864,0.3273768,0.24351232,0.023592355,240.0
43.9,-33.722504,150.67415,0.23963687,28.854698,14.027728,-0.0021156708,0.040020365,0.28761247,2.2466552,1.7712362,-0.2332444,-0.16035981,-0.024973962,0.29852104,0.271917,0.32171378,240.0
44.092,-33.7225,150.67415,0.22401947,29.31346,14.193415,-0.0031699743,0.040859953,0.28775528,2.2478306,1.7596565,-0.1484821,-0.15659785,-0.026182882,0.30489284,0.27163702,0.35625377,240.0
44.2,-33.722496,150.67415,0.21303904,29.695402,14.33183,-0.003915538,0.04147301,0.28646058,2.254551,1.7511071,0.27251637,0.10097542,-0.011973547,0.30051258,0.2746831,0.10515663,240.0
44.3,-33.722492,150.67415,0.2001802,30.058031,14.462575,-0.004464209,0.041307323,0.28522885,2.253936,1.735579,-0.15991135,-0.16997495,-0.02609258,0.3052972,0.2765804,-0.03703359,240.0
44.488,-33.72249,150.67415,0.19429296,30.301268,14.560214,-0.004476965,0.041604377,0.2858553,2.2501688,1.7347121,0.3392268,0.262642,0.030397927,0.34690675,0.24260715,0.36256924,240.0
44.684,-33.722485,150.67415,0.18020532,30.704786,14.719252,-0.004489546,0.04129121,0.28498065,2.2406683,1.7223061,0.2128141,0.23144093,0.01396074,0.33763114,0.26634595,0.3888996,240.0
44.8,-33.722485,150.67415,0.14389732,31.094831,14.861818,-0.004716172,0.04029847,0.28387812,2.236459,1.707884,-0.1970756,-0.091727436,-0.02487845,0.3414935,0.2700808,0.7250371,240.0
44.9,-33.72248,150.67415,0.11465922,31.448088,14.991562,-0.0044700606,0.039433625,0.28508028,2.226396,1.7029002,0.31083053,0.1317484,0.032633808,0.37489316,0.25029913,0.87007934,240.0
45.1,-33.722477,150.67415,0.09297794,31.670565,15.075785,-0.004115569,0.03827083,0.28460154,2.2300735,1.697832,-0.131791,-0.09882126,-0.0259092,0.33993155,0.28432447,0.7379881,240.0
45.28,-33.722473,150.67416,0.04700145,32.257946,15.292249,-0.00085967313,0.032999992,0.28140238,2.2802305,1.7139151,0.002941495,0.12976868,-0.0066623758,0.30268413,0.26966769,0.55498844,240.0
45.4,-33.72247,150.67416,0.012329802,32.721596,15.467953,0.0007108627,0.029664416,0.2801484,2.28323,1.7102648,-0.3403693,-0.20639485,-0.010445407,0.32185322,0.24532515,0.32428253,240.0
45.5,-33.722466,150.67416,-0.005518198,33.052143,15.591534,0.0013517385,0.028256068,0.28000796,2.2750387,1.7017922,-0.27458993,-0.16997384,-0.026076235,0.31589934,0.2644104,0.42906013,240.0
45.7,-33.72246,150.67416,-0.020773724,33.345745,15.697851,0.0022474295,0.026658617,0.27927682,2.2846467,1.7007508,-0.018419264,-0.14235231,-0.03040945,0.3287943,0.24512653,0.43665004,240.0
45.872,-33.722458,150.67416,-0.03501264,33.83978,15.881352,0.00442032,0.023333134,0.27679622,2.2912292,1.6892116,-0.12379599,-0.17212959,-0.027949782,0.32384917,0.24575916,0.38752824,240.0
46.0,-33.722454,150.67416,-0.0508864,34.253315,16.03745,0.006083694,0.021419615,0.27565962,2.2854,1.6796918,0.28481928,0.1301378,0.016491743,0.32958284,0.2509894,0.36300704,240.0
46.16,-33.72245,150.67416,-0.07210454,34.55844,16.150911,0.00717113,0.019710572,0.2744669,2.2833712,1.6701566,0.3428366,0.27241746,0.007246462,0.33211783,0.25480112,0.39601418,240.0
46.3,-33.72245,150.67416,-0.08847077,34.9134,16.283854,0.00844153,0.017689157,0.2733189,2.2775571,1.6570613,-0.15940242,-0.108403765,-0.024934767,0.3372345,0.26072586,0.20292307,240.0
46.468,-33.722446,150.67416,-0.09977865,35.306755,16.421124,0.010781025,0.014888161,0.27155146,2.3001108,1.6585373,0.20093657,0.101531036,0.009189085,0.32508534,0.25251645,0.23042147,240.0
46.6,-33.722443,150.67418,-0.11699804,35.71587,16.562681,0.012784771,0.011779143,0.26984158,2.3066385,1.6466982,-0.21420555,-0.16175178,-0.031626422,0.303982,0.2737309,0.1623297,240.0
46.796,-33.72244,150.67418,-0.12327759,36.053123,16.682104,0.014075723,0.010552888,0.2680775,2.3082018,1.6350014,-0.1166235,-0.027160192,-0.021371046,0.31053483,0.27107096,0.12019991,240.0
46.9,-33.722435,150.67418,-0.12256259,36.476906,16.82955,0.016369602,0.008007286,0.26686934,2.3188772,1.6287702,-0.030971125,-0.14689054,-0.013223098,0.30701256,0.27052248,-0.07624132,240.0
47.0,-33.72243,150.67418,-0.11862691,36.787052,16.93437,0.017424354,0.007023668,0.2651729,2.3182118,1.6147093,-0.04378982,-0.13837051,-0.034586065,0.30012196,0.2842893,0.023656465,240.0
47.192,-33.722427,150.67418,-0.1051221,37.03748,17.016975,0.018212177,0.0066823694,0.2644499,2.316551,1.6060696,0.29140785,0.14360575,0.02003861,0.33545175,0.254894,0.014919119,240.0
47.392,-33.722424,150.67418,-0.06797172,37.471756,17.16104,0.019750306,0.0059848223,0.26246884,2.3210943,1.59207,0.28010398,0.10775617,0.014924476,0.322143,0.2719042,-0.52788067,240.0
47.5,-33.722424,150.67418,-0.029713348,37.878258,17.300213,0.021296497,0.00482566,0.26058662,2.3274674,1.5805591,-0.095713325,-0.016147722,-0.034856554,0.32387844,0.2771177,-0.37652805,240.0
47.6,-33.72242,150.67418,-0.01122351,38.28117,17.440762,0.023473356,0.0036300265,0.25956675,2.347528,1.588283,0.30061117,0.11260006,0.02237206,0.3122861,0.26680532,-0.39195988,240.0
47.788,-33.722416,150.67418,0.0022004545,38.530334,17.526215,0.024195665,0.0028211991,0.25841263,2.346043,1.5790541,-0.23559593,-0.12565576,-0.032715622,0.29311916,0.28713265,-0.46712393,240.0
47.96,-33.722412,150.67418,0.0349337,38.970547,17.680384,0.024901818,0.0030536721,0.25852373,2.3437307,1.5741873,0.08028902,-0.17472617,-0.020365136,0.30920544,0.27542397,-0.27868563,240.0
48.1,-33.72241,150.67418,0.0643246,39.34272,17.80578,0.025104498,0.003971538,0.2584814,2.337509,1.5629419,0.052873816,0.090478316,-0.0005888089,0.32894808,0.26194507,-0.27981,240.0
48.2,-33.722404,150.6742,0.10736218,39.807243,17.960707,0.026056394,0.003217722,0.25517562,2.3634365,1.5539863,-0.1677122,-0.11893369,-0.04661431,0.30627477,0.27833843,-0.6474026,240.0
48.38,-33.7224,150.6742,0.13106757,40.10469,18.056467,0.028070133,0.001631318,0.2520424,2.4008837,1.5595902,0.21510956,-0.021358287,0.006871738,0.29060486,0.25405726,-0.54590094,240.0
48.556,-33.722397,150.6742,0.17073485,40.60731,18.221954,0.028635584,0.0018740179,0.25098476,2.4010708,1.5494864,0.05066226,0.03242182,0.022682765,0.30922645,0.24059361,-0.4842267,240.0
48.7,-33.722393,150.6742,0.19693688,41.091248,18.382036,0.029668737,0.0015823434,0.2489445,2.4331608,1.5514483,-0.31759226,-0.25506645,-0.025303746,0.2861776,0.24387659,-0.4888346,240.0
48.8,-33.72239,150.6742,0.21925122,41.581707,18.546507,0.030276584,0.0018887105,0.24836688,2.4386582,1.5518966,0.09096798,-0.07092065,0.021980697,0.28152436,0.23828237,-0.068699196,240.0
48.976,-33.722385,150.6742,0.23381963,41.83901,18.633448,0.029561754,0.0032165232,0.24784414,2.431702,1.5438077,-0.18563238,-0.054643538,-0.01713388,0.28963056,0.23721406,-0.12898673,240.0
49.172,-33.72238,150.6742,0.26426166,42.258057,18.768902,0.027570384,0.0062310784,0.24720703,2.4216418,1.5292169,0.037385575,-0.100115284,-0.016500548,0.30073738,0.24202381,-0.13728102,240.0
49.3,-33.722378,150.6742,0.28900686,42.682396,18.895014,0.025252098,0.009473442,0.2463215,2.4213476,1.5129116,0.3881394,0.05051312,0.0032490385,0.2892013,0.267001,-0.08264183,240.0
49.4,-33.722374,150.6742,0.3078998,43.06739,19.006939,0.023569554,0.012071435,0.24548896,2.42437,1.4985597,-0.0036792546,0.035285745,-0.01667701,0.30782825,0.24773605,-0.20006849,240.0
49.592,-33.722374,150.6742,0.31473616,43.291428,19.076038,0.022396505,0.014032657,0.24545802,2.4257011,1.495427,0.06256287,-0.023990268,-0.010896339,0.3108076,0.245296,-0.50764775,240.0
49.768,-33.72237,150.6742,0.33507916,43.752342,19.21953,0.020382848,0.017222,0.24233414,2.4389083,1.4835528,0.0672582,-0.12604414,-0.047938515,0.31176847,0.25152224,-0.68003476,240.0
49.9,-33.722366,150.67421,0.35725278,44.21157,19.369385,0.020939535,0.017909855,0.23718268,2.4753768,1.4865336,0.09763061,0.031820692,-0.008580503,0.27700964,0.2444732,-0.8965124,240.0
50.0,-33.722363,150.67421,0.36500823,44.562195,19.492538,0.019657709,0.020006869,0.23487683,2.4748263,1.4840689,0.08095791,-0.121092364,-0.004085659,0.27726093,0.24578735,-0.76927936,240.0
50.2,-33.72236,150.67421,0.36654848,44.85892,19.593641,0.017882338,0.02228532,0.23381105,2.4667656,1.4791129,-0.0895291,0.025695246,0.0011331486,0.284176,0.2492826,-0.6922884,240.0
50.3,-33.722355,150.67421,0.36812174,45.34738,19.751038,0.015461408,0.024873465,0.23230527,2.468179,1.4767501,-0.09226277,0.02624848,-0.015822286,0.28765386,0.24876852,-0.4663962,240.0
50.492,-33.72235,150.67421,0.36938512,45.6486,19.841726,0.01359558,0.026590629,0.2317105,2.4662437,1.4709833,-0.19269806,-0.05199937,-0.027003186,0.2764371,0.2639609,-0.4964196,240.0
50.6,-33.722347,150.67421,0.37774062,46.096443,19.983427,0.010530527,0.02983764,0.23024318,2.4584777,1.4596373,-0.15838535,-0.078251295,-0.033699565,0.2825244,0.2719329,-0.20050596,240.0
50.8,-33.722347,150.67421,0.38293558,46.365868,20.063988,0.00882737,0.031351384,0.22944573,2.4569833,1.4534266,0.016061038,-0.07946645,-0.02210337,0.2933482,0.26643372,-0.037485577,240.0
50.9,-33.722343,150.67421,0.39439237,46.71903,20.172306,0.006576815,0.0336518,0.22835566,2.4511468,1.4432355,0.07645157,0.1141099,0.0072221374,0.3115431,0.25270176,-0.28587142,240.0
51.088,-33.72234,150.67421,0.3967871,47.059334,20.288992,0.0049274294,0.035550103,0.22735439,2.462367,1.4469087,0.38420063,0.1070114,0.00026142047,0.31470472,0.24623877,-0.27507412,240.0
51.2,-33.722336,150.67421,0.3941043,47.508957,20.44572,0.0032744491,0.03713315,0.22340705,2.4687626,1.4405837,0.2083932,0.016606793,0.0032154538,0.31345508,0.24759045,-0.3082119,240.0
51.4,-33.722332,150.67421,0.38823992,47.78098,20.537848,0.0018899892,0.03798294,0.22100674,2.4663384,1.4318147,-0.009522706,0.074350595,-0.0066450224,0.3162761,0.2525421,-0.36461142,240.0
51.5,-33.72233,150.67421,0.37826556,48.182503,20.672075,0.00010669563,0.038475074,0.21699075,2.4711585,1.4194444,0.14345875,-0.19966671,-0.042118777,0.3014211,0.26934093,-0.48445725,240.0
51.68,-33.722324,150.67422,0.35765088,48.54413,20.7904,-0.00028923104,0.038484354,0.21419352,2.4938295,1.419806,-0.20273682,-0.09691895,-0.02644053,0.2898513,0.26407957,-0.39194512,240.0
51.8,-33.72232,150.67422,0.3338356,49.06046,20.954659,9.02328e-06,0.037053593,0.21133201,2.5109258,1.4193145,-0.300035,-0.14160232,-0.03364379,0.2820691,0.25825715,-0.38307387,240.0
52.0,-33.722317,150.67422,0.30689856,49.35043,21.040516,-0.0011475104,0.03732426,0.21049917,2.503781,1.4144007,-0.075386174,-0.10543462,-0.035129357,0.29046372,0.2595192,-0.14744285,240.0
52.1,-33.722313,150.67422,0.26749703,49.83375,21.18324,-0.0024220052,0.037166048,0.20800234,2.4996073,1.4006007,-0.019820936,-0.11231245,-0.03699717,0.3222658,0.24575134,-0.057837073,240.0
52.276,-33.722313,150.67422,0.25365812,50.126938,21.277061,-0.0020080924,0.03667727,0.20596762,2.5080519,1.3999752,0.37454978,0.25139707,-0.0070968275,0.31931883,0.23540789,0.23983744,240.0
52.4,-33.72231,150.67422,0.24282718,50.604748,21.424961,-0.00073035865,0.03431421,0.20087868,2.5371425,1.3945003,0.0141737005,0.09160547,-0.022928085,0.29125813,0.24068817,0.13902877,240.0
52.6,-33.7223,150.67422,0.23475191,51.077274,21.555244,0.00052218547,0.0308287,0.19553111,2.561098,1.3818556,-0.19356315,-0.16298068,-0.034075916,0.29079524,0.22795221,0.07374469,240.0
52.7,-33.722298,150.67422,0.21984601,51.535576,21.682302,0.0005473597,0.030057196,0.193117,2.54589,1.3630664,0.115142494,-0.054221634,-0.0035656865,0.30283275,0.23412153,-0.05087064,240.0
52.868,-33.722298,150.67422,0.20469493,51.778336,21.745869,0.0006922721,0.029275214,0.19136351,2.5392778,1.3492186,0.02989611,0.09445666,-0.010608473,0.3096892,0.24071547,0.3202633,240.0
53.068,-33.722294,150.67422,0.19119933,52.221313,21.86572,0.0018449902,0.026720231,0.18877748,2.545844,1.3344674,-0.22191833,-0.07968663,-0.020562699,0.29505664,0.25236565,0.24351847,240.0
53.2,-33.72229,150.67422,0.18538457,52.654392,21.983644,0.0032613387,0.024611548,0.1864924,2.54565,1.3197336,0.054741565,-0.07091337,-0.03778041,0.32408202,0.23557045,0.25976405,240.0
53.3,-33.722286,150.67422,0.17150527,53.05729,22.08935,0.005681739,0.020967051,0.18272601,2.586502,1.3155098,-0.2510194,-0.11458078,-0.016905721,-1.0,-1.0,0.24247484,240.0
53.5,-33.722282,150.67422,0.15550244,53.349358,22.174332,0.007693816,0.018698204,0.18253455,2.3461618,1.2237926,-2.357319,-0.9037823,0.012596035,-1.0,-1.0,0.43123046,240.0
53.6,-33.72228,150.67424,0.13572717,53.66548,22.269445,0.009365074,0.012940641,0.1858726,2.0385466,1.1110885,-1.8441787,-0.7299812,0.025701253,-0.9711642,-1.0,0.43744874,240.0
53.792,-33.72228,150.67424,0.12175146,53.92355,22.345152,0.009806127,0.0124287475,0.20412657,2.1408126,1.2021271,3.6557565,1.5314131,0.3186941,-0.61756706,-1.0,0.3861739,240.0
53.9,-33.722275,150.67424,0.104150325,54.24884,22.430176,0.011259603,0.009650531,0.24507552,1.7635881,1.0971717,-1.4281102,-0.76205343,0.12473533,-1.0,1.0,0.19110137,240.0
54.1,-33.722275,150.67424,0.10433307,54.422905,22.469397,0.012035722,0.013947536,0.2769992,2.002137,1.3196371,3.1166441,2.2515848,0.45535374,-0.45357555,-1.0,0.15617132,240.0
54.2,-33.72227,150.67424,0.107450366,54.66429,22.53529,0.01372813,0.0062566902,0.3288655,1.7303505,1.2595131,-1.4675378,-1.1245147,0.22613682,-0.6718688,-1.0,0.08262968,240.0
54.388,-33.722267,150.67424,0.12142417,54.88846,22.605555,0.014246003,0.0021871987,0.3664658,1.806057,1.4525535,2.6201458,2.2277606,0.36191425,-0.5657029,-1.0,0.19546159,240.0
54.5,-33.722267,150.67424,0.124875546,55.198986,22.707047,0.015142749,0.0035498438,0.421008,1.7138379,1.574479,2.1697624,2.4038787,0.38596857,-0.534868,-1.0,-0.035584837,240.0
54.6,-33.722263,150.67424,0.12783265,55.411304,22.775625,0.015782326,0.0019700765,0.46171063,1.5215493,1.4985176,-1.2065202,-1.4470551,0.23981443,-1.0,1.0,-0.02328359,240.0
54.8,-33.722263,150.67424,0.13315496,55.600655,22.84048,0.015963782,-0.00449689,0.5026834,1.6094925,1.8333436,1.9899223,3.004005,0.47352555,-0.39910865,-1.0,0.067436196,240.0
54.98,-33.72226,150.67424,0.13535741,55.971287,22.97343,0.01597312,-0.0017916246,0.5711729,1.4369417,1.9486042,-1.1282732,-2.0556386,0.38177702,-0.49510378,-1.0,0.011684817,240.0
55.1,-33.722256,150.67424,0.13975719,56.321915,23.115156,0.016997185,-0.007156081,0.62332076,1.2654182,1.9793736,1.3538164,3.7066598,0.37418753,-1.0,1.0,0.03766398,240.0
55.232,-33.72225,150.67424,0.15184164,56.605312,23.235636,0.018458111,-0.00994994,0.66675985,1.1543033,2.010017,-0.65563023,-1.8465685,0.29219198,-0.64936966,-1.0,-0.4300435,240.0
55.4,-33.72225,150.67424,0.16163802,56.88344,23.348333,0.018087136,-0.018059054,0.6962893,1.060517,2.0550075,0.5993822,3.5630922,0.24302979,-1.0,1.0,-0.11357812,240.0
55.576,-33.722248,150.67424,0.1939089,57.249588,23.511295,0.016562274,-0.009470287,0.7667025,0.8756683,2.2330806,-0.34467128,-1.8837538,0.3064107,-0.6323071,-0.99999994,0.10870944,240.0
55.7,-33.722244,150.67426,0.23142943,57.594414,23.664274,0.016467374,-0.020975173,0.80698097,0.7281212,2.2801514,-0.76090205,3.3649135,0.33280128,-0.6006384,-1.0,0.05404172,240.0
55.884,-33.72224,150.67426,0.26742846,57.962418,23.824846,0.019391967,-0.024280988,0.84748733,0.6283518,2.3513043,-0.0053051603,-1.8087771,0.25334218,-0.6959894,-1.0,0.2032189,240.0
56.0,-33.722237,150.67426,0.30928493,58.36329,24.000402,0.022099948,-0.02666582,0.8768641,0.53135157,2.4452312,-1.1619831,4.6325364,0.37353146,-1.0,1.0,0.024518704,240.0
56.168,-33.722233,150.67426,0.33703762,58.71369,24.186886,0.019615095,-0.027154505,0.934444,0.33523268,2.567701,0.20304583,-1.6003963,0.3124161,-0.6251006,-1.0,-0.16947962,240.0
56.3,-33.72223,150.67426,0.37061733,59.09423,24.398493,0.019486833,-0.030317353,0.9704955,0.17711493,2.6258163,-2.0980198,3.796515,0.2975927,-0.6428888,-1.0,-0.22540137,240.0
56.5,-33.72223,150.67426,0.38473886,59.3727,24.586359,0.01896106,-0.026942533,1.0122616,0.047563482,2.550492,0.3094567,-1.2907124,0.21476185,-0.7371649,-1.0,-0.25996774,240.0
56.6,-33.722225,150.67426,0.39440054,59.647747,24.78374,0.013719489,-0.015730621,1.0553172,-0.26150814,2.6618826,-2.2142663,3.0699477,0.42091903,-0.5597908,-1.0,-0.48292592,240.0
56.7,-33.722225,150.67426,0.39730138,59.807056,24.92311,0.011789348,-0.0091563435,1.0974139,-0.36601683,2.513074,0.546257,-1.3352338,0.2693555,-0.6767733,-1.0,-0.19986941,240.0
56.9,-33.722225,150.67427,0.3951515,59.92626,25.024153,0.010234723,-0.012187574,1.1205261,-0.36764205,2.3269088,0.54211044,-1.2715472,0.16684616,-1.0,1.0,-0.30200016,240.0
57.092,-33.72222,150.67427,0.4043557,60.204556,25.300186,0.010601121,-0.0036661993,1.1865511,-0.7924301,2.423617,0.86385745,-1.2244247,0.26729804,-0.65130466,-1.0,-0.45043957,240.0
57.2,-33.722218,150.67427,0.4134509,60.459293,25.563707,0.014560165,-0.009980224,1.2224306,-0.99050415,2.3878698,-3.254316,2.2290037,0.325583,-1.0,1.0,-0.28543672,240.0
57.3,-33.722218,150.67427,0.42990696,60.653336,25.81312,0.013269259,-0.0044943336,1.2792561,-1.1793652,2.2556942,1.0238353,-1.1309879,0.28457713,-0.6585074,-0.99999994,-0.2611416,240.0
57.488,-33.722218,150.67427,0.43961203,60.761497,25.944307,0.011336091,0.0006218097,1.304345,-1.1295439,2.082683,0.8838608,-0.97250015,0.1764535,-1.0,0.5140076,-0.48492262,240.0
57.688,-33.722214,150.67427,0.4429962,60.9588,26.212194,0.009466636,0.011034849,1.355494,-1.3657055,1.927895,0.37948507,-0.5961945,0.26160404,-1.0,0.07746959,-0.23084593,240.0
57.8,-33.722214,150.67429,0.4396969,61.10372,26.43088,0.010303894,0.012638746,1.388593,-1.4472697,1.7619886,-3.9307795,0.7774738,0.20138757,-0.010085881,1.0,-0.42686337,240.0
57.9,-33.72221,150.67429,0.43449634,61.238518,26.704216,0.011754456,0.021504227,1.451289,-2.2755237,1.7457155,-5.0182095,0.82459384,0.477614,0.3163572,0.5332368,-0.18925372,240.0
58.084,-33.72221,150.67429,0.43932116,61.32503,26.925087,0.013098457,0.023085255,1.4907825,-2.5327654,1.6187152,-1.3666946,-0.32152164,0.33137298,0.28083456,0.3622694,-0.27494854,240.0
58.28,-33.72221,150.67429,0.4426905,61.49151,27.399895,0.014727843,0.024662461,1.5383393,-2.7209177,1.3606889,-0.5054248,-0.56954664,0.18247995,0.31524846,0.28299323,-0.089896336,240.0
58.4,-33.72221,150.67429,0.44519812,61.621876,27.803074,0.01543987,0.028241672,1.5602108,-2.7841504,1.1824865,-0.23584844,-0.48283476,0.06754433,0.33702746,0.2616832,0.12332239,240.0
58.5,-33.722206,150.6743,0.44242746,61.743797,28.18255,0.015968021,0.031664897,1.571231,-2.8031664,1.041605,-0.1366638,-0.50613064,0.055745013,0.34552035,0.25468615,0.20603238,240.0
58.676,-33.722206,150.6743,0.43809658,61.8278,28.44614,0.017282194,0.031721115,1.5748761,-2.835747,0.9796898,-0.16631591,-0.4198887,0.017569387,0.30350012,0.27139515,0.52217686,240.0
58.876,-33.722206,150.6743,0.43007505,61.99767,29.019392,0.01973417,0.03224366,1.5776776,-2.868254,0.87673277,0.17459472,-0.43501842,0.012124197,0.2954517,0.25057465,0.42280883,240.0
59.0,-33.722202,150.67432,0.42180055,62.106487,29.482918,0.020012895,0.034659784,1.5832487,-2.8680725,0.7746265,-0.10111381,-0.34349507,0.026855007,0.31109437,0.24330549,0.27880234,240.0
59.1,-33.722202,150.67432,0.41622162,62.173286,29.836855,0.019698631,0.036186162,1.5866904,-2.8532138,0.6925585,0.029183876,-0.35328647,0.008905554,0.30939364,0.2643696,0.19429223,240.0
59.3,-33.722202,150.67432,0.41323954,62.217297,30.109198,0.018802062,0.038979474,1.590094,-2.833193,0.62234896,-0.32439595,-0.34597617,0.009799835,0.34234172,0.25426728,0.28740743,240.0
59.468,-33.722202,150.67432,0.39919537,62.305225,30.596952,0.019258624,0.039751697,1.5917922,-2.8546295,0.5461397,-0.28966254,-0.32095307,0.014980332,0.31492686,0.26312697,0.15083188,240.0
59.6,-33.722202,150.67433,0.38419753,62.385548,31.05914,0.019657925,0.039428778,1.5928063,-2.8561077,0.48684686,-0.11061055,-0.19036311,0.008415439,0.30578768,0.26663375,0.3699414,240.0
59.78,-33.722202,150.67433,0.3807649,62.438377,31.384623,0.018623956,0.040668927,1.5951859,-2.8423629,0.43875486,0.21842587,-0.1137603,0.025750484,0.3307113,0.25638908,0.3352939,240.0
59.9,-33.7222,150.67433,0.37770742,62.502094,31.749971,0.017121993,0.04129158,1.5979747,-2.8250358,0.3865327,-0.15694386,-0.23007092,0.013632495,0.3220244,0.27701336,0.46990684,240.0
60.0,-33.7222,150.67435,0.36119223,62.557285,32.118103,0.01599673,0.04151604,1.5994842,-2.8155231,0.34243304,0.16297841,-0.519601,-0.008294729,0.32958505,0.2819518,0.31485763,240.0
60.196,-33.7222,150.67435,0.3444578,62.59066,32.37703,0.015520669,0.041493315,1.6000257,-2.8179038,0.31579068,-0.15290602,-0.18445162,-0.0064184237,0.32527566,0.28529036,0.12971763,240.0
60.348,-33.7222,150.67435,0.30974197,62.651672,32.890198,0.015285674,0.040065173,1.5994688,-2.8502553,0.2778098,-0.17637043,-0.16479576,-0.002651433,0.29672724,0.27858454,-0.21163552,240.0
60.5,-33.7222,150.67435,0.29095352,62.695892,33.253784,0.01466119,0.03884763,1.5989907,-2.8519988,0.25715363,0.00138618,-0.15185519,-0.016061218,0.290247,0.28709587,-0.47491887,240.0
60.6,-33.7222,150.67436,0.26310956,62.778187,33.851067,0.015522338,0.035068337,1.6032656,-2.908154,0.23306647,0.079536,-0.16981663,0.009366942,0.26342553,0.25551575,-0.24180242,240.0
60.788,-33.7222,150.67436,0.25562337,62.81519,34.19942,0.014721009,0.033623777,1.6045125,-2.8977995,0.21530816,0.25727734,-0.16852914,0.007863597,0.26689464,0.25972897,-0.024253402,240.0
60.9,-33.7222,150.67436,0.25724006,62.85695,34.71748,0.012158529,0.033032343,1.6065567,-2.87231,0.17840992,0.21698675,-0.101694115,0.01500071,0.2788561,0.27216583,-0.16775148,240.0
61.1,-33.7222,150.67438,0.25616968,62.87779,35.007515,0.010633462,0.03225801,1.608702,-2.8613977,0.15362377,0.13488568,-0.1441388,0.0053124866,0.2883403,0.2732865,0.21949328,240.0
61.2,-33.7222,150.67438,0.24807703,62.91029,35.47389,0.008432798,0.030447017,1.610687,-2.8534179,0.118403345,0.017488563,-0.08019382,-0.012300608,0.29259026,0.275769,-0.098384485,240.0
61.384,-33.722195,150.67438,0.2505747,62.926456,35.77655,0.006838738,0.029400418,1.6116571,-2.847499,0.09702592,-0.043010227,-0.098840535,-0.004865078,0.29453355,0.27790076,-0.02741361,240.0
61.5,-33.722195,150.67438,0.25749782,62.949608,36.224194,0.0045445063,0.027659062,1.612893,-2.8400047,0.06720527,-0.23566306,-0.12908936,0.012408396,0.296217,0.28157458,-0.04025684,240.0
61.7,-33.722195,150.6744,0.26009727,62.977146,36.577236,0.003656911,0.025283307,1.6169703,-2.8706234,0.045438644,-0.27297926,-0.12711318,0.00095072336,0.29027474,0.2571206,0.109346114,240.0
61.8,-33.722195,150.6744,0.26044908,63.01961,37.15313,0.0028135353,0.020856338,1.6215223,-2.898278,0.019948376,-0.026954083,-0.12770836,-0.004545022,0.27419445,0.24674812,-0.12630557,240.0
61.976,-33.722195,150.6744,0.26587668,63.033016,37.496887,0.0013863647,0.019670757,1.6191335,-2.8879852,0.012724177,0.013232058,-0.14078301,-0.0008406874,0.27550703,0.25193673,0.20311052,240.0
62.128,-33.722195,150.67441,0.27022812,63.055264,37.946346,-0.0010269665,0.01760529,1.6169269,-2.8735833,0.005025816,0.22845972,-0.24394406,-0.0028801553,0.266959,0.27247912,-0.39934188,240.0
62.3,-33.722195,150.67441,0.27530345,63.077217,38.318115,-0.002445836,0.015635481,1.6188982,-2.8787591,-0.0077103856,-0.01931721,0.21369006,0.008960654,0.26588625,0.26738662,-0.38467997,240.0
62.4,-33.722195,150.67441,0.28457925,63.1045,38.833675,-0.0044627567,0.0132960575,1.6189611,-2.8730469,-0.0220455,0.015437017,-0.13632315,0.011581449,0.2605397,0.2723214,-0.1386761,240.0
62.572,-33.722195,150.67441,0.286872,63.119,39.086735,-0.0055493475,0.011875854,1.619514,-2.8729184,-0.03062771,-0.03571599,-0.038860623,-0.0025941115,0.25847512,0.2787128,-0.19725871,240.0
62.744,-33.722195,150.67442,0.30135143,63.13565,39.52968,-0.007470238,0.01093222,1.6185743,-2.8555045,-0.044364564,-0.24414392,-0.0832045,0.025061278,0.2718329,0.2805287,-0.3894736,240.0
62.9,-33.722195,150.67442,0.31516576,63.16185,40.00056,-0.00923157,0.00905571,1.6231563,-2.8572533,-0.06661175,-0.22067235,-0.07850595,0.02023939,0.25955167,0.2935917,-0.31232142,240.0
63.0,-33.722195,150.67442,0.31442347,63.18312,40.36673,-0.0102277575,0.006971573,1.6285675,-2.8573985,-0.08496802,-0.035704188,-0.028615696,0.0047205077,0.2779671,0.27254558,-0.38790774,240.0
63.2,-33.722195,150.67444,0.3104857,63.193787,40.61138,-0.011041158,0.006763584,1.6290146,-2.8494668,-0.09000495,-0.06509984,-0.13084187,0.014661081,0.2794423,0.2784251,-0.2341228,240.0
63.3,-33.722195,150.67444,0.308,63.21448,41.070408,-0.012163857,0.005286446,1.6301526,-2.8556292,-0.10009702,0.11413249,-0.17344584,-0.013721477,0.27284878,0.2796108,-0.41005418,240.0
63.496,-33.722195,150.67444,0.32321462,63.226917,41.39109,-0.0128952935,0.004559016,1.6295891,-2.8462074,-0.10405117,0.06267456,-0.1712683,-0.00335066,0.26975447,0.289764,-0.5440721,240.0
63.6,-33.722195,150.67444,0.35020614,63.243893,41.866585,-0.013800627,0.0043735374,1.6280446,-2.8341312,-0.10745955,-0.010899487,-0.00019752045,0.002365588,0.26120126,0.3051052,-0.5379956,240.0
63.8,-33.722195,150.67445,0.36294776,63.253437,42.127495,-0.014163585,0.004084957,1.6294308,-2.8358269,-0.11588803,-0.120836936,-0.015121228,0.0024934,0.2615522,0.30656672,-0.4381291,240.0
63.9,-33.722195,150.67445,0.38477135,63.265354,42.45971,-0.014612862,0.004227666,1.6311696,-2.8264458,-0.12451527,0.05499814,-0.009385877,0.008016029,0.28510574,0.28795204,-0.36657825,240.0
64.088,-33.722195,150.67445,0.40322268,63.279247,42.89035,-0.014873172,0.0042155925,1.635427,-2.8299115,-0.14427729,-0.23828898,-0.05367906,0.024527648,0.2965341,0.27836356,-0.14338021,240.0
64.2,-33.722195,150.67447,0.43670434,63.29127,43.38303,-0.014694858,0.0043954505,1.6405723,-2.8280785,-0.16560717,-0.15109497,-0.04107859,0.008404083,0.28365055,0.2902691,0.025648985,240.0
64.3,-33.722195,150.67447,0.462031,63.29613,43.692287,-0.014574323,0.005344087,1.6399509,-2.8176947,-0.1696717,-0.1697694,-0.08627549,0.022447638,0.295514,0.2881732,-0.027310207,240.0
64.5,-33.722195,150.67447,0.48357177,63.30175,43.960854,-0.014340449,0.0056799822,1.639827,-2.814855,-0.17417552,0.019338764,0.007070668,0.016194366,0.27778426,0.30735347,0.29697457,240.0
64.684,-33.722195,150.67447,0.5128055,63.314648,44.434597,-0.013800499,0.0073021865,1.6421081,-2.8008475,-0.18847466,0.1584608,0.0719958,0.03397487,0.282084,0.31303084,0.10099773,240.0
64.8,-33.722195,150.67448,0.55455023,63.32809,44.883186,-0.013184331,0.00884989,1.6448584,-2.7872767,-0.20372798,0.049922384,-0.09335514,0.024031634,0.31169075,0.29876298,0.03381483,240.0
64.9,-33.722195,150.67448,0.5812,63.331146,45.175297,-0.01260206,0.010349163,1.6466457,-2.7855666,-0.2150372,0.19165432,-0.21780504,0.005598729,0.29316318,0.31890106,0.32527825,240.0
65.1,-33.72219,150.67448,0.5965015,63.336277,45.414642,-0.0119771315,0.011360389,1.6487845,-2.7832005,-0.22757897,-0.24025771,-0.08433778,0.024545325,0.31132692,0.3022079,0.53508,240.0
65.276,-33.72219,150.67448,0.6273707,63.347336,46.029438,-0.0102634635,0.010567742,1.6620755,-2.8279839,-0.2762196,0.1724462,0.024873774,-0.003902945,0.32157978,0.25274852,0.66482824,240.0
65.4,-33.72219,150.6745,0.6343583,63.359833,46.537075,-0.0089408,0.011815176,1.6638075,-2.832896,-0.2854467,-0.062145125,-0.09112455,-0.013968514,0.30352393,0.2602708,0.63258666,240.0
65.5,-33.72219,150.6745,0.6392105,63.366104,46.899914,-0.007919216,0.013643973,1.6610177,-2.8236277,-0.27928805,-0.061571572,-0.07223268,-0.005809169,0.28810334,0.28332484,0.4740052,240.0
65.7,-33.72219,150.6745,0.64230716,63.37295,47.223164,-0.006907396,0.015542534,1.6586564,-2.8120847,-0.27441537,-0.079244524,-0.111415565,0.009635664,0.2785505,0.3037076,0.33232012,240.0
65.872,-33.72219,150.67451,0.63959986,63.383575,47.709282,-0.005219242,0.01819817,1.6598244,-2.80609,-0.28265712,-0.12291752,-0.13016118,0.038770776,0.2717547,0.31618324,0.26297215,240.0
66.0,-33.72219,150.67451,0.64150655,63.38952,48.14824,-0.0036121013,0.020008957,1.6648616,-2.8056824,-0.30227706,0.06574358,0.010829702,0.020977935,0.2918509,0.29588702,0.11763159,240.0
66.18,-33.72219,150.67451,0.6409832,63.393883,48.50757,-0.0023820156,0.021761706,1.6686184,-2.7973647,-0.3180771,0.11744558,-0.049188644,0.031536013,0.30666444,0.2882785,0.46753904,240.0
66.3,-33.72219,150.67451,0.6394354,63.390484,48.94609,-0.0009919768,0.022803424,1.6762975,-2.830601,-0.350632,-0.1701012,-0.113926105,0.031821176,0.28658888,0.28528038,0.5621711,240.0
66.464,-33.72219,150.67453,0.6400759,63.381725,49.41377,0.0004785834,0.02294105,1.682153,-2.8370225,-0.3752413,0.25227624,0.037547547,-0.0048264824,0.29487073,0.25657248,0.79532236,240.0
66.596,-33.72219,150.67453,0.6363955,63.379898,49.711777,0.0014209341,0.024353579,1.6824169,-2.828223,-0.37955073,-0.021407912,-0.065239474,0.01808415,0.29284388,0.2665866,0.6892926,240.0
66.772,-33.72219,150.67453,0.61554927,63.365883,50.26682,0.003345919,0.02698954,1.6837411,-2.820424,-0.39451316,-0.09196094,-0.028943643,0.015314822,0.28707987,0.27778035,0.8566841,240.0
66.9,-33.72219,150.67455,0.60197747,63.357044,50.62037,0.0044715153,0.028048787,1.6869016,-2.8228347,-0.41109836,0.011513511,0.0035081084,0.01718367,0.30700523,0.25317627,0.73290676,240.0
67.0,-33.72219,150.67455,0.58723587,63.342316,51.04373,0.005787112,0.030600164,1.686462,-2.8049076,-0.41776103,-0.19098237,-0.12892592,0.021033878,0.28661287,0.28511167,0.62371576,240.0
67.192,-33.722195,150.67455,0.57925236,63.329227,51.320705,0.006583044,0.03161782,1.6857753,-2.799075,-0.42137694,-0.04994413,0.16523325,-0.004398135,0.28009632,0.30126914,0.3233616,240.0
67.3,-33.722195,150.67455,0.5812948,63.307667,51.771442,0.008026092,0.033636414,1.6885111,-2.7838306,-0.44273224,0.008040232,-0.15628731,0.023487566,0.3003939,0.292316,0.43300182,240.0
67.5,-33.722195,150.67456,0.57547754,63.294216,52.05788,0.008826973,0.034742553,1.6916497,-2.7741473,-0.45762601,0.07076565,-0.13598822,0.016806222,0.29541302,0.30469096,0.8239381,240.0
67.6,-33.722195,150.67456,0.5584087,63.267834,52.448162,0.009636488,0.03548428,1.69677,-2.778152,-0.4885084,-0.17149764,-0.13901891,0.039917238,0.29925686,0.29255277,0.7568632,240.0
67.784,-33.722195,150.67456,0.543567,63.246227,52.82301,0.010156431,0.035418022,1.7002045,-2.7764552,-0.50818676,-0.104870275,-0.03284662,0.025804508,0.32114092,0.26800272,0.8029351,240.0
67.9,-33.722195,150.67458,0.54132694,63.215076,53.295788,0.010629146,0.03642864,1.7001214,-2.7705243,-0.51859933,-0.12446378,-0.046790395,0.008301191,0.2975732,0.29462695,0.6003953,240.0
68.1,-33.722195,150.67458,0.53475416,63.20384,53.57759,0.010756266,0.037087746,1.7002041,-2.7623205,-0.5214977,-0.19602376,-0.13495062,0.02474739,0.30717584,0.29226747,0.58066535,240.0
68.2,-33.722195,150.67458,0.52054775,63.18892,54.03696,0.010454759,0.034853276,1.7057467,-2.7941678,-0.54616445,0.118226714,0.042449847,0.019599395,0.2812122,0.29572415,0.8312695,240.0
68.38,-33.722195,150.67458,0.5079464,63.170586,54.48265,0.010615554,0.031138148,1.7107812,-2.5377798,-0.4905726,2.7002797,0.731598,0.02558815,-0.96929425,-1.0,0.64991057,240.0
68.5,-33.722195,150.67459,0.4789558,63.15643,54.871826,0.010412409,0.02970977,1.7145085,-2.1570737,-0.3954317,1.9275225,0.5230859,0.028731473,1.0,-1.0,0.75574225,240.0
68.66,-33.722195,150.67459,0.46088326,63.134815,55.152885,0.009298268,0.030856125,1.6980917,-2.2265606,-0.3815869,2.014963,0.46204337,-0.16522169,-1.0,-0.801734,0.6043981,240.0
68.8,-33.722195,150.67459,0.44729662,63.11211,55.419945,0.008367582,0.030240333,1.6801625,-2.2537715,-0.35219058,-4.0173464,-0.6447473,-0.27859652,1.0,-1.0,0.6469457,240.0
68.972,-33.722195,150.67459,0.44269353,63.0903,55.861195,0.0066340463,0.02707316,1.623007,-2.3579676,-0.2403557,2.1934924,0.18991622,-0.2605372,-1.0,-0.6873553,0.5198424,240.0
69.1,-33.722195,150.6746,0.44371068,63.07069,56.274445,0.006372444,0.025010873,1.5916669,-2.400105,-0.15524031,-3.2832932,0.16568153,-0.2661723,-1.0,-0.68059325,0.7039729,240.0
69.3,-33.722195,150.6746,0.44532663,63.05149,56.54417,0.0056086583,0.025772575,1.5551257,-2.1835277,-0.07239287,1.7378054,-0.016257508,-0.18218428,1.0,-1.0,0.42335165,240.0
69.4,-33.722195,150.6746,0.44623083,63.03268,56.877037,0.0036259308,0.024931978,1.5104648,-2.3723166,0.05390025,2.052933,-0.1960795,-0.2449059,-1.0,-0.61182404,0.43159676,240.0
69.568,-33.722195,150.6746,0.44903606,63.024143,57.135056,0.0025703863,0.020853035,1.4868028,-2.0822244,0.07907349,1.651005,-0.18951696,-0.111440666,1.0,-1.0,0.35487145,240.0
69.7,-33.722195,150.6746,0.4589587,63.011032,57.4128,0.0013390749,0.023251664,1.4301072,-2.2992263,0.2778058,1.9475509,-0.4785626,-0.33234754,-1.0,-0.60118294,0.48400068,240.0
69.896,-33.722195,150.67462,0.4698063,63.00279,57.704647,0.0008747217,0.018152775,1.4016635,-2.0800014,0.28981528,-3.3976233,1.4337318,-0.15060751,1.0,-1.0,0.6163522,240.0
70.0,-33.722195,150.67462,0.4942255,63.015564,58.036217,-0.00021563024,0.01442083,1.346777,-2.27856,0.54244655,1.9299748,-0.7555745,-0.318964,-1.0,-0.5022619,0.48590007,240.0
70.1,-33.722195,150.67462,0.49989098,63.024967,58.28066,-0.0007965244,0.013343231,1.3190713,-2.0135558,0.5101621,1.4941756,-0.5865062,-0.14557946,1.0,-1.0,0.22007488,240.0
70.292,-33.722195,150.67462,0.5011415,63.03341,58.44996,-0.001539786,0.01838597,1.2889937,-2.274355,0.77870494,-3.5319464,2.1514485,-0.39369103,-1.0,-0.5275707,0.061021883,240.0
70.492,-33.722195,150.67462,0.51275903,63.070236,58.812214,-0.0023445808,0.009792323,1.2284224,-2.2693439,1.0504019,-2.18882,2.5149536,-0.40096134,-0.99999994,-0.51884633,0.15096085,240.0
70.6,-33.722195,150.67464,0.52382714,63.11387,59.104874,-0.0021353748,0.0091659855,1.1771697,-2.0495355,1.0796725,-2.6413758,2.785375,-0.2839408,1.0,-1.0,0.03596167,240.0
70.7,-33.722195,150.67464,0.5332711,63.171677,59.458115,-0.0021135327,0.013158,1.1216856,-1.9257181,1.2155286,1.402707,-1.2201978,-0.2384378,-1.0,-0.6458919,-0.28031212,240.0
70.888,-33.722195,150.67464,0.5353026,63.203327,59.652267,-0.0020521414,0.005604388,1.0899813,-1.9903286,1.5025579,1.3303804,-1.7811447,-0.3561571,-1.0,-0.5726115,0.01854433,240.0
71.064,-33.722195,150.67464,0.55288064,63.264812,60.01741,-0.001718333,0.004676528,1.038945,-1.8272423,1.6413062,-2.3589716,4.1232724,-0.35242817,-1.0,-0.5770862,0.08980297,240.0
71.2,-33.722195,150.67465,0.576239,63.321327,60.31304,-0.0014215884,0.005594844,0.9912628,-1.6220881,1.6365211,-0.9484207,3.212303,-0.3532289,1.0,-1.0,-0.14770095,240.0
71.3,-33.72219,150.67465,0.617244,63.41854,60.651157,-0.0013536543,0.008858413,0.9306989,-1.454942,1.7862946,0.9694112,-1.7025034,-0.26201874,1.0,-1.0,-0.278708,240.0
71.48,-33.72219,150.67465,0.638511,63.48508,60.849335,-0.0009471344,0.00050714903,0.8953221,-1.3903269,2.0832283,0.9581782,-2.3572466,-0.3633906,-1.0,-0.5639312,-0.055883534,240.0
71.68,-33.72219,150.67465,0.6768669,63.644905,61.245537,-0.00036197845,0.0018286742,0.83882886,-1.1623546,2.237238,0.39044258,3.6167946,-0.43989918,-0.99999994,-0.53778464,-0.11080617,240.0
71.8,-33.722187,150.67465,0.7083455,63.814346,61.64684,-8.182856e-06,0.0013279438,0.7879855,-0.9643329,2.239516,0.6145401,4.281505,-0.21105878,1.0,-1.0,-0.019435141,240.0
71.9,-33.722187,150.67467,0.73842585,63.95837,61.9706,0.0006750807,-0.0044860416,0.74348056,-0.7944946,2.1386638,0.34574038,-1.857194,-0.19292742,1.0,-1.0,0.07333679,240.0
72.1,-33.722187,150.67467,0.75872046,64.04602,62.158165,0.0010041824,0.0013845674,0.71406865,-0.6440058,2.3827558,0.17480546,-2.0882056,-0.34282458,-0.99999994,-0.5886105,0.23836093,240.0
72.272,-33.722183,150.67467,0.7963187,64.23305,62.54656,0.0016873992,-0.0022282735,0.6669456,-0.39826775,2.514993,1.5836644,3.7278562,-0.37703907,-0.99999994,-0.5489715,0.119609565,240.0
72.4,-33.722183,150.67467,0.8440749,64.43385,62.899967,0.0022128045,0.00039662496,0.610889,-0.16742496,2.4856026,1.5509101,2.090035,-0.301075,0.6872554,-1.0,0.1780908,240.0
72.5,-33.722183,150.67468,0.87663704,64.59462,63.163,0.002230888,0.004031868,0.5727997,-0.0743044,2.3123965,-0.25468835,-1.7791615,-0.19376802,0.49555683,-1.0,-0.15824229,240.0
72.7,-33.72218,150.67468,0.8982528,64.72469,63.36432,0.002023317,-0.0011556399,0.5482736,0.076909296,2.3502162,0.45926568,-0.34899807,-0.2406028,0.31921363,-1.0,0.05930672,240.0
72.868,-33.72218,150.67468,0.92385536,64.94925,63.66449,0.0014526895,0.0022521762,0.50558746,0.21852694,2.1996317,0.016432522,-0.9487592,-0.1809425,0.14151406,-1.0,0.1658161,240.0
73.0,-33.722176,150.67468,0.9220907,65.134155,63.890377,0.0005604671,0.005498222,0.47187886,0.459786,2.240725,3.2849452,3.8227718,-0.2947718,1.0,0.22632396,-0.021993008,240.0
73.152,-33.722176,150.67468,0.9323172,65.343414,64.098305,-0.00047366315,0.010960494,0.42095295,0.99632823,2.5928562,3.4177732,3.1266813,-0.35062343,0.58763206,0.21177197,0.08477462,240.0
73.3,-33.72217,150.67468,0.9375952,65.61667,64.33214,-0.0014333338,0.008595528,0.3769875,1.3160684,2.6471329,0.8026724,0.08674281,-0.2856004,0.39679134,0.23823212,0.037069708,240.0
73.4,-33.722168,150.6747,0.9381743,66.03311,64.6533,-0.002376089,0.009820322,0.338269,1.5422794,2.5618687,0.14733404,-0.35932532,-0.1579483,0.35352007,0.23692797,-0.2381054,240.0
73.592,-33.722164,150.6747,0.9325927,66.33135,64.87619,-0.0034225278,0.008688784,0.32669255,1.6607645,2.5569713,0.42122895,-0.35461065,-0.11077469,0.3107774,0.21487537,-0.19103828,240.0
73.7,-33.72216,150.6747,0.90014106,66.86781,65.25788,-0.0057635866,0.006564317,0.313719,1.7649432,2.4792793,0.037838653,-0.602808,-0.06361612,0.31566894,0.19964267,-0.09851927,240.0
73.9,-33.72216,150.6747,0.8842414,67.1544,65.45295,-0.007027476,0.009793047,0.30782658,1.8076757,2.4216318,0.22109154,-0.44802916,-0.038049944,0.32820362,0.19651242,0.5006528,240.0
74.0,-33.722157,150.6747,0.8615394,67.55127,65.70396,-0.00866334,0.011615055,0.30034605,1.8658501,2.3301415,0.3034651,-0.28208876,-0.036167752,0.33275008,0.20350754,0.5944936,240.0
74.188,-33.722153,150.6747,0.8428363,67.84619,65.881195,-0.009576623,0.013520705,0.29562655,1.9109626,2.2686603,0.40728614,-0.18632515,-0.027804865,0.33379543,0.2153592,0.4223656,240.0
74.3,-33.72215,150.67471,0.81843275,68.27563,66.12671,-0.01094176,0.016663905,0.28896132,1.9781516,2.1904593,0.3763663,-0.06934987,-0.028171305,0.32616055,0.22128035,0.16894135,240.0
74.5,-33.722145,150.67471,0.80645865,68.543434,66.27276,-0.012146469,0.01687468,0.28457114,2.0171573,2.144247,0.17702238,-0.15989296,-0.03967032,0.31430984,0.23292792,0.14267343,240.0
74.6,-33.72214,150.67471,0.7773746,68.91879,66.45229,-0.013887458,0.019975467,0.27984688,2.057123,2.0705025,0.34414774,-0.21366121,-0.025221268,0.32092804,0.23896952,0.3096371,240.0
74.78,-33.72214,150.67471,0.74842066,69.25338,66.61078,-0.015209525,0.021767592,0.2755279,2.0978901,2.013444,0.20340267,-0.23987734,-0.035730407,0.31249976,0.24940239,0.061433043,240.0
74.9,-33.722137,150.67471,0.7242163,69.69011,66.80358,-0.016536083,0.023808528,0.27198723,2.1384077,1.9421415,0.20098434,-0.24620052,-0.025348466,0.32060897,0.2487707,0.24073249,240.0
75.1,-33.722134,150.67471,0.7179866,69.9501,66.9251,-0.01698679,0.026013961,0.27034432,2.158187,1.9082357,0.31982133,-0.15477361,-0.01719247,0.33979404,0.23217893,0.26122895,240.0
75.2,-33.72213,150.67471,0.7108447,70.369354,67.12921,-0.017982345,0.026257018,0.26507747,2.2019393,1.8705981,0.22212234,-0.122866355,-0.022648595,0.31872576,0.24474971,0.071362294,240.0
75.376,-33.722126,150.67471,0.70173633,70.71898,67.28721,-0.018901942,0.027380046,0.26165336,2.2296894,1.8376468,0.15760444,-0.17923194,-0.008236713,0.32516733,0.23054573,0.16642295,240.0
75.5,-33.722122,150.67473,0.6807393,71.14226,67.4757,-0.019706514,0.029186187,0.25867453,2.249895,1.7951529,-0.090483874,-0.17852652,-0.020507535,0.31940395,0.24340016,0.2856156,240.0
75.7,-33.72212,150.67473,0.65890616,71.50412,67.62957,-0.020069325,0.029817646,0.2565819,2.2678673,1.759198,0.20336379,-0.11974093,-0.017225115,0.32202837,0.24473825,0.25666344,240.0
75.8,-33.722115,150.67473,0.63455564,71.97835,67.83802,-0.019862026,0.031810448,0.2522686,2.2933135,1.7206259,0.31018847,-0.034612287,-0.019685013,0.3233874,0.25188598,0.2502169,240.0
75.968,-33.72211,150.67473,0.6126076,72.27248,67.97249,-0.020304302,0.029804423,0.24276276,2.349329,1.714045,-0.042501193,-0.19358692,-0.0373643,0.2715722,0.2572334,0.02696534,240.0
76.148,-33.722107,150.67473,0.59020853,72.74125,68.17148,-0.020406973,0.028805206,0.23613611,2.380582,1.6870029,0.039057977,-0.20910977,-0.0042920024,0.28014174,0.23820372,-0.20116879,240.0
76.3,-33.722103,150.67473,0.5589731,73.18645,68.35351,-0.020063205,0.029052969,0.23227853,2.4080722,1.668918,-0.059269547,-0.24485378,-0.004899968,0.28127152,0.2305439,-0.34962997,240.0
76.4,-33.7221,150.67473,0.5280319,73.63458,68.53411,-0.01971811,0.027870445,0.22645211,2.4299426,1.6435475,-0.015149555,-0.20100713,-0.006307396,0.2633764,0.23745316,-0.10220156,240.0
76.584,-33.7221,150.67473,0.51469034,73.917,68.644165,-0.018975424,0.028712736,0.2290124,2.4211397,1.6300089,0.09071885,-0.12841658,0.009818148,0.28794664,0.22436422,-0.024113467,240.0
76.7,-33.722095,150.67474,0.49629056,74.20332,68.75531,-0.017921844,0.02951814,0.23218851,2.4057891,1.6127305,0.23302078,-0.055078246,-0.0034157515,0.31375533,0.21558481,-0.031263676,240.0
76.892,-33.72209,150.67474,0.47287518,74.6278,68.91232,-0.016739968,0.029464863,0.22861488,2.415712,1.5759752,0.32700583,-0.08327198,-0.026530541,0.30043566,0.23844384,-0.048185967,240.0
77.0,-33.722088,150.67474,0.45150107,75.070435,69.06194,-0.0150924735,0.029706212,0.22663863,2.4160187,1.5350974,0.23126882,0.14482743,-0.017009154,0.32954013,0.2210908,0.049966197,240.0
77.1,-33.722084,150.67474,0.44193864,75.326866,69.14913,-0.013906435,0.029540073,0.22464584,2.424658,1.5147551,0.15759887,0.10327772,-0.043426026,0.30903614,0.25082064,0.36850634,240.0
77.3,-33.722084,150.67474,0.43372804,75.56758,69.22934,-0.012826673,0.029018579,0.22178009,2.438028,1.4948207,0.13489507,-0.10770515,-0.035989612,0.31136438,0.2453064,0.019770462,240.0
77.488,-33.72208,150.67474,0.42172563,76.01097,69.37317,-0.0105446745,0.028199304,0.21745366,2.4495027,1.4564372,0.14647044,-0.09526481,-0.035636522,0.31439778,0.25000468,0.08212251,240.0
77.6,-33.722076,150.67474,0.41654742,76.396,69.50299,-0.008297922,0.027547635,0.21381532,2.4536471,1.4279844,0.25872248,-0.028621662,-0.031156892,0.31444484,0.25890595,-0.11467076,240.0
77.7,-33.722073,150.67474,0.41599983,76.72458,69.602234,-0.0068148747,0.026625069,0.21033682,2.4675746,1.4045537,0.23979065,-0.0415139,-0.017863948,0.32446393,0.24728636,-0.08415258,240.0
77.888,-33.72207,150.67474,0.41999274,76.95694,69.67386,-0.0055716895,0.025744472,0.20885405,2.469634,1.3894928,0.09964457,-0.1068001,-0.021251692,0.31430534,0.262019,0.06726687,240.0
78.08,-33.722065,150.67474,0.43205237,77.42281,69.818146,-0.0031708733,0.024311008,0.20667657,2.4763403,1.3619236,0.14729969,-0.022569459,-0.018546393,0.3157219,0.26469037,-0.2102326,240.0
78.2,-33.72206,150.67474,0.44059306,77.924965,69.98343,-0.0011701757,0.020875543,0.19350529,2.5341723,1.3393043,0.056048974,-0.09620076,-0.007369582,0.29754773,0.2540817,-0.09530664,240.0
78.3,-33.722057,150.67474,0.44442964,78.29069,70.09234,0.00020762147,0.018533563,0.18933272,2.5502129,1.3246037,-0.13865006,-0.04693663,-0.0019011569,0.27519703,0.2618507,-0.004981693,240.0
