timestamp,lat,lon,alt,x,y,roll,pitch,yaw,vel_x,vel_y,accel_x,accel_y,yaw_rate,right_engine,left_engine,wind_speed,wind_direction
31.684,-33.722763,150.674,0.5076299,0.1495421,-0.40135893,-0.018342048,0.042626567,0.635133,0.05441933,-0.010509274,0.018953428,0.00361293,0.0070040026,0.0,0.0,-0.88389474,240.0
31.852,-33.722763,150.674,0.45385253,0.14796259,-0.41431463,-0.009835284,0.035289045,0.6367146,0.053542428,-0.018236836,0.018538633,0.0105953105,0.010646258,0.0,0.0,-1.208063,240.0
32.0,-33.722763,150.674,0.41768712,0.14773747,-0.4282365,-0.0004330867,0.026536627,0.6388091,0.052950487,-0.026252668,0.0012039137,-0.013023812,0.01054141,0.0,0.0,-1.2163663,240.0
32.1,-33.722763,150.674,0.40702695,0.14158458,-0.43530416,0.007281526,0.019914867,0.6400986,0.047671024,-0.033814598,-0.0010309196,-0.023517821,0.008948491,0.0,0.0,-0.912403,240.0
32.276,-33.722763,150.674,0.42170954,0.13665254,-0.4372829,0.012932785,0.014489302,0.64078724,0.042632323,-0.036101587,-0.015107137,-0.019685652,0.007576771,0.0,0.0,-0.7243122,240.0
32.476,-33.722763,150.674,0.49393082,0.15357718,-0.44283253,0.021598747,0.0041733743,0.642083,0.049558386,-0.02880479,0.002483281,-0.007794681,0.0062549305,0.0,0.0,-0.63353616,240.0
32.6,-33.722763,150.674,0.5581914,0.15123658,-0.45003453,0.029684516,-0.0034789299,0.6426846,0.047530837,-0.026588576,-0.0073829554,-0.011603291,0.003979535,0.0,0.0,-0.57645684,240.0
32.7,-33.722763,150.674,0.6062368,0.14954801,-0.45380518,0.034080267,-0.007648701,0.6430728,0.04675293,-0.027164329,0.01004308,-0.017537406,0.003505777,0.0,0.0,-0.4107993,240.0
32.9,-33.722763,150.674,0.6630131,0.14775096,-0.4495589,0.037427325,-0.010639654,0.6433168,0.04232513,-0.024435308,0.00819332,-0.015952578,0.003925491,0.0,0.0,-0.61730665,240.0
33.068,-33.722763,150.674,0.7230065,0.13878624,-0.4326165,0.040358048,-0.012769726,0.6433849,0.03027954,-0.018244818,0.003490225,-0.018855782,0.003547905,0.0,0.0,-0.61051744,240.0
33.2,-33.722763,150.674,0.76582134,0.12498671,-0.40859908,0.04029849,-0.0124628395,0.6436604,0.01639916,-0.011806769,-0.0047061983,-0.024619611,0.002113597,0.0,0.0,-0.48413765,240.0
33.4,-33.722763,150.674,0.791325,0.11263404,-0.38860843,0.03878732,-0.010131577,0.64361876,0.0017329379,-0.008789342,-0.015194718,-0.02542202,0.00093682023,0.0,0.0,-0.3090837,240.0
33.5,-33.722763,150.674,0.8255552,0.14314581,-0.3599619,0.033535883,-0.006055931,0.62676346,0.15784429,0.470413,2.0742753,5.538995,-0.34349838,1.0,-0.1736694,-0.27754936,240.0
33.6,-33.72276,150.674,0.833248,0.23758577,-0.3006591,0.028558271,0.0047384026,0.5720189,0.4375212,1.0440624,3.0115259,4.2328124,-0.4891742,1.0,0.53224134,-0.49874496,240.0
33.8,-33.72276,150.674,0.83320093,0.37826455,-0.21081784,0.024488317,0.008963214,0.52385753,0.8338266,1.6687207,3.491645,6.156922,-0.43000764,1.0,0.8050524,-0.5548572,240.0
33.992,-33.722755,150.674,0.8354304,0.89130056,0.11127351,0.017434213,0.013247411,0.44530272,1.6651855,2.5480897,0.72283995,0.89617336,-0.17294608,0.31433615,0.35341135,-0.6285179,240.0
34.1,-33.72275,150.674,0.82712066,1.4582069,0.44390494,0.0104249725,0.0126030855,0.42608657,1.7475188,2.518036,-0.41374007,-0.5671702,-0.014601248,0.26306134,0.25426728,-0.44656566,240.0
34.2,-33.722748,150.67401,0.81521463,1.7680584,0.62791914,0.0047238255,0.016852384,0.43324623,1.6854883,2.4744108,-0.43397653,-0.6016831,0.00671754,0.28543228,0.1887415,-0.17704912,240.0
34.4,-33.722744,150.67401,0.8005208,2.0773656,0.82444686,-0.0009625217,0.019970438,0.44753847,1.5919247,2.4466958,-0.26783994,-0.48050898,-0.025415769,0.34691876,0.14516334,-0.39615032,240.0
34.588,-33.72274,150.67401,0.7649586,2.5065393,1.1080033,-0.010283292,0.024182338,0.44439447,1.5650498,2.4213521,0.057456184,-0.042881664,-0.09084541,0.32137424,0.22114938,-0.2851023,240.0
34.7,-33.722736,150.67401,0.7329048,2.9835637,1.4165938,-0.018041974,0.027573528,0.42914802,1.6095474,2.4138186,0.094686195,0.012049069,-0.060123827,0.29044437,0.24376203,-0.34244117,240.0
34.868,-33.722733,150.67401,0.7086898,3.2454705,1.586352,-0.021899484,0.030926073,0.42461437,1.6155443,2.401431,0.07411121,0.010012892,-0.033665225,0.3017098,0.24345455,-0.38030112,240.0
35.0,-33.72273,150.67401,0.67875206,3.634249,1.8242657,-0.026838964,0.035289865,0.4200072,1.6287806,2.3835027,0.15511754,0.095369905,-0.01858943,0.30584446,0.24948032,0.07064306,240.0
35.18,-33.72273,150.67403,0.64747286,3.956071,2.017197,-0.032000862,0.03499036,0.41733217,1.6602355,2.4028168,0.085551105,0.17005149,-0.018261999,0.29947364,0.22554314,-0.18989103,240.0
35.3,-33.72272,150.67403,0.6047747,4.4668846,2.3210318,-0.03781826,0.031310882,0.41544276,1.6960559,2.437568,-0.17373239,-0.26050928,-0.008790121,0.2770472,0.19881675,-0.21790984,240.0
35.5,-33.72272,150.67403,0.58353424,4.820965,2.5272624,-0.038721465,0.032613494,0.41337138,1.7010653,2.4239578,-0.114384174,-0.18337768,-0.0071322806,0.28044012,0.20428607,0.35221508,240.0
35.6,-33.722717,150.67403,0.5335361,5.2723694,2.7769406,-0.03742856,0.034896486,0.40973854,1.7122483,2.38721,0.14041317,0.0026425137,-0.013067966,0.28530788,0.22254156,0.21293205,240.0
35.776,-33.722713,150.67403,0.49967754,5.5129385,2.9073627,-0.036909062,0.03431604,0.4082845,1.7276211,2.3814232,0.085899845,-0.01181175,-0.015408786,0.28037038,0.22143276,0.2382788,240.0
35.972,-33.72271,150.67403,0.43443543,6.0035257,3.1830337,-0.036038715,0.028913436,0.40651956,1.774533,2.412628,0.10613176,0.05505229,-0.012686839,0.25369933,0.1915004,-0.118064865,240.0
36.1,-33.722706,150.67404,0.38287675,6.4689374,3.4576528,-0.03335299,0.022634884,0.4041744,1.8025359,2.429222,-0.15448081,-0.40816972,-0.017940817,0.22509877,0.18579562,-0.48129836,240.0
36.2,-33.722702,150.67404,0.36415166,6.8036113,3.6582308,-0.024945043,0.02437635,0.39975545,1.7848557,2.376992,0.021704087,-0.07146036,-0.0286911,0.23873617,0.22438191,-0.6369341,240.0
36.4,-33.7227,150.67404,0.3501389,7.0927896,3.8203926,-0.020582149,0.02151224,0.3967975,1.8059192,2.3782866,0.13207461,0.15880877,-0.015105473,0.246529,0.2089902,-0.83461666,240.0
36.568,-33.722694,150.67404,0.31961828,7.6193814,4.120035,-0.017841006,0.0081602195,0.39520767,1.8699638,2.4452379,-0.19944414,-0.26536745,-0.016684141,0.20022532,0.15174273,-0.53334886,240.0
36.7,-33.72269,150.67404,0.30820507,8.017451,4.3716464,-0.007224642,0.005960774,0.39044073,1.8430359,2.3990984,0.12060603,0.072620906,-0.015728213,0.22140943,0.18482412,-0.44606546,240.0
36.896,-33.722687,150.67404,0.3157429,8.346024,4.57009,-0.0013869136,0.0016115197,0.38987494,1.860608,2.418962,0.02196509,0.044883635,-0.006324085,0.21432182,0.16544512,-0.16614218,240.0
37.0,-33.722687,150.67404,0.32582802,8.569819,4.701755,0.0034258352,0.00024900722,0.39144865,1.8456811,2.3973384,-0.00703389,-0.06854386,-0.01143963,0.23906225,0.16520411,-0.08657813,240.0
37.1,-33.722683,150.67404,0.34048003,8.74309,4.7980924,0.009469937,0.00053536706,0.39344594,1.8268919,2.363928,0.18223152,0.20376599,-0.016159637,0.26792985,0.1718473,-0.15944499,240.0
37.2,-33.722683,150.67406,0.36705393,9.066266,4.9796553,0.020910388,0.0006604862,0.39090744,1.8185009,2.302349,0.37877074,0.28736842,-0.025012448,0.27633405,0.215142,-0.17085733,240.0
37.3,-33.72268,150.67406,0.38400817,9.234527,5.071092,0.026432054,-0.00023541918,0.38841686,1.8234243,2.2779944,0.25394154,0.2504194,-0.016202185,0.29390308,0.21339181,0.0073873713,240.0
37.492,-33.72268,150.67406,0.40791374,9.387607,5.150291,0.030730447,-0.0011034211,0.38674188,1.8273339,2.2563128,0.3585193,0.2774923,-0.019478085,0.29782227,0.22355124,-0.19699498,240.0
37.6,-33.722675,150.67406,0.44558364,9.69976,5.3236485,0.037449677,-0.0032529114,0.38234624,1.8399122,2.2273898,0.31238535,0.23107938,-0.012603237,0.29661712,0.24012819,-0.22248825,240.0
37.7,-33.722675,150.67406,0.4689752,9.900907,5.4319983,0.04033992,-0.004711806,0.38089493,1.850108,2.2188253,0.35180193,0.24599975,-0.012117176,0.2957486,0.2411889,-0.12789059,240.0
37.888,-33.72267,150.67406,0.49223137,10.077334,5.52674,0.04221727,-0.005026189,0.37964907,1.8566674,2.2083006,0.32198,0.22524862,-0.008153216,0.2969634,0.24366337,-0.35075492,240.0
38.0,-33.722668,150.67406,0.54210615,10.426607,5.716681,0.043854352,-0.0056621055,0.37791762,1.8638253,2.18752,0.18561028,0.10446729,-0.013006595,0.30313328,0.24689409,-0.36637473,240.0
38.1,-33.722668,150.67406,0.57018757,10.615163,5.811952,0.0437786,-0.00538396,0.37763554,1.8678585,2.175586,0.26493162,0.16453496,-0.012600297,0.30865818,0.24771826,-0.4052741,240.0
38.284,-33.722664,150.67406,0.6064,10.852882,5.937785,0.043275338,-0.0048073125,0.37602225,1.8731581,2.1619713,0.2214099,0.13506916,-0.009487382,0.31149143,0.2509361,-0.14293417,240.0
38.4,-33.722664,150.67406,0.6655854,11.21139,6.1493316,0.0417977,-0.0032901901,0.37135476,1.871949,2.1402135,0.2198258,0.3222519,-0.00519602,0.31492466,0.26518565,-0.26566276,240.0
38.5,-33.72266,150.67407,0.6981075,11.456873,6.281132,0.0390814,-0.0018114061,0.3708686,1.8720839,2.1308599,0.16309522,0.021755802,-0.0005067149,0.32202634,0.26388255,-0.4431487,240.0
38.68,-33.72266,150.67407,0.7128513,11.654753,6.3827987,0.036373567,-0.00038205856,0.3707849,1.8721823,2.1211996,0.10874168,0.030786777,-0.007126559,0.32791087,0.26272824,-0.29279214,240.0
38.768,-33.722656,150.67407,0.7220787,11.874636,6.4921293,0.03314368,0.0010998136,0.37053806,1.8745072,2.1125078,0.17631057,0.10489734,-0.006189876,0.3339979,0.2613564,-0.15173459,240.0
38.876,-33.722652,150.67407,0.7293767,12.087782,6.5945272,0.02947408,0.0027659538,0.36998853,1.8772665,2.1033463,0.078556545,0.039195277,-0.006199386,0.33769006,0.26162416,-0.046596155,240.0
39.0,-33.722652,150.67407,0.7457465,12.499977,6.8008122,0.022980556,0.006528725,0.36694735,1.890401,2.0915534,0.09010999,0.020859616,-0.023265803,0.3211721,0.27760425,-0.059365213,240.0
39.1,-33.72265,150.67407,0.74935067,12.62369,6.8639827,0.020784676,0.00829304,0.3651661,1.8928733,2.0852234,0.08186391,0.033146475,-0.016329877,0.3338765,0.26724017,-0.3626499,240.0
39.256,-33.722645,150.67407,0.75519264,12.985041,7.035274,0.013945796,0.010890922,0.36594957,1.9064666,2.0886412,0.000999302,0.045314178,-0.0121468995,0.33543336,0.2542616,-0.12464981,240.0
39.3,-33.722645,150.67407,0.75677216,13.287911,7.1848345,0.00799844,0.013835685,0.36410823,1.9178836,2.0867963,0.016800413,-0.014727868,-0.021262437,0.3207889,0.2633793,0.015931183,240.0
39.472,-33.72264,150.67407,0.75172603,13.591246,7.330752,0.0021340093,0.013355885,0.365023,1.9520917,2.122499,-0.087302186,-0.107525915,-0.024426464,0.30377832,0.23115622,-0.32853165,240.0
39.6,-33.722637,150.67407,0.7360033,14.080901,7.5705633,-0.0051899883,0.016091224,0.36330134,1.9630697,2.123884,-0.08007113,-0.08958365,-0.022037541,0.30698302,0.22140238,-0.004119911,240.0
39.7,-33.722633,150.67409,0.7242141,14.427273,7.747581,-0.010275486,0.019961864,0.35794497,1.9727819,2.1144865,-0.052955657,-0.013833968,-0.025684144,0.29720032,0.23502958,-0.17876726,240.0
39.868,-33.72263,150.67409,0.71291625,14.74896,7.910188,-0.014660715,0.020901512,0.3569104,2.002431,2.1411886,-0.14543161,-0.14438842,-0.025014874,0.28367567,0.21046735,-0.14376856,240.0
40.0,-33.72263,150.67409,0.70148075,15.009296,8.033983,-0.018319752,0.023538817,0.35567626,2.0007386,2.1293163,-0.09249041,-0.124096595,-0.030769775,0.28757972,0.21796803,-0.17241645,240.0
40.1,-33.722626,150.67409,0.688177,15.310222,8.178862,-0.021251615,0.027296832,0.3526985,1.9983546,2.1071732,0.018401207,-0.019273791,-0.02697728,0.29561773,0.22810373,-0.11448894,240.0
40.2,-33.722622,150.67409,0.68024695,15.498468,8.265643,-0.023471383,0.03052517,0.35047317,1.9972155,2.089678,-0.011595259,-0.05794917,-0.024288386,0.30192775,0.23888761,0.21809143,240.0
40.396,-33.72262,150.67409,0.6556078,15.977319,8.4868355,-0.027460542,0.035999686,0.3473204,2.0144868,2.07477,0.029946582,-0.0059756977,-0.018875483,0.3039092,0.23837075,0.14512601,240.0
40.5,-33.72262,150.67409,0.63525534,16.29327,8.624632,-0.029004522,0.03878324,0.3446919,2.022636,2.059638,0.15549852,0.1231137,-0.013118024,0.3050868,0.24663432,0.37177706,240.0
40.6,-33.722614,150.67409,0.5990175,16.723856,8.8252,-0.029914323,0.038918998,0.34382027,2.0528529,2.0769234,-0.0029464504,-0.070126906,-0.023243068,0.29454568,0.22067854,0.5795662,240.0
40.792,-33.72261,150.67409,0.5743234,16.988176,8.953203,-0.029532945,0.03995757,0.34210247,2.0558622,2.0709,-0.024316218,-0.13199474,-0.013557209,0.31215656,0.2059003,0.4030333,240.0
40.9,-33.722607,150.6741,0.53338695,17.440918,9.163318,-0.027804727,0.0422495,0.33844328,2.0530164,2.0391483,0.015227112,-0.014208841,-0.015420756,0.32398516,0.2181582,0.3574684,240.0
41.088,-33.722603,150.6741,0.5123607,17.688795,9.267518,-0.026122125,0.043360397,0.3368329,2.0573473,2.0204499,0.115943514,0.060171116,-0.024552075,0.31266317,0.2381815,0.32828367,240.0
41.2,-33.722603,150.6741,0.49541402,17.906187,9.355591,-0.024336658,0.043421444,0.3351972,2.0680497,2.0084949,0.16213886,0.063343875,-0.02650317,0.30877534,0.24112853,0.1964783,240.0
41.384,-33.7226,150.6741,0.4705479,18.346432,9.535422,-0.019690128,0.04279914,0.3307534,2.0892725,1.98321,0.14529344,0.036637507,-0.027958622,0.2991055,0.24930589,0.053988423,240.0
41.5,-33.722595,150.6741,0.44447708,18.602905,9.639318,-0.016085854,0.041598536,0.3280098,2.0985928,1.9663619,0.14528006,0.052567746,-0.016990716,0.31268692,0.23856996,-0.0019861548,240.0
41.584,-33.722595,150.6741,0.4274127,18.81179,9.730264,-0.01263888,0.040616717,0.32535014,2.0984626,1.9485072,0.08498021,0.00961584,-0.01681548,0.31443834,0.2477262,0.0830403,240.0
41.7,-33.72259,150.6741,0.4052378,19.201508,9.901925,-0.006145933,0.038028825,0.32258326,2.1018054,1.9292811,0.14071187,0.040488232,-0.012043504,0.320203,0.24974708,0.09323008,240.0
41.8,-33.722588,150.6741,0.39477545,19.471228,10.017918,-0.001848527,0.035837993,0.32095426,2.1060388,1.917132,0.07811921,-0.004213401,-0.015141088,0.3245284,0.24861938,-0.09229193,240.0
41.98,-33.722588,150.6741,0.38882154,19.702583,10.120015,0.0018193923,0.033846073,0.32004628,2.102639,1.905368,0.227484,0.3679431,-0.005915584,0.33307824,0.24904099,0.58238024,240.0
42.1,-33.722584,150.6741,0.3794217,20.063555,10.282445,0.007357445,0.030271651,0.31821027,2.1057582,1.8950903,0.08358463,0.024812583,-0.013359117,0.34140337,0.24668443,0.4787835,240.0
42.2,-33.72258,150.6741,0.37957776,20.30805,10.39009,0.011567295,0.026058307,0.3177211,2.120772,1.902137,0.11231185,0.03734142,-0.012737697,0.34091792,0.22984853,0.54929894,240.0
42.376,-33.722576,150.67412,0.37042814,20.657522,10.547999,0.016334089,0.02168729,0.31589672,2.1232815,1.8939967,0.002318329,-0.06632361,-0.02658752,0.33524773,0.23624043,0.8224285,240.0
42.5,-33.722572,150.67412,0.36035144,21.083134,10.735289,0.021195412,0.017096898,0.31177443,2.1331666,1.8802948,0.07813103,0.0025528956,-0.021611769,0.34182173,0.23167913,0.44894785,240.0
42.6,-33.722572,150.67412,0.35570103,21.36524,10.861947,0.024648704,0.013912778,0.3078735,2.136917,1.8661827,0.15777786,0.039207343,-0.03519709,0.33810347,0.2426153,0.5066557,240.0
42.8,-33.72257,150.67412,0.35399258,21.668943,11.000702,0.027330784,0.011733728,0.3031079,2.139589,1.8476418,0.16030253,0.042302296,-0.029347016,0.34923834,0.244402,0.34395808,240.0
42.968,-33.722565,150.67412,0.35473204,22.119608,11.188383,0.030839259,0.0051922905,0.30007964,2.1865666,1.858064,0.06015417,-0.055144075,-0.009726827,0.3115661,0.2380755,0.045612086,240.0
43.1,-33.72256,150.67412,0.37014425,22.578474,11.387669,0.033042364,0.00037746003,0.29877335,2.202284,1.8557912,-0.080195524,-0.11253091,-0.012225834,0.3066578,0.23228455,0.038639333,240.0
43.276,-33.722557,150.67412,0.3856429,22.918274,11.533414,0.03365728,-0.0015910615,0.29636574,2.212445,1.8461204,-0.023864407,-0.09208411,-0.017011765,0.30123165,0.23615882,0.0080233235,240.0
43.4,-33.722553,150.67412,0.39795977,23.242971,11.675317,0.034358796,-0.0044224295,0.29528207,2.2357097,1.854416,-0.076398976,-0.12802543,-0.017693387,0.2888376,0.22498922,-0.15773016,240.0
43.5,-33.72255,150.67412,0.41485882,23.667538,11.871938,0.033875745,-0.0056453375,0.2917632,2.2301383,1.8370459,0.013629,-0.053468958,-0.0120001985,0.29056028,0.23746964,-0.06099961,240.0
43.696,-33.722546,150.67413,0.4305761,23.940538,11.995314,0.032377888,-0.0044759694,0.28970551,2.217858,1.8185024,0.29086474,-0.042056058,-0.0042538038,0.29798722,0.25406408,0.22667845,240.0
43.8,-33.72254,150.67413,0.4531381,24.417183,12.197207,0.029581653,-0.0039069606,0.29007396,2.2254417,1.8131604,0.105835155,0.016021159,0.0059395055,0.30244517,0.24572611,0.0346777,240.0
43.98,-33.72254,150.67413,0.46485937,24.655832,12.297666,0.02729024,-0.0027585265,0.29076973,2.2198982,1.8056222,-0.08898024,-0.16248547,0.012474009,0.312086,0.24441254,0.3656774,240.0
44.1,-33.722538,150.67413,0.4801743,25.029228,12.451751,0.025395837,-0.0028826136,0.29210463,2.246333,1.8238791,0.17903432,0.28342843,0.004495864,0.305076,0.22189222,0.15715282,240.0
44.288,-33.722534,150.67413,0.49744797,25.462843,12.626925,0.021418365,-0.0006990436,0.29031348,2.258085,1.8172492,-0.036180176,-0.060362585,-0.020475538,0.28757727,0.23066866,-0.15405668,240.0
44.4,-33.72253,150.67413,0.51153517,25.891146,12.799583,0.016078658,0.004556427,0.28725323,2.2456157,1.7890846,0.03260801,-0.0127565,-0.013472722,0.30722588,0.23921688,0.12203314,240.0
44.592,-33.722527,150.67413,0.5167308,26.132246,12.899541,0.01258616,0.008405156,0.28524074,2.24297,1.7756388,0.083854645,0.0016701303,-0.016311206,0.30844134,0.24931984,0.1918503,240.0
44.7,-33.722527,150.67413,0.5287303,26.490427,13.046153,0.007876155,0.013523534,0.28391385,2.2393281,1.7628139,0.053527176,-0.0033170774,0.0033872682,0.31211776,0.25536782,0.65413165,240.0
44.884,-33.722523,150.67413,0.54279506,26.796501,13.182735,0.0038413026,0.018278014,0.28430253,2.230988,1.7591063,0.15571386,0.06677757,0.011683323,0.32481584,0.254918,0.7980791,240.0
45.0,-33.72252,150.67415,0.5435678,27.111208,13.306633,-0.0004610634,0.023051662,0.28609714,2.2253454,1.7553129,0.08329802,0.032360237,0.0076006744,0.33652917,0.2490638,0.87864137,240.0
45.1,-33.722515,150.67415,0.5415157,27.37322,13.402949,-0.0033877692,0.026273264,0.2869329,2.2360895,1.7581323,0.20241705,0.049954526,-0.006457551,0.34200704,0.24333559,0.7379881,240.0
45.28,-33.722515,150.67415,0.5452204,27.776482,13.557193,-0.004651353,0.028011534,0.2861294,2.2751057,1.7766393,-0.08821373,-0.07364698,-0.016303971,0.31885698,0.21684428,0.55498844,240.0
45.4,-33.72251,150.67415,0.54107964,28.164064,13.703668,-0.00713493,0.031134045,0.28296334,2.2850966,1.7704674,-0.48158053,-0.10201675,-0.019914335,0.29374924,0.23743185,0.32428253,240.0
45.5,-33.722507,150.67415,0.5386629,28.374313,13.7808895,-0.0087039815,0.033159774,0.2814259,2.2858129,1.7625439,0.053987954,0.005029037,-0.020113666,0.3088081,0.2296114,0.42906013,240.0
45.676,-33.722504,150.67415,0.5408143,28.79814,13.928574,-0.011833205,0.03773224,0.27870077,2.2926943,1.748576,-0.019279018,-6.591705e-05,-0.008099732,0.30433837,0.23908553,0.3286397,240.0
45.8,-33.7225,150.67415,0.5346639,29.242031,14.089446,-0.013380972,0.04000627,0.2769826,2.300485,1.7391565,0.032693483,0.0060265637,-0.010248575,0.3021358,0.24097936,0.42378175,240.0
45.9,-33.722496,150.67415,0.51120937,29.549469,14.196647,-0.014561376,0.041900676,0.2757443,2.298293,1.7263689,0.049017962,0.013971999,-0.0026141168,0.3048142,0.24875847,0.17160195,240.0
46.072,-33.722496,150.67415,0.4845991,29.79339,14.286054,-0.01509544,0.042995844,0.27546602,2.2979867,1.7209544,0.11862141,0.041490823,-0.004767139,0.30807504,0.2494561,0.4534351,240.0
46.24,-33.722492,150.67415,0.45060623,30.175407,14.434936,-0.015268755,0.04433128,0.27476695,2.2956717,1.7137874,0.44480145,0.25602758,-0.0009503099,0.31340346,0.25070563,0.43479902,240.0
46.4,-33.72249,150.67415,0.41579467,30.517517,14.572379,-0.014583488,0.04458288,0.27377465,2.2948105,1.7088273,0.12251145,0.030872388,-0.011837296,0.31775668,0.2530317,0.224397,240.0
46.5,-33.722485,150.67416,0.3882665,30.874584,14.705495,-0.012812321,0.043026865,0.27193984,2.3085213,1.7069775,0.18838038,0.0907871,-0.015284585,0.309606,0.24887499,0.022533128,240.0
46.664,-33.72248,150.67416,0.36391526,31.207396,14.824118,-0.011348207,0.041480616,0.26999843,2.3123946,1.696428,-0.03778826,-0.3185091,-0.011691438,0.3055756,0.2543831,0.0984227,240.0
46.796,-33.72248,150.67416,0.351407,31.436852,14.902424,-0.010296385,0.04022721,0.26873866,2.3099399,1.6847016,0.026506294,-0.020049978,-0.015811315,0.30683887,0.26121247,0.12019991,240.0
46.9,-33.722477,150.67416,0.32898295,31.906164,15.060554,-0.0075229844,0.037169278,0.2665123,2.3161283,1.6651434,0.118370585,0.0409356,-0.010456875,0.3042838,0.26778084,-0.07624132,240.0
47.1,-33.722473,150.67416,0.32003546,32.14324,15.141199,-0.005797918,0.035447713,0.26620042,2.3109121,1.6537563,0.09582964,0.03139641,-0.00076405174,0.30964014,0.27190664,-0.01199443,240.0
47.2,-33.722473,150.67416,0.31116998,32.366356,15.214387,-0.0038675345,0.033244595,0.2661975,2.3113828,1.6460377,0.13146207,0.15453012,0.00065480813,0.31255066,0.27150595,-0.21561162,240.0
47.392,-33.72247,150.67416,0.30364507,32.821796,15.363612,0.00014404446,0.02867319,0.26544312,2.3171027,1.6302173,0.019590948,0.023519954,-0.0064994902,0.31354815,0.27199548,-0.52788067,240.0
47.5,-33.722466,150.67416,0.29811877,33.17727,15.490975,0.0038150377,0.025068557,0.264095,2.3212693,1.6204513,0.19137041,0.056571316,-0.0115703335,0.31497017,0.27459225,-0.37652805,240.0
47.6,-33.72246,150.67416,0.28346652,33.60101,15.643817,0.008831535,0.019949377,0.2620797,2.332454,1.6124817,0.09861308,0.013674047,-0.006461027,0.30724034,0.272782,-0.39195988,240.0
47.788,-33.722458,150.67416,0.2761973,33.83496,15.729809,0.0113690365,0.017350456,0.26108977,2.3348596,1.6082764,0.03237877,-0.012093574,-0.011853984,0.30643404,0.2734331,-0.46712393,240.0
47.9,-33.722454,150.67416,0.26745778,34.300426,15.901303,0.015483693,0.013606381,0.25988844,2.3333757,1.5985178,0.05786788,-0.0006973704,-0.0032814809,0.31058562,0.275061,-0.36491296,240.0
48.068,-33.722454,150.67416,0.2662927,34.57371,15.995431,0.017728714,0.011385591,0.25958356,2.3320248,1.5895723,0.055071004,-0.018995501,-0.0010631365,0.31515566,0.2757989,-0.27981,240.0
48.2,-33.72245,150.67416,0.2655946,34.879692,16.103031,0.01988301,0.009280647,0.25892746,2.335292,1.5812052,0.030664276,-0.024883978,-0.0036107467,0.31626523,0.27523673,-0.6474026,240.0
48.38,-33.722446,150.67418,0.27427113,35.292656,16.241285,0.022914752,0.0068319724,0.2574917,2.3388855,1.5664651,0.42173097,0.15041313,-0.0035367997,0.31771255,0.27892208,-0.54590094,240.0
48.5,-33.722443,150.67418,0.30288422,35.75357,16.393286,0.02546352,0.0054101055,0.25629494,2.346524,1.5562904,0.06948529,-0.0354308,-0.004038876,0.31602865,0.27819103,-0.51926124,240.0
48.6,-33.72244,150.67418,0.32402587,36.105705,16.510975,0.028260052,0.0035900108,0.255003,2.3797889,1.5661539,-0.049129702,-0.046001967,-0.0042255395,0.29904795,0.26295137,-0.539663,240.0
48.776,-33.722435,150.67418,0.3375488,36.413296,16.61455,0.03145936,0.0012225193,0.25361156,2.3987923,1.5716535,-0.17902504,-0.14429307,-0.0012979283,0.2879064,0.25544024,-0.34494632,240.0
48.976,-33.72243,150.67418,0.35134524,36.977375,16.806778,0.033557594,0.00031029532,0.25361833,2.4085267,1.5792631,-0.095053285,-0.09034194,0.0025106678,0.2881395,0.24343905,-0.12898673,240.0
49.1,-33.722427,150.67418,0.35632062,37.441544,16.963379,0.032421287,0.0023090595,0.25429282,2.392851,1.570641,0.09320717,-0.071199164,0.0010824372,0.3040716,0.24379069,-0.107633695,240.0
49.2,-33.722424,150.67418,0.36568278,37.826195,17.091953,0.030551543,0.005232714,0.25394815,2.3862271,1.5612031,0.06345413,-0.016073398,-0.01338104,0.3131325,0.24603012,-0.11245263,240.0
49.372,-33.72242,150.67418,0.3710034,38.064472,17.168243,0.029207531,0.007127035,0.2527124,2.387426,1.553101,0.27887434,0.07776226,-0.012207468,0.31262326,0.249846,-0.3303319,240.0
49.568,-33.722416,150.67418,0.387078,38.46449,17.298012,0.026193382,0.010714833,0.24987371,2.388311,1.535249,0.11787801,0.019434117,-0.018419335,0.31100836,0.26034817,-0.4546419,240.0
49.7,-33.722412,150.67418,0.39499277,38.83297,17.4263,0.022278288,0.015211308,0.24765818,2.3859253,1.521561,0.18598516,0.053915307,-0.015654411,0.31293964,0.26760697,-0.5037402,240.0
49.8,-33.72241,150.6742,0.3891269,39.31037,17.595228,0.020915711,0.017210577,0.24317323,2.4370618,1.5330812,-0.40868604,-0.18852222,-0.01956411,0.2822293,0.2529217,-0.91224223,240.0
49.964,-33.72241,150.6742,0.38543016,39.614666,17.700838,0.019460484,0.018183436,0.24085441,2.452399,1.5331144,-0.1035967,-0.09419867,-0.016960053,0.269965,0.25063413,-0.8246971,240.0
50.1,-33.722404,150.6742,0.392375,39.881245,17.79439,0.016707113,0.02037837,0.2394933,2.4520788,1.5295073,-0.072708346,-0.0677304,-0.008339363,0.27119318,0.2524055,-0.6857219,240.0
50.296,-33.7224,150.6742,0.40008384,40.403942,17.96989,0.0095723355,0.025918156,0.23883927,2.4443846,1.5196784,0.05969412,-0.014595811,-0.0018121756,0.28298923,0.2538524,-0.50619584,240.0
50.4,-33.722397,150.6742,0.39910364,40.80211,18.100151,0.005226821,0.028717399,0.23816696,2.4457426,1.5132366,0.046204027,-0.0141027635,-0.0066810404,0.28596446,0.25216988,-0.5022029,240.0
50.5,-33.722393,150.6742,0.39507437,41.154827,18.21947,-0.00029632202,0.032359585,0.23765075,2.4361408,1.5044239,0.047427095,0.010583865,-0.0044322317,0.29885373,0.25615612,-0.24829361,240.0
50.692,-33.72239,150.6742,0.39470327,41.403893,18.302889,-0.0037929069,0.03440835,0.2370138,2.4381173,1.5004712,0.08510885,0.024500782,-0.009655438,0.30137116,0.25537962,-0.20118205,240.0
50.8,-33.722385,150.6742,0.3995121,41.86333,18.452389,-0.009301078,0.037181735,0.23554881,2.4400947,1.4903066,0.11854423,0.027586004,-0.012143317,0.30552846,0.25656146,-0.037485577,240.0
50.9,-33.722385,150.6742,0.39322436,42.11353,18.529417,-0.0128033925,0.038905676,0.23434258,2.4385574,1.4813983,0.11734416,0.025445512,-0.01809092,0.30812725,0.26207986,-0.28587142,240.0
51.088,-33.72238,150.6742,0.38600606,42.34937,18.602612,-0.014905454,0.03963683,0.23250389,2.4476116,1.4758425,0.12575668,0.048059706,-0.01453977,0.30301738,0.26359892,-0.27507412,240.0
51.2,-33.722378,150.6742,0.37516838,42.800465,18.742813,-0.017744614,0.03994677,0.2294462,2.4564307,1.4625707,0.11234923,0.0118834665,-0.014123773,0.29834205,0.26919216,-0.3082119,240.0
51.3,-33.722374,150.6742,0.370427,43.072163,18.825825,-0.01930069,0.040083006,0.22803,2.4603417,1.4571294,0.0875845,0.024960337,-0.013687362,0.29715505,0.27054676,-0.47116786,240.0
51.5,-33.722374,150.6742,0.36644977,43.309093,18.894962,-0.02014938,0.039851405,0.22685748,2.4638226,1.450422,0.10684291,0.017283283,-0.014944811,0.29617742,0.27225754,-0.48445725,240.0
51.652,-33.72237,150.67421,0.3393581,43.756184,19.036884,-0.02062171,0.03900155,0.22479142,2.4644725,1.4403163,0.13242914,0.038408887,-0.008714893,0.29818553,0.27515203,-0.39194512,240.0
51.8,-33.722366,150.67421,0.3200835,44.053055,19.125359,-0.020268323,0.037914883,0.22388732,2.465693,1.4319227,0.09800389,0.021942277,-0.0029760997,0.30012462,0.27569845,-0.38307387,240.0
51.9,-33.722363,150.67421,0.3041938,44.41275,19.231,-0.018681413,0.035948485,0.22364731,2.4629633,1.4221249,0.0013241322,-0.037927188,-0.003493984,0.30575967,0.2744329,-0.17018673,240.0
52.076,-33.72236,150.67421,0.28873783,44.78979,19.337372,-0.016158713,0.033801865,0.22373104,2.4579709,1.4112161,-0.06252172,-0.03977462,0.002761968,0.31512117,0.27385283,-0.09369229,240.0
52.2,-33.722355,150.67421,0.2768001,45.267056,19.482183,-0.0110919615,0.030462567,0.22321598,2.4637997,1.4067683,0.16246288,0.09248447,-0.005414612,0.318141,0.26519796,-0.071003154,240.0
52.3,-33.722355,150.67421,0.26366615,45.582123,19.58137,-0.0072782002,0.028124884,0.2225991,2.4683685,1.4057617,0.01592833,-0.015080049,-0.009860442,0.31938368,0.25882143,0.18599522,240.0
52.5,-33.72235,150.67421,0.24802846,45.92059,19.670198,-0.0020206852,0.02393446,0.219967,2.5094707,1.4089264,-0.067629814,-0.07487489,-0.015620184,0.2943829,0.24639954,0.06840265,240.0
52.64,-33.722347,150.67421,0.23694968,46.433914,19.803831,0.0046173627,0.019529685,0.2175805,2.5218422,1.3991255,0.14863276,0.042068522,-0.0013498847,0.28520924,0.24531953,0.13378201,240.0
52.8,-33.722343,150.67421,0.22967869,46.79552,19.899826,0.009322658,0.017346792,0.21758127,2.518616,1.3924191,-0.075556755,-0.03402457,0.004692545,0.29137638,0.2436268,0.13340254,240.0
52.9,-33.72234,150.67421,0.2284671,47.073128,19.976505,0.012845626,0.016009483,0.21790214,2.5075974,1.3844274,-0.026671866,-0.023253737,-0.0012151607,0.30254114,0.24487172,0.26368418,240.0
53.044,-33.722336,150.67421,0.22732574,47.486645,20.096333,0.018461086,0.014100571,0.21778885,2.4927135,1.373702,-0.011337782,-0.028993906,-0.010718096,0.31784663,0.2466282,0.24351847,240.0
53.2,-33.722332,150.67421,0.21412563,47.929962,20.228262,0.024504434,0.013156821,0.21627298,2.4823527,1.3635627,0.12520075,0.024324693,-0.018048767,0.3274147,0.2502826,0.25976405,240.0
53.3,-33.72233,150.67421,0.21064597,48.170204,20.30405,0.028618254,0.011150032,0.21407208,2.5103831,1.3711834,0.0735634,-8.205788e-07,-0.019202804,0.30302244,0.25083703,0.24247484,240.0
53.4,-33.722324,150.67422,0.22573882,48.611744,20.452047,0.034543667,0.008616049,0.21151824,2.51819,1.3752371,-0.019001346,-0.028739017,-0.013103582,0.31293225,0.22974803,0.39612517,240.0
53.596,-33.722324,150.67422,0.23954171,48.861256,20.544739,0.036815614,0.008478333,0.21021079,2.5130126,1.3757617,0.053485427,-0.041202098,-0.014071859,0.32132152,0.22600125,0.41476524,240.0
53.7,-33.72232,150.67422,0.26956338,49.33821,20.712652,0.039340876,0.009330463,0.20705236,2.5064151,1.369428,0.059998948,-0.037640996,-0.019426182,0.33362994,0.2235147,0.4162565,240.0
53.876,-33.722317,150.67422,0.289433,49.61475,20.798826,0.04011661,0.0097664585,0.20386375,2.5063727,1.3579468,0.013802851,-0.008946975,-0.041489843,0.3088037,0.25438485,0.19110137,240.0
53.992,-33.722313,150.67422,0.30808365,49.866524,20.876404,0.04026228,0.0103764245,0.20058069,2.5110426,1.3473173,0.113868505,0.0074173254,-0.029576212,0.3137598,0.2508831,0.00443281,240.0
54.16,-33.72231,150.67422,0.32536662,50.281796,20.987253,0.038836256,0.011930998,0.19633205,2.518285,1.3235445,0.22364339,0.054930557,-0.018875692,0.3266145,0.24240579,-0.009192335,240.0
54.3,-33.72231,150.67422,0.3391279,50.610104,21.074368,0.037019376,0.013179691,0.19396792,2.5218337,1.306886,0.11180044,-0.0048522176,-0.015073087,0.3270982,0.24656026,0.11959078,240.0
54.4,-33.722305,150.67422,0.36224097,50.9229,21.161963,0.03454651,0.014856526,0.19178653,2.5290647,1.2945676,0.12565155,-0.0029646517,-0.0202492,0.32723525,0.24509928,0.034303907,240.0
54.584,-33.7223,150.67422,0.39248145,51.271774,21.267958,0.031060327,0.01671373,0.18924607,2.5261059,1.2802597,0.022886785,-0.03349436,-0.030113932,0.3170306,0.2644797,0.016745571,240.0
54.6,-33.7223,150.67422,0.4124611,51.542347,21.352352,0.027517112,0.018578844,0.18657552,2.5274518,1.2707608,0.09058537,-0.013870423,-0.024850411,0.32445052,0.26084945,-0.02328359,240.0
54.784,-33.722298,150.67422,0.42205262,51.776726,21.42316,0.024070865,0.02006428,0.18450506,2.5257163,1.2609425,-0.16214275,-0.14284575,-0.0178514,0.34465033,0.24728508,0.14224558,240.0
54.948,-33.722294,150.67422,0.4310766,52.222103,21.545267,0.01684322,0.022709351,0.17988308,2.5343616,1.2384015,0.14361352,-0.0215171,-0.02661571,0.32881814,0.26681513,0.011684817,240.0
55.072,-33.72229,150.67422,0.43107456,52.48988,21.613686,0.0115949195,0.024633111,0.176887,2.5407927,1.2230941,0.12080108,-0.0012872341,-0.027976358,0.3261327,0.27154142,0.03766398,240.0
55.2,-33.722286,150.67422,0.4302225,52.88075,21.713966,0.007496136,0.024703328,0.17303048,2.5838895,1.2198124,0.18204153,0.0064103436,-0.03042762,0.30891258,0.26021093,-0.40581718,240.0
55.376,-33.722282,150.67424,0.42550153,53.349438,21.841473,0.0017026513,0.024298012,0.16864526,2.391342,1.1361547,-2.6825075,-0.97711486,-0.010459334,-1.0,-1.0,-0.41236186,240.0
55.5,-33.72228,150.67424,0.4206444,53.671474,21.935438,-0.0040199733,0.023691699,0.1688911,2.0508268,1.0128602,-2.0620115,-0.76703256,0.0075483057,-1.0,-1.0,-0.105874546,240.0
55.6,-33.72228,150.67424,0.4167992,53.98554,22.028608,-0.010551011,0.025559181,0.19028132,2.2062125,1.1311438,3.030203,1.0829285,0.3481377,-0.5567265,-0.99999994,0.17244759,240.0
55.772,-33.722275,150.67424,0.41251218,54.188343,22.081907,-0.013537256,0.027898826,0.21677771,1.9944341,1.098805,-1.9537895,-0.94887525,0.20182648,-0.7578082,-1.0,0.18919148,240.0
55.948,-33.72227,150.67424,0.40000093,54.547493,22.172256,-0.016937966,0.031114615,0.25953758,1.9255999,1.1700736,-1.7938614,-1.065853,0.25700447,-0.6915946,-1.0,0.20049582,240.0
56.1,-33.722267,150.67424,0.38246244,54.947784,22.276733,-0.019017259,0.032357205,0.3016464,1.9194481,1.2906013,2.5015206,1.9337838,0.3525036,-0.5838542,-1.0,-0.058092393,240.0
56.2,-33.722267,150.67424,0.3519206,55.22744,22.35794,-0.019419096,0.03678912,0.34085286,1.7210011,1.2535152,-1.3580406,-1.065605,0.18625036,-1.0,1.0,-0.18595949,240.0
56.368,-33.722263,150.67424,0.32507038,55.405933,22.411535,-0.0194161,0.032853846,0.37430578,1.8044242,1.440494,-1.5856133,-1.4440854,0.34370843,-0.5875499,-1.0,-0.23292133,240.0
56.5,-33.722263,150.67424,0.29034394,55.763885,22.519545,-0.01643335,0.031673152,0.4164423,1.7518568,1.5510321,1.9553963,2.6751323,0.32655007,-0.60813993,-1.0,-0.25996774,240.0
56.656,-33.72226,150.67424,0.25868005,56.053787,22.607676,-0.01343051,0.031969137,0.46500736,1.591353,1.5452145,-1.1929824,-1.4183065,0.2608752,-1.0,1.0,-0.44493914,240.0
56.8,-33.722256,150.67424,0.23896313,56.260227,22.670652,-0.01103182,0.035836842,0.49812534,1.6997532,1.872042,1.3755214,2.5488625,0.41066822,-0.5071981,-1.0,-0.1853345,240.0
56.896,-33.722256,150.67424,0.22119391,56.5127,22.749767,-0.0075785113,0.0374712,0.5328386,1.5347632,1.7817401,-1.043139,-1.5545048,0.25073302,-0.69912034,-0.99999994,-0.17764394,240.0
57.092,-33.72225,150.67424,0.18821406,56.88569,22.865076,-0.0034883888,0.025226936,0.5857873,1.4461085,2.0152745,0.12953378,0.79583937,0.46464157,-0.43423843,-1.0,-0.45043957,240.0
57.2,-33.722248,150.67424,0.17076081,57.219265,22.983158,0.0019682539,0.030462313,0.64544696,1.2681135,2.0993943,0.9301897,4.123382,0.4288899,-0.52625376,-0.99999994,-0.28543672,240.0
57.3,-33.722248,150.67424,0.16291642,57.4506,23.086529,0.006509889,0.026765458,0.68225425,1.1257544,2.0225108,-0.6503548,-1.7668126,0.21982734,-0.73620725,-1.0,-0.2611416,240.0
57.5,-33.722244,150.67424,0.15670162,57.614826,23.158289,0.008933359,0.020017574,0.7004214,1.0209278,1.8670602,-0.5770395,-1.5954014,0.17100595,-1.0,1.0,-0.2966825,240.0
57.688,-33.72224,150.67426,0.152318,57.968857,23.338627,0.014006269,0.016236905,0.7709598,0.829085,2.1814032,-0.3359276,-1.945064,0.29424515,-0.64690584,-1.0,-0.23084593,240.0
57.8,-33.72224,150.67426,0.15528655,58.2437,23.48293,0.017165449,0.015512971,0.8157393,0.6432109,2.3215742,-1.4755634,2.0654342,0.37354097,-0.5195289,-0.99999994,-0.42686337,240.0
57.9,-33.722237,150.67426,0.16807735,58.52045,23.65753,0.020612406,0.008205567,0.87982804,0.43622157,2.2851486,-0.0048629767,-1.9956193,0.2769038,-1.0,1.0,-0.18925372,240.0
58.1,-33.722237,150.67426,0.17547548,58.69413,23.767595,0.021055058,0.005967857,0.9166286,0.23559853,2.5412276,-0.15750846,0.8303882,0.3912127,-0.53054476,-1.0,-0.24200352,240.0
58.28,-33.722233,150.67426,0.18931192,59.057995,24.008173,0.02103265,0.0034174502,0.98184466,-0.03140352,2.4890046,0.42797303,-2.1745136,0.4261142,-0.51537853,-0.99999994,-0.089896336,240.0
58.4,-33.72223,150.67426,0.2102344,59.35633,24.22006,0.020942532,-0.0034414914,1.0355101,-0.25232002,2.4294608,-1.7956765,3.4934275,0.41158718,-0.5536818,-1.0,0.12332239,240.0
58.5,-33.72223,150.67426,0.21782374,59.58649,24.407255,0.020274768,-0.0029327066,1.0899909,-0.3628157,2.2257133,0.5809408,-1.7982774,0.28220883,-1.0,1.0,0.20603238,240.0
58.7,-33.722225,150.67427,0.23516935,59.819805,24.595387,0.019966878,-0.006087957,1.1362618,-0.6375351,2.3092518,0.938833,-1.8862873,0.374537,-1.0,1.0,0.49223432,240.0
58.876,-33.72222,150.67427,0.2474783,60.12911,24.863424,0.018660177,-0.007620219,1.1980683,-0.8645717,2.2303076,1.002614,-1.6551031,0.33860344,-1.0,0.95809627,0.42280883,240.0
59.0,-33.722218,150.67427,0.26880676,60.554638,25.269806,0.024652762,-0.018086076,1.2498373,-1.2628355,2.4100227,1.1650347,-1.4842522,0.3453791,-0.58554506,-1.0,0.27880234,240.0
59.1,-33.722218,150.67427,0.29269576,60.844307,25.561594,0.022319315,-0.023775963,1.284118,-1.2340658,2.2332928,0.91468114,-1.2638146,0.19104633,-0.7707444,-0.99999994,0.19429223,240.0
59.3,-33.722214,150.67427,0.32146198,61.05138,25.776884,0.017344652,-0.020183159,1.3101934,-1.2853371,2.0970924,-2.2683027,0.75486434,0.23184404,-0.99999994,0.47088522,0.28740743,240.0
59.468,-33.722214,150.67429,0.34743273,61.274117,26.042898,0.012485904,-0.008520838,1.3576952,-1.4307473,1.9419906,0.9060796,-0.9578776,0.20469216,-1.0,0.1724317,0.15083188,240.0
59.6,-33.72221,150.67429,0.37146884,61.471245,26.297937,0.010701062,-0.0066941176,1.3913645,-1.4384248,1.7516389,0.69595516,-0.8030914,0.167793,-0.010180891,1.0,0.3699414,240.0
59.8,-33.72221,150.67429,0.39817846,61.651375,26.568222,0.007982806,0.0031485625,1.4509201,-2.1956496,1.746448,-3.3466587,0.33985153,0.42434427,0.28160566,0.62542933,0.3352939,240.0
59.9,-33.722206,150.67429,0.4130491,61.892624,27.03849,0.007809507,0.0037255536,1.5165423,-2.694545,1.5648766,-0.97182864,-0.41197613,0.274697,0.24856958,0.3030205,0.46990684,240.0
60.1,-33.722206,150.67429,0.41831118,61.98711,27.2751,0.0061201826,0.008287999,1.5434937,-2.7793164,1.42016,-0.8020776,-0.42616913,0.23131657,0.30776003,0.23970017,0.30369937,240.0
60.2,-33.722206,150.6743,0.41840428,62.091698,27.589457,0.004950479,0.014891841,1.5663674,-2.8448603,1.2529155,-0.4221303,-0.24073075,0.12617633,0.31212825,0.23425122,0.04626879,240.0
60.392,-33.722202,150.6743,0.4068843,62.227467,28.0505,0.0060972213,0.020827312,1.5796707,-2.9126086,1.0897979,-0.4575877,-0.61393434,0.040677752,0.28061903,0.22849989,-0.21163552,240.0
60.5,-33.722202,150.6743,0.40003133,62.33615,28.4985,0.0053784107,0.027497763,1.5854543,-2.8975303,0.9395867,-0.1270966,-0.5228348,0.032609303,0.2973956,0.23726273,-0.47491887,240.0
60.672,-33.722202,150.6743,0.39004225,62.390606,28.765585,0.0048017395,0.030564519,1.5882293,-2.8942199,0.8583123,0.009988502,-0.4244438,-0.014034419,0.28613025,0.25611335,-0.25309366,240.0
60.8,-33.722202,150.67432,0.37499082,62.45282,29.130041,0.0044963183,0.03684623,1.5894896,-2.8859205,0.7564409,-0.43175042,-0.43467066,0.021656396,0.2874182,0.261262,-0.119192995,240.0
60.988,-33.722202,150.67432,0.36563063,62.51103,29.46674,0.003936811,0.040727858,1.5910417,-2.875431,0.6722169,-0.16597465,-0.35646263,-0.0049246913,0.2918268,0.26989344,-0.022336703,240.0
61.1,-33.722202,150.67432,0.36395246,62.573742,29.903275,0.003701449,0.045160588,1.5938848,-2.8525057,0.56745756,-0.21891893,-0.28779125,0.0022746527,0.30724007,0.2784012,0.21949328,240.0
61.3,-33.7222,150.67432,0.35759813,62.610226,30.169024,0.004028587,0.048281215,1.5941753,-2.8518322,0.51626474,-0.5089173,-0.2935495,0.013936322,0.3031146,0.28185624,-0.073204875,240.0
61.4,-33.7222,150.67433,0.33768213,62.654064,30.532011,0.0042522745,0.049782783,1.5948492,-2.83912,0.4534828,0.06547204,-0.28579825,-0.017661048,0.3057117,0.2886476,-0.104310706,240.0
61.58,-33.7222,150.67433,0.31333834,62.7,30.89569,0.0042897714,0.05227541,1.5960335,-2.8256576,0.39298528,-0.47418886,-0.3952596,0.033698343,0.33039537,0.2785084,-0.037577033,240.0
61.7,-33.7222,150.67433,0.28826433,62.78692,31.439774,0.0075016525,0.04958753,1.6008092,-2.8954484,0.35471693,0.1248846,-0.30342662,0.016771592,0.28238678,0.25888908,0.109346114,240.0
61.888,-33.7222,150.67435,0.27242386,62.83944,31.804329,0.008664387,0.04816038,1.602582,-2.9013832,0.32816213,0.3339918,-0.25946853,-7.427233e-05,0.27857774,0.25647753,-0.15939757,240.0
62.0,-33.7222,150.67435,0.24979287,62.890266,32.28893,0.009121874,0.04858872,1.6036611,-2.8953302,0.28277194,0.13826719,-0.15982561,-0.010944443,0.2938649,0.24502343,0.012873132,240.0
62.176,-33.7222,150.67435,0.22681457,62.920628,32.68069,0.009839945,0.047615707,1.6036187,-2.896464,0.2501494,0.25001758,-0.1619535,-0.024458973,0.25533688,0.2801001,-0.39934188,240.0
62.3,-33.7222,150.67436,0.19182175,62.962234,33.15275,0.011304019,0.045465548,1.6049843,-2.9037683,0.21030255,-0.10438558,-0.16684452,0.012029667,0.26282838,0.26264343,-0.38467997,240.0
62.5,-33.7222,150.67436,0.17350245,62.995132,33.53702,0.011670937,0.043503333,1.6057991,-2.8974905,0.1801151,-0.17266776,-0.090166695,0.005967575,0.26258135,0.26688802,-0.057013202,240.0
62.6,-33.722195,150.67436,0.1536423,63.034977,33.990513,0.011779368,0.04107127,1.6071551,-2.8843386,0.14420955,-0.18079008,-0.28645098,0.033852078,0.26563853,0.2739398,-0.20433232,240.0
62.768,-33.722195,150.67436,0.13235682,63.075916,34.33668,0.011275394,0.03866442,1.6089611,-2.8766944,0.121801116,-0.3119654,-0.13721402,0.031631906,0.28792942,0.2585075,-0.3894736,240.0
62.9,-33.722195,150.67438,0.11974299,63.12875,34.78627,0.011403341,0.034319617,1.6110976,-2.8820708,0.10019842,0.011071933,-0.2243415,-0.0016831747,0.26433593,0.2751842,-0.31232142,240.0
63.1,-33.722195,150.67438,0.1075207,63.173958,35.190777,0.011780875,0.02990462,1.6138945,-2.8889582,0.0782224,-0.085107,-0.045252465,0.017002787,0.2628525,0.2698565,-0.27801862,240.0
63.2,-33.722195,150.67438,0.11106974,63.215828,35.67497,0.011105711,0.025790323,1.6137284,-2.8718996,0.056138806,-0.2800176,-0.21783654,0.020783693,0.27315557,0.2723403,-0.2341228,240.0
63.4,-33.722195,150.6744,0.11359531,63.23652,35.943176,0.011233736,0.022198614,1.6162494,-2.881446,0.041013006,0.18152978,-0.08271378,-0.010055533,0.26048857,0.27503854,-0.46377543,240.0
63.5,-33.722195,150.6744,0.12202358,63.260876,36.266308,0.010663658,0.019026767,1.6158521,-2.869993,0.02739819,0.19972846,-0.09036057,-0.024610909,0.25876814,0.2818821,-0.60071105,240.0
63.692,-33.722195,150.6744,0.14444804,63.277252,36.694866,0.009523318,0.014866482,1.6143451,-2.8520472,0.0056613362,-0.09129387,-0.046424184,-0.008620952,0.25532293,0.30433118,-0.27563888,240.0
63.8,-33.722195,150.6744,0.15778631,63.296616,37.16871,0.008507734,0.0101696,1.6166881,-2.8412406,-0.02349335,0.036773175,-0.036265463,0.0027034178,0.2623694,0.306275,-0.4381291,240.0
63.976,-33.722195,150.67441,0.16392398,63.31368,37.434544,0.0075748893,0.007585584,1.618455,-2.8300285,-0.039564207,-0.32503104,-0.073090084,0.04003569,0.29371127,0.28534177,-0.30193996,240.0
64.1,-33.722195,150.67441,0.17397511,63.327824,37.66151,0.0067369095,0.0055055255,1.6196507,-2.8174276,-0.050036695,0.047042374,-0.17903882,0.018855004,0.27638036,0.3147288,0.07310851,240.0
64.288,-33.722195,150.67441,0.19131124,63.34982,38.130566,0.005416477,0.0014784819,1.6235408,-2.8121285,-0.08099943,-0.016978502,-0.20888263,0.015505487,0.2856555,0.30933034,-0.09187821,240.0
64.4,-33.722195,150.67441,0.20520186,63.36782,38.531963,0.0042131883,-0.0015704819,1.6278809,-2.816975,-0.108765334,-0.015542833,-0.11180227,0.03782508,0.31655222,0.2758053,-0.025760524,240.0
64.5,-33.722195,150.67442,0.22300875,63.38005,38.903828,0.0031338597,-0.0038020678,1.6292382,-2.8081338,-0.1251882,0.2231413,-0.097097546,0.008369638,0.2962973,0.30031526,0.29697457,240.0
64.684,-33.722195,150.67442,0.23490304,63.386383,39.171024,0.0024123334,-0.0050838725,1.6304399,-2.8074725,-0.1398035,-0.2168656,-0.03695222,-0.0016661171,0.2971062,0.29898685,0.10099773,240.0
64.88,-33.722195,150.67442,0.25238907,63.396664,39.6797,0.00081964105,-0.007109303,1.6312536,-2.7960806,-0.15819846,-0.039484277,0.06565528,-0.01629747,0.29882511,0.3059545,0.25707623,240.0
65.0,-33.722195,150.67444,0.26180375,63.402718,40.146564,-0.0004642473,-0.0074956114,1.6335506,-2.7865102,-0.1816195,0.07169335,-0.0447859,0.004340482,0.30524147,0.30775213,0.34740248,240.0
65.1,-33.722195,150.67444,0.26802254,63.411568,40.507854,-0.00087856274,-0.008169649,1.6405042,-2.8191411,-0.21090582,-0.13562334,-0.056841146,0.02704784,0.32481498,0.25441712,0.53508,240.0
65.3,-33.722195,150.67444,0.2683413,63.417233,40.821026,-0.0008536823,-0.009435434,1.6485862,-2.8316007,-0.23796317,0.2415471,-0.13617367,0.016952068,0.32719618,0.23891385,0.68453115,240.0
65.476,-33.722195,150.67444,0.2672661,63.42188,41.42261,-0.001727546,-0.008797487,1.6475629,-2.8338387,-0.24641155,-0.10217301,-0.15013324,-0.0067946822,0.3040064,0.2597056,0.53238785,240.0
65.6,-33.722195,150.67445,0.2768485,63.417057,41.8926,-0.0024353235,-0.006708279,1.6406999,-2.8217776,-0.23681535,0.21924177,-0.08747212,-0.030083446,0.2719866,0.30088305,0.48970094,240.0
65.7,-33.722195,150.67445,0.2853799,63.41066,42.269352,-0.0027624597,-0.0040964754,1.6382542,-2.8196127,-0.24134976,-0.03962044,-0.17573836,0.007843592,0.27839333,0.29518348,0.33232012,240.0
65.9,-33.722195,150.67445,0.2839777,63.401196,42.6032,-0.0029428923,-0.0018636199,1.6389232,-2.8168573,-0.2519034,0.15653034,-0.119500846,-0.0018327134,0.27773497,0.29314056,0.14108494,240.0
66.068,-33.722195,150.67447,0.2861873,63.385612,43.06247,-0.0033568654,0.0021234169,1.6391035,-2.8005898,-0.26546934,0.2552426,-0.027734727,-0.0037836463,0.28405362,0.30542952,0.37685728,240.0
66.2,-33.722195,150.67447,0.2966401,63.376247,43.470184,-0.0038354278,0.0075940127,1.64115,-2.785454,-0.28278303,-0.30377653,-0.023823686,0.028040176,0.31146222,0.29147202,0.46753904,240.0
66.4,-33.722195,150.67447,0.30075514,63.37364,43.89112,-0.0033925015,0.009282731,1.6533351,-2.8226917,-0.32437703,0.058523282,0.006366638,0.019540759,0.31279716,0.25124577,0.5795212,240.0
66.5,-33.722195,150.67448,0.30577976,63.364227,44.41268,-0.0030466008,0.014253173,1.6561052,-2.81994,-0.33925378,-0.024888614,0.0069474233,-0.006839976,0.3223624,0.24715558,0.69205666,240.0
66.6,-33.722195,150.67448,0.312065,63.36202,44.718258,-0.0028749236,0.018284643,1.6533496,-2.812399,-0.3352908,-0.20509697,-0.069593966,0.012818808,0.30925035,0.2637242,0.9247735,240.0
66.796,-33.722195,150.67448,0.31732404,63.359013,44.986614,-0.002574012,0.021235492,1.6526444,-2.8128526,-0.33421835,0.25219053,-0.021246426,-0.015754487,0.30336025,0.2697731,0.8566841,240.0
66.992,-33.722195,150.67448,0.32901353,63.34459,45.533905,-0.0016716731,0.02639885,1.6549262,-2.8207848,-0.34836054,0.25451532,-0.0482628,-0.007836295,0.30186957,0.2629611,0.68743336,240.0
67.1,-33.722195,150.6745,0.34337008,63.336945,45.91499,-0.0011839707,0.032058567,1.6537211,-2.8172913,-0.34687865,-0.29908335,-0.17763932,0.01460153,0.2959656,0.27538913,0.52227306,240.0
67.2,-33.722195,150.6745,0.35249454,63.324,46.338997,-0.0005172294,0.03714848,1.6514798,-2.810593,-0.34123546,0.23548725,-0.034328934,-0.010665402,0.28710037,0.29124624,0.4761957,240.0
67.388,-33.722195,150.6745,0.35392487,63.3149,46.572704,2.7070004e-05,0.04084143,1.6510651,-2.8036397,-0.34393752,-0.31236026,-0.022266628,0.010355999,0.28726304,0.2986498,0.73946977,240.0
67.5,-33.722195,150.6745,0.3605448,63.291157,47.03383,0.0012028103,0.046125438,1.6531107,-2.8045306,-0.35781142,-0.40405762,-0.098013386,0.018311156,0.29103285,0.2940033,0.8239381,240.0
67.7,-33.722195,150.67451,0.3542866,63.269398,47.3927,0.0021771905,0.048627462,1.6570181,-2.8057284,-0.37618923,-0.23017535,0.02148265,0.038956497,0.3307628,0.255104,0.7497793,240.0
67.8,-33.722195,150.67451,0.33831602,63.232914,47.88148,0.003292008,0.052663546,1.6576093,-2.8062992,-0.38766992,-0.42340693,-0.13955984,0.0076165344,0.31845394,0.26596424,0.6625385,240.0
67.984,-33.722195,150.67451,0.32529032,63.21797,48.1292,0.0037993796,0.05458343,1.656221,-2.7974901,-0.3840053,0.16254014,-0.071996614,0.0052852156,0.30163407,0.29007447,0.32317105,240.0
68.136,-33.722195,150.67453,0.2922418,63.190556,48.611996,0.0047421153,0.056987643,1.6573813,-2.800077,-0.39202923,0.16136788,-0.052984882,0.0012257602,0.30136293,0.28776544,0.64732736,240.0
68.3,-33.722195,150.67453,0.2665497,63.17693,49.044178,0.00532527,0.05668407,1.66424,-2.8240972,-0.41552487,-0.09797937,-0.15586442,0.012690929,0.30755422,0.25687876,0.8047749,240.0
68.4,-33.722195,150.67453,0.23868471,63.158825,49.51378,0.0058513177,0.056868102,1.6627083,-2.818894,-0.410433,0.3945589,0.017340738,-0.006530124,0.2828869,0.2825646,0.7588286,240.0
68.576,-33.722195,150.67453,0.22205967,63.141266,49.786465,0.00623683,0.057186816,1.6608125,-2.8119173,-0.4095205,-0.10125898,0.022220248,-0.015992941,0.29365736,0.28171927,0.84082204,240.0
68.776,-33.722195,150.67455,0.18248463,63.111977,50.31556,0.0067463955,0.055900615,1.6616169,-2.8196297,-0.41774023,0.10428816,-0.025254132,-0.0140156,0.30049422,0.2655941,0.53840333,240.0
68.9,-33.722195,150.67455,0.161416,63.086147,50.833706,0.006895633,0.052471105,1.6650258,-2.8396463,-0.43480232,-0.26631868,-0.07676052,0.006721636,0.28314295,0.26337716,0.6149083,240.0
69.0,-33.722195,150.67455,0.15006733,63.057644,51.249325,0.0068574175,0.048601292,1.6678704,-2.8540525,-0.44988567,-0.0012656916,0.043707456,-0.007742932,0.28006393,0.24403004,0.7081572,240.0
69.172,-33.722195,150.67456,0.13917905,63.037872,51.515553,0.0067675947,0.04694869,1.6660151,-2.8385978,-0.44554976,0.12189734,-0.08232088,0.008208113,0.279276,0.2595923,0.37624273,240.0
69.368,-33.7222,150.67456,0.10958123,62.99752,52.01002,0.006532534,0.043289144,1.6619985,-2.822156,-0.44156095,-0.1082647,-0.14218034,0.017986687,0.26988524,0.27991074,0.4325014,240.0
69.5,-33.7222,150.67456,0.08771247,62.954887,52.456722,0.006193805,0.038337983,1.6626663,-2.812359,-0.45126206,0.18855084,-0.03639706,0.008389491,0.2760355,0.28345698,0.45396036,240.0
69.6,-33.7222,150.67458,0.0766902,62.93503,52.801052,0.0055705467,0.03432953,1.6631072,-2.8056521,-0.45532227,-0.08376483,-0.13708778,0.023570022,0.28990263,0.27408308,0.43277845,240.0
69.8,-33.7222,150.67458,0.073152065,62.91917,53.135193,0.004747437,0.029324641,1.6658322,-2.8176436,-0.46659836,0.06293772,-0.091208935,0.014636844,0.27232337,0.27868783,0.67662853,240.0
69.9,-33.7222,150.67458,0.067388535,62.89857,53.613003,0.0036652163,0.022292973,1.6701927,-2.8327923,-0.4823842,0.12611017,0.10790968,-0.0148046855,0.28301,0.24867952,0.5006443,240.0
70.096,-33.7222,150.67458,0.056817293,62.88255,53.903484,0.0033203033,0.01830738,1.6694671,-2.5983725,-0.4361934,2.5394092,0.4992801,0.0064703664,-1.0,-1.0,0.36253142,240.0
70.2,-33.7222,150.67459,0.037215233,62.848686,54.272346,0.0023850945,0.007959253,1.6672933,-2.1715918,-0.3551901,1.8267175,0.35694146,0.0010047386,1.0,-1.0,0.25221366,240.0
70.4,-33.7222,150.67459,0.03770715,62.83199,54.472775,0.001012716,0.003701626,1.6494658,-2.4290564,-0.35271564,-3.8860602,-0.4249029,-0.34995785,-0.99999994,-0.5800505,-0.06380072,240.0
70.5,-33.7222,150.67459,0.03840673,62.809227,54.703453,0.00013320167,0.00054664334,1.6171612,-2.2536163,-0.26122728,2.0250318,0.1486366,-0.21194395,-1.0,-0.7345071,0.06768174,240.0
70.688,-33.7222,150.67459,0.06137395,62.75827,55.027298,0.0001413059,-0.00082573213,1.5729965,-2.3628232,-0.15864398,-0.7050665,-0.14079417,-0.3771047,-1.0,-0.51072073,-0.08224094,240.0
70.8,-33.7222,150.67459,0.07982916,62.72679,55.33254,0.0012191295,-0.011967505,1.5251971,-2.3377557,-0.033028778,-3.027571,0.30474767,-0.3929568,-1.0,-0.53891534,-0.16978033,240.0
70.9,-33.7222,150.67459,0.09879881,62.70852,55.57891,0.0026109526,-0.017377378,1.4811404,-2.1969547,0.05237173,2.0775554,-0.30107722,-0.21442592,1.0,-1.0,0.20253056,240.0
71.084,-33.7222,150.6746,0.1165784,62.694813,55.762768,0.0032014055,-0.011803267,1.4472377,-2.3816504,0.19567221,2.2316697,-0.57123244,-0.4383641,-1.0,-0.47396305,0.08980297,240.0
71.284,-33.7222,150.6746,0.14037097,62.681366,56.10657,0.00418948,-0.016128106,1.3890592,-2.3242967,0.3657598,-2.754646,1.5058585,-0.46374026,-1.0,-0.47294238,-0.31350887,240.0
71.4,-33.7222,150.6746,0.18192768,62.69347,56.46817,0.0057928334,-0.019667443,1.3306333,-2.2626152,0.54411316,-2.3646417,1.5657655,-0.42403287,1.0,-1.0,-0.23206258,240.0
71.5,-33.7222,150.6746,0.20485562,62.700397,56.73389,0.007904046,-0.022528335,1.2811788,-2.1517684,0.64041,1.9844286,-1.0277977,-0.25071058,1.0,-1.0,-0.094978586,240.0
71.68,-33.7222,150.6746,0.22000957,62.70403,56.965164,0.009176097,-0.014533999,1.2453952,-2.3202052,0.89865595,-1.9695876,1.9365367,-0.4874904,-0.99999994,-0.41501147,-0.11080617,240.0
71.852,-33.7222,150.67462,0.23822391,62.70833,57.429493,0.010685774,-0.017914897,1.1944494,-2.0021389,0.8243271,1.5920513,-1.0622418,-0.16229996,1.0,-1.0,0.1880475,240.0
72.0,-33.7222,150.67462,0.26437426,62.746716,57.857464,0.011184647,-0.010273009,1.1235161,-2.062005,1.2123975,1.5938138,-1.4587294,-0.33100402,-0.99999994,-0.58210164,0.011175758,240.0
72.1,-33.7222,150.67462,0.2742952,62.78782,58.122944,0.010409983,-0.009182968,1.0903552,-2.0254126,1.3928996,-1.2706454,2.622908,-0.40096557,-1.0,-0.51884127,0.23836093,240.0
72.3,-33.7222,150.67462,0.2878732,62.843243,58.41271,0.009751799,-0.0060337777,1.0563027,-1.8395935,1.3417838,1.3482919,-1.4591863,-0.18075415,1.0,-1.0,0.08139625,240.0
72.472,-33.7222,150.67464,0.31089288,62.915375,58.806976,0.008239174,-0.0050062486,1.0114932,-1.8335731,1.7141834,-0.761529,2.8295467,-0.48098135,-1.0,-0.42282242,0.037021898,240.0
72.6,-33.722195,150.67464,0.32176036,63.012646,59.230858,0.0058500553,0.0039876085,0.9594147,-1.6778381,1.864383,-0.46592826,3.0324547,-0.429247,-1.0,-0.48490357,-0.1920636,240.0
72.8,-33.722195,150.67464,0.32604468,63.10952,59.57026,0.0024028716,0.010229404,0.9117405,-1.4625539,1.8083452,0.8416281,3.3830762,-0.18089637,1.0,-1.0,0.040993758,240.0
72.9,-33.722195,150.67465,0.32725084,63.229706,59.910988,-0.002116909,0.016625093,0.8629386,-1.2711476,1.8433181,0.7189821,-1.6071553,-0.16788492,1.0,-1.0,0.11390981,240.0
73.064,-33.722195,150.67465,0.32801712,63.306007,60.117027,-0.005208098,0.0191336,0.8341733,-1.1846488,2.2059226,0.3520247,3.9303715,-0.42667356,-1.0,-0.48799175,0.07624228,240.0
73.2,-33.72219,150.67465,0.33185363,63.455208,60.464287,-0.010570559,0.027310831,0.7789502,-0.9549749,2.3311822,0.8475308,3.4744995,-0.4427453,-1.0,-0.62950563,0.051503155,240.0
73.396,-33.72219,150.67465,0.31949556,63.600365,60.764233,-0.015369432,0.031140625,0.732469,-0.7883229,2.3388898,0.2793355,-2.0343933,-0.22523198,-1.0,-0.72972155,-0.15291013,240.0
73.5,-33.72219,150.67465,0.2966516,63.782814,61.14623,-0.020565791,0.030473657,0.6932268,-0.5824977,2.415832,1.442525,4.024161,-0.4291678,-1.0,-0.48499864,-0.2609764,240.0
73.7,-33.722187,150.67467,0.28305143,63.923035,61.415253,-0.024321541,0.034405287,0.65355563,-0.46083748,2.3313055,0.010394335,-1.7949681,-0.23899437,0.7875824,-1.0,-0.09851927,240.0
73.8,-33.722187,150.67467,0.24400401,64.14407,61.800777,-0.030320505,0.03851791,0.6039276,-0.23742205,2.3876262,-0.18299235,-1.869939,-0.17797805,0.5496011,-1.0,0.43396804,240.0
73.988,-33.722187,150.67467,0.2239567,64.26367,62.00363,-0.033483025,0.036494277,0.5774411,-0.090121046,2.415192,1.027932,0.71221757,-0.2924022,0.27867603,-1.0,0.54379445,240.0
74.1,-33.722183,150.67467,0.18451369,64.472824,62.329376,-0.037461817,0.03936097,0.5303206,0.08409573,2.3120747,0.13700876,-0.8462065,-0.20158337,0.10583496,-1.0,0.5570678,240.0
74.296,-33.722183,150.67467,0.15552187,64.60461,62.523342,-0.03887746,0.040424667,0.51039284,0.12228717,2.1646745,-0.06794809,-1.0625598,-0.13225892,1.0,-0.07635796,0.16894135,240.0
74.4,-33.72218,150.67468,0.11881536,64.81149,62.777355,-0.04108435,0.04314025,0.46074486,0.6576019,2.572344,2.939762,3.3917437,-0.40788114,0.7253124,0.31323498,0.2349587,240.0
74.584,-33.72218,150.67468,0.08232421,65.06751,63.022476,-0.04276219,0.041355755,0.4076865,1.0944802,2.7609622,1.3382822,0.8927592,-0.2729805,0.45557857,0.21277893,0.22457793,240.0
74.7,-33.722176,150.67468,0.042819023,65.462326,63.36135,-0.041645773,0.038949896,0.3663974,1.3582312,2.698953,0.6116377,0.025943117,-0.14355783,0.37731874,0.22889829,0.22561906,240.0
74.888,-33.72217,150.67468,0.029923797,65.73117,63.573566,-0.039511792,0.036962822,0.3487831,1.4749023,2.6339076,0.3208702,-0.2747767,-0.11105285,0.3451347,0.25519505,0.24073249,240.0
75.0,-33.722168,150.67468,0.0017910004,66.11224,63.855865,-0.035783682,0.035820365,0.33383676,1.5973238,2.5466776,0.25832745,-0.51059425,-0.07800236,0.34616986,0.24658202,0.2310696,240.0
75.176,-33.722164,150.67468,-0.020786881,66.41241,64.06757,-0.0321287,0.035219748,0.32645932,1.6740302,2.4895184,0.23263165,-0.50051713,-0.07437475,0.30773368,0.26700923,0.10814551,240.0
75.332,-33.72216,150.6747,-0.045652747,66.85931,64.37397,-0.026152177,0.031290375,0.32126138,1.752253,2.4211822,0.11719038,-0.5378592,-0.017223075,0.3483411,0.21340132,0.16642295,240.0
75.5,-33.722157,150.6747,-0.06955615,67.39663,64.739975,-0.02044357,0.026137872,0.31925866,1.8467834,2.4405215,0.1445337,-0.24569143,-0.0070190053,0.3091087,0.16756478,0.2856156,240.0
75.6,-33.722153,150.6747,-0.08794385,67.8116,65.00385,-0.013564131,0.021999706,0.313544,1.8863037,2.3879306,0.0035246892,-0.5481798,-0.07441924,0.27951804,0.19944331,0.43234774,240.0
75.8,-33.72215,150.6747,-0.10422966,68.16092,65.215935,-0.0075175497,0.021053,0.30764592,1.91291,2.3204195,0.12681548,-0.48043844,-0.058655728,0.32804307,0.17204931,0.2502169,240.0
75.968,-33.722145,150.6747,-0.11719555,68.57269,65.4574,0.0010172591,0.020546831,0.30075678,1.9671816,2.2622936,0.47978815,-0.104244284,-0.039432354,0.2972456,0.20400193,0.02696534,240.0
76.1,-33.72214,150.67471,-0.13047713,68.98508,65.6749,0.008528854,0.01740899,0.2931779,2.016396,2.1962314,0.18049234,-0.09878927,-0.0083081275,0.31108376,0.19591798,-0.24045932,240.0
76.3,-33.72214,150.67471,-0.12249097,69.35928,65.86926,0.015352856,0.015509494,0.2879262,2.071062,2.156687,0.3854924,-0.19743764,-0.015179624,0.30268252,0.19953655,-0.34962997,240.0
76.4,-33.722134,150.67471,-0.08862555,69.83623,66.11249,0.021988701,0.0120083075,0.28067297,2.1241908,2.108215,0.2516866,-0.21362121,0.0013483132,0.28116196,0.20055217,-0.10220156,240.0
76.576,-33.722134,150.67471,-0.06362826,70.05964,66.223724,0.02550655,0.011305736,0.27897355,2.1250567,2.0718794,-0.03607832,-0.2059739,-0.007068725,0.29218966,0.20747977,-0.024113467,240.0
76.7,-33.72213,150.67471,-0.02888298,70.34509,66.3642,0.029320708,0.011171741,0.27737126,2.1315548,2.032663,0.1639509,-0.04778225,-0.02254098,0.2751821,0.23742941,-0.031263676,240.0
76.892,-33.722126,150.67471,0.033242404,70.75009,66.56009,0.032829426,0.00918563,0.27454054,2.1673758,1.9966394,0.021263845,-0.22338834,-0.03969534,0.27985874,0.22854921,-0.048185967,240.0
77.0,-33.722122,150.67471,0.10107261,71.194176,66.7656,0.03425525,0.007446733,0.26970375,2.2080264,1.9614439,0.008344657,-0.25226188,-0.036248256,0.27368727,0.22377107,0.049966197,240.0
77.176,-33.72212,150.67471,0.13452995,71.487724,66.90311,0.033822868,0.0056560147,0.26491857,2.2454739,1.9475757,0.29843768,-0.17200866,-0.030993646,0.2588392,0.21904999,0.30126086,240.0
77.3,-33.72212,150.67473,0.17469776,71.80744,67.04797,0.032726765,0.004655629,0.26382145,2.2582195,1.9232787,0.13131523,-0.2326858,-0.030510515,0.28416285,0.1958466,0.019770462,240.0
77.488,-33.722115,150.67473,0.21576434,72.19187,67.211266,0.029883116,0.0062225233,0.26496643,2.252823,1.8801984,0.4074886,0.063733585,-0.008934446,0.31310666,0.19225861,0.08212251,240.0
77.6,-33.72211,150.67473,0.24711293,72.59818,67.37354,0.02489865,0.0076660663,0.2618327,2.264571,1.8211383,0.5845568,0.21635188,-0.014071917,0.32223082,0.20541537,-0.11467076,240.0
77.768,-33.722107,150.67473,0.26444227,72.83867,67.467575,0.020939704,0.008332583,0.25787973,2.2802365,1.786886,0.2618508,0.10461844,-0.00724838,0.3177208,0.21678063,-0.13000378,240.0
77.9,-33.722107,150.67473,0.2798863,73.14515,67.57646,0.015389674,0.009460234,0.25562447,2.3006241,1.7498151,0.4931551,0.051456913,-0.004238269,0.31707048,0.22293125,0.06726687,240.0
78.08,-33.722103,150.67473,0.29254037,73.48782,67.696915,0.008525203,0.010442723,0.2524471,2.3120987,1.7046771,-0.003597732,-0.08149298,-0.021290801,0.30635568,0.24562182,-0.2102326,240.0
78.2,-33.7221,150.67473,0.3063423,73.94656,67.8654,-0.00015308948,0.009741239,0.24375306,2.3756058,1.6850057,-0.029451752,-0.29153785,-0.039914276,0.254533,0.25820893,-0.09530664,240.0
78.368,-33.722095,150.67473,0.3170485,74.270805,67.985825,-0.005974525,0.009791838,0.24069163,2.3981702,1.6722815,-0.08639263,-0.27005902,-0.023385128,0.2557916,0.24583022,0.06161644,240.0
