timestamp,lat,lon,alt,x,y,roll,pitch,yaw,vel_x,vel_y,accel_x,accel_y,yaw_rate,right_engine,left_engine,wind_speed,wind_direction
45.28,-33.722763,150.67398,5.4791284,-0.46813267,-1.8654876,-0.0073538525,0.027553385,0.6516094,0.050621167,-0.1135312,0.009015623,-0.037016593,0.0029794397,0.0,0.0,0.55498844,240.0
45.4,-33.722763,150.67398,5.410434,-0.47251832,-1.8760359,-0.009961734,0.028522428,0.6519823,0.04993984,-0.11353999,0.0007708936,-0.03491484,0.0020472098,0.0,0.0,0.32428253,240.0
45.6,-33.722763,150.67398,5.363426,-0.47500592,-1.8791844,-0.011707467,0.028957916,0.6521388,0.04736491,-0.110387444,0.005905399,-0.030398197,0.0019909767,0.0,0.0,0.42527655,240.0
45.7,-33.722763,150.67398,5.274369,-0.46590778,-1.8855413,-0.014715144,0.029326467,0.6525692,0.049573503,-0.10288599,0.0058230897,-0.020796824,0.0008262728,0.0,0.0,0.43665004,240.0
45.872,-33.722763,150.67398,5.2110467,-0.45829752,-1.8912802,-0.01666891,0.02991171,0.65286165,0.05409063,-0.0991088,0.011616292,-0.020122,0.0007569062,0.0,0.0,0.38752824,240.0
46.072,-33.722763,150.67398,5.0542746,-0.44520423,-1.9032489,-0.019751225,0.030580873,0.65322775,0.06283037,-0.09593191,0.01431654,-0.03224816,0.0011326062,0.0,0.0,0.4534351,240.0
46.2,-33.722763,150.67398,4.9373198,-0.4270598,-1.910883,-0.021364987,0.029939938,0.65344465,0.06912313,-0.09089282,0.009989713,-0.024132574,0.00072218454,0.0,0.0,0.39601418,240.0
46.3,-33.722763,150.67398,4.8481073,-0.421599,-1.9133134,-0.022321185,0.0296202,0.65358716,0.06895458,-0.08725102,0.013440689,-0.026181707,0.000598187,0.0,0.0,0.20292307,240.0
46.496,-33.722763,150.67398,4.778812,-0.4202912,-1.9120682,-0.022846514,0.029410448,0.6536946,0.06679658,-0.08528217,0.014095851,-0.029730983,-0.00040022045,0.0,0.0,0.022533128,240.0
46.664,-33.722763,150.67398,4.6355386,-0.43055695,-1.9258802,-0.024133468,0.029227197,0.65355897,0.06569851,-0.09089623,0.009169803,-0.03186603,-0.00017558195,0.0,0.0,0.0984227,240.0
46.796,-33.722763,150.67398,4.5714297,-0.4420455,-1.9319203,-0.024386497,0.028479733,0.65354705,0.06203352,-0.09460011,0.010285887,-0.03574592,-0.00029964553,0.0,0.0,0.12019991,240.0
46.9,-33.722763,150.67398,4.4765034,-0.4486545,-1.9472108,-0.024864815,0.026608456,0.65341264,0.06144349,-0.09772851,0.009897655,-0.03653397,-0.00015636269,0.0,0.0,-0.07624132,240.0
47.1,-33.722763,150.67398,4.4259453,-0.44813326,-1.9518116,-0.024780726,0.025382392,0.6536591,0.05998575,-0.09667737,0.01598914,-0.030543163,-1.39691365e-05,0.0,0.0,-0.01199443,240.0
47.2,-33.722763,150.67398,4.3444357,-0.44813448,-1.9610254,-0.024468977,0.023817545,0.6539937,0.05792816,-0.0945055,0.017246662,-0.020980671,0.00016861549,0.0,0.0,-0.21561162,240.0
47.392,-33.722763,150.67398,4.299488,-0.4471528,-1.9596559,-0.023773346,0.022345582,0.6546118,0.0538508,-0.09072877,0.0027862042,-0.018141631,0.0008997705,1.0,-0.36100823,-0.52788067,240.0
47.544,-33.722763,150.67398,4.2256007,-0.34580675,-1.8972856,-0.024452142,0.021553388,0.5984558,0.4395222,0.97587883,1.9657211,6.2142982,-0.48460227,1.0,0.62583685,-0.40383676,240.0
47.7,-33.72276,150.67398,4.1717076,-0.15033671,-1.7691644,-0.024134537,0.021920644,0.5463106,0.9278249,1.8719728,3.3570187,7.2715373,-0.36577418,0.8934217,0.8296576,-0.35388163,240.0
47.8,-33.722755,150.67398,4.113691,0.3001189,-1.4851096,-0.021523958,0.018659279,0.5073826,1.4720526,2.6406868,1.1440481,1.6093855,-0.17921625,0.39756733,0.301176,-0.4063673,240.0
47.984,-33.722755,150.67398,4.0760136,0.59776354,-1.2940075,-0.01999236,0.015328729,0.4958845,1.5159426,2.652788,-0.034087468,-0.17207596,-0.08600818,0.33797902,0.20501894,-0.27868563,240.0
48.184,-33.722748,150.67398,3.9845104,1.0923513,-0.93757415,-0.01803271,0.010845845,0.5021533,1.405411,2.5964384,-0.11450073,-0.42073014,-0.080821216,0.36481756,0.15887408,-0.47466585,240.0
48.3,-33.722744,150.674,3.9109464,1.5121626,-0.62606835,-0.016637431,0.009506869,0.48774934,1.3752038,2.5174906,-0.042324636,-0.07641274,-0.084061354,0.33853886,0.2197546,-0.65261436,240.0
48.4,-33.722744,150.674,3.8620281,1.8150396,-0.40703577,-0.014591652,0.0073006446,0.47584853,1.3862917,2.488282,0.075856596,0.064561225,-0.05518837,0.3306976,0.2503441,-0.4487495,240.0
48.6,-33.72274,150.674,3.812904,2.1200988,-0.20019817,-0.0121586425,0.0058865594,0.4679922,1.4059457,2.4766068,0.2017443,0.18204755,-0.035292003,0.3261895,0.2566351,-0.539663,240.0
48.776,-33.722736,150.674,3.7541566,2.6219606,0.14337839,-0.012191347,-0.0052384133,0.46416166,1.4397249,2.529294,-0.12552986,-0.17496946,-0.039162833,0.28226483,0.23611641,-0.34494632,240.0
48.9,-33.722733,150.674,3.7059922,3.0860014,0.46150243,-0.010577443,-0.008561991,0.46227127,1.442959,2.5269651,-0.22592326,-0.30446383,-0.029102355,0.29189393,0.22679964,-0.086535305,240.0
49.1,-33.72273,150.67401,3.6787925,3.4589798,0.7147992,-0.0077166143,-0.0078428965,0.45975858,1.4457495,2.5138006,0.13721116,0.11902674,-0.00122119,0.3145423,0.21654236,-0.107633695,240.0
49.2,-33.722725,150.67401,3.6762257,3.8456771,0.9696718,-0.0043682065,-0.0059503852,0.45384312,1.4589877,2.4819818,-0.06746111,0.004353338,-0.040043138,0.286978,0.2648195,-0.11245263,240.0
49.4,-33.72272,150.67401,3.6801648,4.0778112,1.1265908,-0.0024426894,-0.0062844595,0.45225304,1.4693539,2.4793494,0.1113393,-0.07630749,-0.012973195,0.3084878,0.24053976,-0.20006849,240.0
49.568,-33.722717,150.67401,3.7076173,4.5001945,1.4147668,0.0012262278,-0.0066478904,0.4498763,1.4820935,2.471596,0.06585267,-0.12194782,-0.041886363,0.2852777,0.2640541,-0.4546419,240.0
49.7,-33.722717,150.67401,3.7288337,4.8740444,1.6810716,0.0050794696,-0.006203217,0.44751412,1.4901029,2.4738686,0.26765668,0.21461518,-0.0138819665,0.30991393,0.23528486,-0.5037402,240.0
49.9,-33.722713,150.67401,3.735353,5.2654686,1.9455017,0.0008122812,-0.015549369,0.44685093,1.528936,2.538919,0.120851606,0.0075757937,-0.044491477,0.25492567,0.21732731,-0.8965124,240.0
50.0,-33.722706,150.67403,3.7478895,5.837863,2.324158,-0.0021360207,-0.022730097,0.44502187,1.5666025,2.591672,-0.08678177,-0.17390707,-0.04327613,0.23129986,0.18079199,-0.76927936,240.0
50.2,-33.722706,150.67403,3.7515664,6.1329837,2.5129595,-0.0043618423,-0.028135233,0.44306034,1.5785446,2.5992274,-0.22228065,-0.21754147,-0.009432948,0.25262606,0.15028429,-0.6922884,240.0
50.3,-33.722702,150.67403,3.7641506,6.5596976,2.7864552,-0.0013203506,-0.028731909,0.43827513,1.5920503,2.585661,-0.08265684,-0.20954597,-0.045189347,0.22185275,0.18908778,-0.4663962,240.0
50.492,-33.7227,150.67403,3.7867079,6.9237347,3.0103748,0.0030129945,-0.024968924,0.4347688,1.5892555,2.5434785,-0.13900803,-0.13482606,-0.024569465,0.24751109,0.2014162,-0.4964196,240.0
50.6,-33.722694,150.67403,3.8500562,7.3103833,3.2525685,0.009023317,-0.018358925,0.43348917,1.582348,2.4950237,0.06436536,0.13651563,0.007210566,0.28752333,0.20322593,-0.20050596,240.0
50.8,-33.72269,150.67403,3.8862333,7.5317044,3.3949373,0.011390143,-0.017092133,0.43249258,1.5876863,2.4820237,-0.058620837,-0.025821816,-0.03932478,0.26897827,0.22954485,-0.037485577,240.0
50.9,-33.722687,150.67404,3.9671917,7.8750596,3.6125607,0.01611502,-0.014392903,0.4286191,1.6011963,2.4592688,0.18514854,0.04943447,-0.043805297,0.26729384,0.24286196,-0.28587142,240.0
51.088,-33.722687,150.67404,4.020867,8.127183,3.7613907,0.01730871,-0.013377273,0.42630136,1.6178354,2.45422,0.27370062,0.1796527,-0.020253269,0.2751594,0.23010716,-0.27507412,240.0
51.24,-33.722683,150.67404,4.1035595,8.527996,3.9861987,0.018645376,-0.012306904,0.42398813,1.6445343,2.4456964,0.29600218,0.16753945,-0.028382516,0.26428598,0.23222941,-0.42847896,240.0
51.4,-33.72268,150.67404,4.172041,8.865918,4.1624465,0.021442426,-0.009086519,0.42358863,1.6488602,2.4130783,0.050613504,0.14223944,0.010189347,0.29397035,0.22318254,-0.36461142,240.0
51.5,-33.722675,150.67404,4.2322793,9.176355,4.3205566,0.02395271,-0.0060340306,0.42406246,1.6580865,2.3912551,0.32088292,0.23658702,-0.0155688375,0.30276218,0.2227468,-0.48445725,240.0
51.68,-33.722675,150.67404,4.278194,9.419008,4.4410477,0.022908293,-0.00587644,0.42452896,1.6759372,2.3928773,0.060698297,-0.025989436,-0.0031826708,0.29981568,0.21242984,-0.39194512,240.0
51.88,-33.72267,150.67404,4.3750634,9.917243,4.6870337,0.020173825,-0.0072966465,0.4230289,1.7158356,2.3951218,0.104555,0.10595154,0.005444734,0.2855118,0.200795,-0.21535927,240.0
52.0,-33.722668,150.67406,4.466296,10.30291,4.8776217,0.022246039,-0.004717896,0.42127037,1.7252586,2.3621144,0.0059919255,-0.07711316,0.008810139,0.29143658,0.21258017,-0.14744285,240.0
52.1,-33.722664,150.67406,4.5240064,10.596177,5.0225787,0.023944391,-0.0015536202,0.42216486,1.7240947,2.3366857,0.07670467,0.081590086,-0.004774249,0.30542478,0.21547917,-0.057837073,240.0
52.3,-33.72266,150.67406,4.609758,10.959934,5.207004,0.024332149,0.00039375297,0.42129737,1.7381632,2.318654,-0.001116636,-0.10887242,-0.03481698,0.2871443,0.23511863,0.18599522,240.0
52.472,-33.722656,150.67406,4.6740417,11.306579,5.377108,0.020418763,-0.0018013213,0.42119426,1.7725238,2.3430302,-0.14043938,-0.13690716,-0.024133027,0.27619234,0.20770213,0.010663481,240.0
52.624,-33.722652,150.67406,4.7722306,11.7402315,5.5895786,0.018734176,-0.0015714362,0.4204766,1.7923439,2.3376963,0.10541332,-0.09981905,-0.037423104,0.26521057,0.20938556,0.13378201,240.0
52.8,-33.72265,150.67406,4.853296,12.151703,5.8119226,0.022206925,0.002236937,0.41432697,1.7911849,2.2978668,0.19588734,0.07618574,-0.02704522,0.27164903,0.23318455,0.13340254,240.0
52.9,-33.722645,150.67406,4.911579,12.57772,6.039948,0.015776545,-0.0011369712,0.41717377,1.830132,2.3509984,-0.13147552,-0.17392349,-0.02312094,0.25855747,0.18122455,0.26368418,240.0
53.1,-33.72264,150.67407,4.978291,12.950378,6.2458115,0.012299791,-0.0023979258,0.41747624,1.8379681,2.353097,-0.23030242,-0.22075544,-0.0024552036,0.2787673,0.15447158,0.4289783,240.0
53.264,-33.72264,150.67407,5.0385404,13.331308,6.4450674,0.013456674,0.00080854446,0.4146482,1.840904,2.321484,0.1355305,0.026213732,-0.046780482,0.25727946,0.19586617,0.27611417,240.0
53.4,-33.722637,150.67407,5.088123,13.61681,6.5878844,0.011286018,0.0014833529,0.4124098,1.8578199,2.317214,0.17746946,0.14475632,-0.022352904,0.27716148,0.16776466,0.39612517,240.0
53.596,-33.722633,150.67407,5.1669693,14.00995,6.7888775,0.0116601065,0.005111441,0.4083318,1.857322,2.2732759,0.18692659,0.16847911,-0.0073991828,0.28476322,0.19176437,0.41476524,240.0
53.7,-33.72263,150.67407,5.247784,14.37559,6.975397,0.012448249,0.008772013,0.4037396,1.8573959,2.2315817,0.35280758,0.30433697,-0.024222735,0.2751548,0.23123017,0.4162565,240.0
53.8,-33.72263,150.67407,5.28574,14.589953,7.080365,0.01203338,0.010528165,0.40165868,1.864058,2.2162743,0.21089658,0.24099256,0.0029529242,0.28818202,0.22455488,0.2009179,240.0
53.992,-33.722626,150.67407,5.3210034,14.76765,7.161622,0.011892952,0.0121455435,0.40132612,1.8683488,2.20268,0.21772073,0.032533586,-0.031833164,0.2724739,0.24649623,0.00443281,240.0
54.188,-33.722622,150.67407,5.3713346,15.139539,7.3113523,0.010982446,0.015471733,0.40257275,1.8733561,2.1698623,0.045128923,-0.006783466,-0.015552957,0.30588445,0.23195913,-0.009192335,240.0
54.3,-33.722622,150.67407,5.41709,15.492676,7.465493,0.009720814,0.017808625,0.40161532,1.8820633,2.1447737,0.18564057,-0.024038417,-0.031953298,0.28992197,0.2584962,0.11959078,240.0
54.4,-33.72262,150.67407,5.443297,15.727096,7.5720096,0.008754645,0.019273577,0.40046066,1.8889455,2.1327994,0.20528498,-0.0012130302,-0.030043079,0.2907022,0.26373842,0.034303907,240.0
54.6,-33.722614,150.67409,5.4684815,15.985207,7.6798697,0.0075295675,0.020554593,0.40024006,1.8932316,2.115061,0.1916201,-0.028764982,-0.015792394,0.31362045,0.2511592,-0.02328359,240.0
54.784,-33.722614,150.67409,5.4838653,16.328833,7.8366723,0.005803313,0.022277132,0.39909047,1.9001672,2.1007152,0.36305183,0.26526564,0.009852193,0.31586003,0.25563443,0.14224558,240.0
54.9,-33.72261,150.67409,5.4972653,16.712711,8.013928,0.0039420077,0.023755493,0.3980025,1.9062277,2.0840833,0.32009935,0.27174604,0.01877698,0.3206057,0.260328,0.041391913,240.0
55.1,-33.722607,150.67409,5.501552,16.97178,8.136132,0.0024472752,0.024361325,0.39750603,1.9094257,2.0751038,0.23902315,0.36592636,0.022814078,0.33891165,0.24750185,0.03766398,240.0
55.2,-33.722603,150.67409,5.4890566,17.4686,8.366979,-0.0029162057,0.02259909,0.39737764,1.9564362,2.1104107,0.062205963,0.02025613,-0.007927717,0.30372083,0.22670078,-0.40581718,240.0
55.376,-33.7226,150.67409,5.4857807,17.76457,8.506848,-0.0050249603,0.021683836,0.3950189,1.9665124,2.1020136,-0.21140885,-0.27010202,-0.024564415,0.28464648,0.24622025,-0.41236186,240.0
55.54,-33.722595,150.67409,5.4747524,18.182919,8.689192,-0.007014628,0.02244797,0.39392784,1.9645742,2.076423,0.07341278,-0.13450734,-0.013507215,0.3096059,0.242997,0.10870944,240.0
55.7,-33.72259,150.67409,5.465544,18.508366,8.820034,-0.0087365145,0.023382867,0.39435837,1.971768,2.061028,0.025601914,-0.18027149,-0.026908461,0.29856586,0.26154196,0.05404172,240.0
55.8,-33.72259,150.67409,5.4472394,18.822088,8.950536,-0.010589345,0.023614625,0.3935149,1.9779935,2.0481102,-0.10164079,-0.0910972,0.013066264,0.31560755,0.25087178,0.13291536,240.0
55.972,-33.722588,150.6741,5.4262285,19.176813,9.102386,-0.012215137,0.0240073,0.3917412,1.9854441,2.0356348,0.30145422,0.1274355,-0.011447753,0.31427878,0.25804347,0.20049582,240.0
56.124,-33.722584,150.6741,5.3958826,19.538446,9.260747,-0.01388025,0.024249014,0.38997313,1.985019,2.0149145,0.11462259,0.06772,0.021966657,0.33287388,0.2564419,-0.16947962,240.0
56.3,-33.72258,150.6741,5.3566766,19.876568,9.411648,-0.015244086,0.024122309,0.3893394,1.9912242,2.0069652,0.13719876,-0.103629775,-0.029629078,0.3055041,0.28588113,-0.22540137,240.0
56.4,-33.722576,150.6741,5.302211,20.242357,9.5752735,-0.01683354,0.024362491,0.38763955,1.9893647,1.9912386,0.2747286,0.17618021,-0.004256906,0.32971162,0.27850765,-0.2829069,240.0
56.564,-33.722576,150.6741,5.2699676,20.475977,9.67634,-0.018060604,0.02392789,0.38697344,1.9915408,1.9818554,-0.013870289,0.0033341716,0.010951925,0.33178934,0.28106073,-0.31100953,240.0
56.7,-33.722572,150.6741,5.2087617,20.88524,9.846552,-0.019856434,0.023341587,0.38663754,2.0011604,1.9763378,-0.28186965,-0.22743738,0.022110464,0.3327883,0.27846628,-0.19986941,240.0
56.896,-33.72257,150.6741,5.1616435,21.185993,9.974906,-0.020994784,0.022168126,0.38734975,2.0108838,1.9835672,0.0438303,-0.1834532,-0.02821478,0.3147275,0.28508276,-0.17764394,240.0
57.044,-33.722565,150.6741,5.0845957,21.65469,10.175054,-0.022351513,0.021220723,0.38569185,2.016141,1.973624,-0.119934805,-0.24395292,-0.0031794317,0.56653047,0.03712952,-0.45043957,240.0
57.2,-33.72256,150.6741,5.0326467,22.079475,10.357889,-0.023749424,0.020960042,0.364464,2.0668602,1.9224899,0.21519448,0.08059387,-0.1711423,0.41661924,0.19302885,-0.28543672,240.0
57.3,-33.722557,150.67412,4.950541,22.462706,10.51881,-0.02464591,0.018399991,0.33689222,2.1123765,1.8495258,0.0077571864,-0.03552461,-0.16611119,0.304368,0.31487885,-0.2611416,240.0
57.488,-33.722557,150.67412,4.903446,22.711386,10.626634,-0.02459613,0.017435689,0.3266191,2.1347282,1.8255384,0.063089706,-0.20807607,-0.06949921,0.3272723,0.2920215,-0.48492262,240.0
57.688,-33.72255,150.67412,4.8083844,23.187508,10.82142,-0.02459687,0.016637037,0.31740585,2.1629415,1.7982712,-0.071985014,-0.22912005,-0.04902668,0.30825686,0.30764973,-0.23084593,240.0
57.8,-33.722546,150.67412,4.7139015,23.64529,11.006193,-0.024922706,0.01515848,0.3148063,2.1698456,1.7784516,-0.03642391,-0.26938945,-0.028002955,0.31781465,0.30408293,-0.42686337,240.0
57.968,-33.722546,150.67412,4.654763,23.945547,11.131709,-0.025017656,0.014471561,0.31432903,2.1745152,1.7730207,0.12360187,-0.13110593,0.022556875,0.34847635,0.272736,-0.110971004,240.0
58.1,-33.72254,150.67412,4.5752983,24.348127,11.298739,-0.024779122,0.0136481365,0.3133271,2.1755242,1.759797,0.116771154,0.038742952,-0.015850287,0.33752477,0.28931618,-0.24200352,240.0
58.28,-33.722538,150.67412,4.5125585,24.71311,11.444441,-0.024213511,0.0128911175,0.31354398,2.178415,1.7517614,0.2392861,0.009712416,0.023159765,0.35587028,0.2729908,-0.089896336,240.0
58.432,-33.722534,150.67412,4.443098,25.166746,11.619741,-0.023384199,0.012002945,0.3129534,2.1818774,1.7372346,0.21287027,0.13962696,-0.0011170696,0.34505135,0.28852803,0.16272932,240.0
58.6,-33.72253,150.67412,4.379171,25.581606,11.790969,-0.022376478,0.010331618,0.3135194,2.1824026,1.7314119,-0.22879736,-0.26065746,-0.0036245405,0.3516964,0.2828469,0.27221334,240.0
58.7,-33.722527,150.67413,4.3132834,26.024965,11.97438,-0.020936897,0.0080862185,0.31573865,2.187303,1.7444932,0.1785314,0.04364109,0.009293435,0.35610864,0.2641603,0.49223432,240.0
58.9,-33.722523,150.67413,4.2729273,26.28075,12.074648,-0.020148877,0.007248495,0.3145694,2.189369,1.7365732,-0.19606179,-0.12268176,-0.03903086,0.33134833,0.29095313,0.33662152,240.0
59.072,-33.72252,150.67413,4.2051883,26.79952,12.274529,-0.018296462,0.0065755593,0.31008422,2.1976347,1.7168772,0.032182243,-0.0059545347,-0.038383134,0.3213164,0.3056018,0.24836741,240.0
59.2,-33.722515,150.67413,4.153741,27.233585,12.440367,-0.016308757,0.0054312926,0.30912367,2.2023852,1.7080919,-0.24336064,-0.2553418,-0.023585547,0.32985836,0.29726368,0.12819357,240.0
59.3,-33.72251,150.67413,4.119724,27.58452,12.576878,-0.014688777,0.00492429,0.30940875,2.2019632,1.7049527,-0.14781892,-0.059141982,-0.01861875,0.348,0.28038234,0.28740743,240.0
59.5,-33.722507,150.67413,4.0815544,27.98625,12.728067,-0.012886799,0.0033220057,0.31084424,2.2136457,1.7139207,0.154992,0.105535954,0.017561471,0.34792164,0.26410326,0.28989992,240.0
59.668,-33.722504,150.67413,4.0586557,28.409542,12.879479,-0.0111260535,0.0021020975,0.30990604,2.2245462,1.7070748,-0.0942179,-0.2437619,-0.004401566,0.34364206,0.2627123,0.34066406,240.0
59.824,-33.7225,150.67413,4.041632,28.913462,13.061615,-0.008544341,-0.00039904247,0.31131387,2.249162,1.7261502,0.1021804,0.23749787,0.017233908,0.33508974,0.23847134,0.47694132,240.0
59.996,-33.722496,150.67413,4.0444503,29.336432,13.215523,-0.0061295847,-0.0029859708,0.3124657,2.2608604,1.7354386,0.08514547,-0.030097742,0.0033412334,0.3335031,0.22398618,0.32156014,240.0
60.1,-33.722492,150.67415,4.0451493,29.86494,13.407375,-0.003464948,-0.002426016,0.30606592,2.2600603,1.702961,0.08907444,-0.10062009,-0.009139481,0.32380146,0.2545151,0.30369937,240.0
60.3,-33.72249,150.67415,4.0415883,30.134079,13.504282,-0.0018453747,-0.0021073755,0.3027711,2.2661793,1.6916925,0.1722248,0.13030238,-0.02819018,0.29735985,0.28313157,-0.0022488956,240.0
60.4,-33.722485,150.67415,4.0234,30.574465,13.665014,0.0012141874,-0.0034416034,0.30031353,2.2803335,1.6864966,-0.22724165,-0.15475903,-0.029151198,0.28506172,0.28719473,-0.49037892,240.0
60.592,-33.72248,150.67415,4.013839,30.953093,13.80534,0.0039140023,-0.005238453,0.3017421,2.300277,1.7060589,-0.12280561,-0.13347048,-0.022587175,0.28457028,0.2600425,-0.2166802,240.0
60.7,-33.722477,150.67415,4.0069804,31.51598,14.01764,0.007324954,-0.0073910556,0.30402246,2.3055768,1.7200493,0.013927647,-0.107745804,-0.023037713,0.29099044,0.24151756,-0.25309366,240.0
60.9,-33.722473,150.67415,4.017484,31.858662,14.143534,0.009265366,-0.006134044,0.30175167,2.3030872,1.7096444,-0.14065896,-0.0244778,-0.008283712,0.28422588,0.25713056,-0.16775148,240.0
61.0,-33.72247,150.67415,4.040418,32.323116,14.301868,0.011456443,-0.0044275937,0.300173,2.2959642,1.690534,-0.13347748,-0.025337247,-0.026469287,0.29259256,0.26611814,0.23585933,240.0
61.184,-33.722466,150.67415,4.057579,32.558624,14.381985,0.012744129,-0.003922674,0.30015323,2.2994547,1.6893723,0.25034845,0.044348534,0.02319718,0.32236737,0.2342965,0.018891318,240.0
61.384,-33.72246,150.67415,4.0991178,33.03476,14.551533,0.015428763,-0.0025077865,0.2981254,2.299411,1.6745175,0.0859777,-0.09338179,0.0006288555,0.30854183,0.2570687,-0.02741361,240.0
61.5,-33.722458,150.67415,4.1451178,33.462933,14.706364,0.017842073,-0.0010003684,0.29706138,2.2942142,1.6653557,0.097255304,-0.055625208,0.016064001,0.31238842,0.26280105,-0.04025684,240.0
61.68,-33.722454,150.67416,4.176281,33.77963,14.829059,0.020039868,-0.0013830288,0.2973931,2.3079386,1.681769,0.273462,0.06852619,0.023072207,0.3203759,0.23470059,0.109346114,240.0
61.8,-33.72245,150.67416,4.2142167,34.234253,15.007081,0.023025475,-0.0034145773,0.29801598,2.3192902,1.7002068,-0.19196267,-0.06917001,-0.028768068,0.28693452,0.24737856,-0.12630557,240.0
61.976,-33.722446,150.67416,4.2562814,34.601387,15.14968,0.02458501,-0.0024365543,0.29666933,2.3185644,1.7023494,0.14626391,0.24084933,-0.007190337,0.30403385,0.23236254,0.20311052,240.0
62.128,-33.722443,150.67416,4.301163,35.03939,15.306116,0.026210519,-0.0006645081,0.29295036,2.3207347,1.6907277,-0.21323639,-0.09041564,-0.02648963,0.28064334,0.2606027,-0.39934188,240.0
62.3,-33.72244,150.67416,4.3549914,35.544975,15.484799,0.02809084,5.3195436e-05,0.2914091,2.3266754,1.688504,-0.077913046,-0.06510817,-0.029338175,0.2744968,0.26186478,-0.38467997,240.0
62.4,-33.722435,150.67416,4.404834,35.905907,15.612405,0.029194657,0.0018410933,0.29046583,2.322121,1.6827132,0.1447401,0.12939739,-0.004598584,0.29514182,0.24889399,-0.1386761,240.0
62.6,-33.722435,150.67416,4.4535975,36.189636,15.71707,0.029914195,0.0031137955,0.2892402,2.3198817,1.6765615,0.13983864,0.15838814,-0.018897695,0.29577717,0.25238445,-0.20433232,240.0
62.768,-33.72243,150.67416,4.525793,36.595123,15.862278,0.03062495,0.005252979,0.28676292,2.316956,1.6630335,-0.047099754,0.03635626,-0.029409759,0.27743632,0.28038436,-0.3894736,240.0
62.9,-33.722427,150.67416,4.598818,37.002403,16.005455,0.031532213,0.005914813,0.2873065,2.3279178,1.6692694,0.12845607,-0.0471568,-0.0023036073,0.29370147,0.25084072,-0.31232142,240.0
63.1,-33.722424,150.67418,4.672173,37.381367,16.138424,0.03227115,0.0067117624,0.2866945,2.3255212,1.6645846,-0.038187344,0.0538298,0.0032799088,0.29691258,0.25187775,-0.27801862,240.0
63.2,-33.72242,150.67418,4.754198,37.807247,16.292486,0.03234749,0.008039859,0.28578463,2.3289948,1.6612375,-0.30738536,-0.09243223,-0.028790466,0.27933338,0.26731762,-0.2341228,240.0
63.4,-33.722416,150.67418,4.8009396,38.04787,16.379591,0.032520007,0.008640783,0.28540945,2.335563,1.6646442,0.27886823,0.13035604,0.015424507,0.29386997,0.24501143,-0.46377543,240.0
63.5,-33.722412,150.67418,4.869185,38.410126,16.505556,0.032123167,0.009842462,0.283432,2.3301435,1.6472453,-0.13553989,-0.11814111,-0.024712266,0.28189442,0.27037373,-0.60071105,240.0
63.692,-33.722412,150.67418,4.9250712,38.763493,16.61503,0.031135987,0.012452361,0.28323084,2.3226535,1.6330184,0.20470586,0.1709828,0.0148062995,0.30313396,0.26100957,-0.27563888,240.0
63.8,-33.72241,150.67418,5.0066867,39.205826,16.744429,0.029843774,0.014655339,0.2827751,2.3187678,1.612678,0.36186588,0.52366966,0.018326882,0.30818218,0.26829427,-0.4381291,240.0
64.0,-33.722404,150.67418,5.0566254,39.490437,16.821377,0.02878768,0.015802154,0.28220156,2.3220572,1.6003779,0.18125595,0.16343354,0.0038260957,0.3070482,0.27290058,-0.30193996,240.0
64.1,-33.7224,150.67418,5.124936,39.953045,16.959839,0.02745058,0.017365308,0.28205916,2.3221395,1.5893902,0.27465388,0.3574864,0.005768016,0.3095433,0.27508587,0.07310851,240.0
64.288,-33.722397,150.67418,5.1573977,40.182125,17.02719,0.026586315,0.017780228,0.28173476,2.3250859,1.5824263,-0.09361701,-0.1337417,-0.026616536,0.29369074,0.29185373,-0.09187821,240.0
64.484,-33.722393,150.67418,5.2168026,40.62235,17.157036,0.024829576,0.019258277,0.28270823,2.3215864,1.5735009,0.036513716,-0.1280705,-0.0061041964,0.31743276,0.27511263,0.0719506,240.0
64.6,-33.72239,150.67418,5.2939234,41.060715,17.286053,0.022696123,0.020103743,0.28497738,2.3220286,1.5694546,0.11760331,-0.06499147,-0.014487094,0.3270516,0.26688734,0.3014772,240.0
64.7,-33.72239,150.67418,5.340663,41.393684,17.381498,0.02105827,0.020791952,0.28516212,2.3248596,1.5611062,-0.08227858,-0.14106035,-0.01278791,0.3289348,0.2671075,0.11832566,240.0
64.9,-33.722385,150.67418,5.387011,41.673943,17.460487,0.01942675,0.02135616,0.28507617,2.3274179,1.5553327,0.13526659,-0.045648422,-0.0244421,0.3143885,0.28279102,0.32527825,240.0
65.08,-33.72238,150.6742,5.4392376,42.143936,17.588594,0.016940616,0.021939175,0.2859716,2.323729,1.5416006,0.20385426,0.017686497,0.025623636,0.35235745,0.25580722,0.511952,240.0
65.2,-33.722374,150.6742,5.4856086,42.640617,17.731236,0.016541906,0.020630535,0.28568074,2.3578784,1.551971,0.007979997,0.059436005,0.021148145,0.33255112,0.24307561,0.62421787,240.0
65.4,-33.72237,150.6742,5.5198607,43.10067,17.865046,0.015073642,0.01937954,0.28510925,2.3723733,1.5539638,-0.17274277,-0.22979409,-0.021120323,0.29979363,0.2641413,0.63258666,240.0
65.5,-33.722366,150.6742,5.5467,43.579063,18.007263,0.012417072,0.020179704,0.2862746,2.3684933,1.5542328,0.16611946,-0.013897274,0.031504355,0.33853126,0.22927964,0.4740052,240.0
65.696,-33.722366,150.6742,5.5587187,43.856434,18.089376,0.010512282,0.020948693,0.28585994,2.3623848,1.5462613,0.1638095,0.15282351,-0.02042124,0.3115767,0.26623014,0.33232012,240.0
65.872,-33.722363,150.6742,5.572057,44.363007,18.24091,0.0072016306,0.020934796,0.28556666,2.365483,1.5418764,0.26129183,0.08532989,0.012539588,0.3249768,0.25416112,0.26297215,240.0
66.0,-33.722355,150.6742,5.59727,44.790634,18.364748,0.004676152,0.020632897,0.28510463,2.3652005,1.5334316,0.001604839,-0.035405453,-0.018260265,0.32684955,0.25839093,0.11763159,240.0
66.2,-33.722355,150.6742,5.6047163,45.113728,18.467392,0.0027450572,0.020818599,0.28474408,2.3645778,1.5318791,0.01824602,0.025318108,-0.023509188,0.31464803,0.27296185,0.46753904,240.0
66.3,-33.722347,150.6742,5.6056285,45.698227,18.65833,0.0025299005,0.018610528,0.28305697,2.4089308,1.5583186,0.18509519,0.11394954,0.009682985,0.30232522,0.23551694,0.5621711,240.0
66.464,-33.722347,150.6742,5.602725,45.978687,18.74864,0.0018624007,0.017348738,0.28265047,2.4052913,1.5561676,-0.34133032,-0.17855303,-0.014496822,0.30640903,0.2364051,0.79532236,240.0
66.6,-33.722343,150.6742,5.599298,46.418358,18.894575,-0.0005185634,0.016794162,0.2823771,2.3977206,1.5573153,0.102205336,-0.009904061,0.015487727,0.31280094,0.23685174,0.9247735,240.0
66.796,-33.72234,150.67421,5.5893674,46.79484,19.022837,-0.0027335288,0.016431328,0.28198877,2.3951344,1.5563464,-0.021640984,-0.14646569,0.005775394,0.31870702,0.23461922,0.8566841,240.0
66.9,-33.722336,150.67421,5.5588126,47.269478,19.183693,-0.004942336,0.015596587,0.27970937,2.395696,1.5531082,-0.014970444,-0.13493633,-0.031040387,0.3002625,0.25557214,0.73290676,240.0
67.1,-33.722332,150.67421,5.5345745,47.53248,19.27138,-0.006817434,0.015978023,0.27903357,2.3901267,1.55238,0.2989442,0.11825454,0.014443078,0.32271165,0.23917979,0.52227306,240.0
67.2,-33.72233,150.67421,5.4878955,47.98016,19.413687,-0.00948118,0.0152908545,0.27762952,2.3858092,1.545234,0.27112165,0.07785533,0.010539183,0.32664195,0.2438769,0.4761957,240.0
67.388,-33.722324,150.67421,5.4655046,48.234795,19.492523,-0.011042155,0.015153924,0.27715507,2.373639,1.535799,0.30547833,0.20971516,0.0003436478,0.33499455,0.2514087,0.73946977,240.0
67.564,-33.72232,150.67421,5.420328,48.64291,19.625828,-0.013569148,0.014787165,0.27712843,2.3648884,1.5315017,0.29325804,0.36317644,-6.0899038e-06,0.34569487,0.25125077,0.7368606,240.0
67.7,-33.722317,150.67421,5.3762064,49.011795,19.73775,-0.015242111,0.013412538,0.27570713,2.369209,1.5239847,0.036880467,-0.097709104,-0.026505146,0.32821748,0.26926842,0.7497793,240.0
67.8,-33.722317,150.67421,5.342315,49.365074,19.83359,-0.016892908,0.012841097,0.2747502,2.3708916,1.5132154,0.25407392,0.20503032,-0.018428737,0.34304082,0.25888062,0.6625385,240.0
68.0,-33.722313,150.67421,5.3157077,49.593292,19.89588,-0.017721515,0.011657652,0.27233204,2.3812506,1.5050839,0.013553926,-0.12545855,-0.048292663,0.3143084,0.2830366,0.5453785,240.0
68.18,-33.72231,150.67421,5.26056,50.12911,20.047487,-0.017772697,0.010291139,0.26935232,2.3965166,1.4987686,-0.03787988,0.07100852,-0.025491934,0.30278838,0.28470206,0.64732736,240.0
68.3,-33.722305,150.67421,5.199222,50.639797,20.196257,-0.016103333,0.0071353433,0.26949283,2.42115,1.5094738,-0.32918987,-0.22371972,-0.004943338,0.30810696,0.2512241,0.8047749,240.0
68.5,-33.7223,150.67421,5.160404,50.98674,20.297909,-0.016643822,0.006332273,0.27020046,2.4151247,1.507921,-0.5236452,-0.12857598,-0.015256422,0.31600034,0.24884462,0.75574225,240.0
68.6,-33.722298,150.67422,5.097734,51.489532,20.443283,-0.0173933,0.0055490886,0.2706093,2.4175427,1.5057057,-0.17996389,-0.09663083,-0.02370572,0.30594945,0.25758326,0.6199319,240.0
68.776,-33.722294,150.67422,5.0651026,51.766453,20.52801,-0.017020471,0.0045087417,0.27021423,2.4235873,1.5072595,0.06633791,-0.092379846,0.014542688,0.31881437,0.23820546,0.53840333,240.0
68.972,-33.72229,150.67422,4.985276,52.33049,20.697906,-0.014428757,0.0016348236,0.26648164,2.464045,1.5148208,-0.06338634,-0.16381684,0.005048861,0.29235992,0.22459963,0.5198424,240.0
69.1,-33.722282,150.67422,4.9068975,52.8376,20.84504,-0.013148152,0.00013036163,0.26508823,2.464736,1.508418,0.0822672,-0.021783665,0.008379395,-1.0,-1.0,0.7039729,240.0
69.3,-33.722282,150.67422,4.8543487,53.157524,20.935707,-0.012893032,-0.0031538068,0.26655528,2.1728985,1.3398343,-2.0808873,-1.2658514,0.015504736,-1.0,-1.0,0.42335165,240.0
69.4,-33.72228,150.67422,4.7835584,53.620766,21.06639,-0.0107277,-0.0054518017,0.2702902,1.8668982,1.1580939,-1.4050694,-0.8863782,0.02830885,-1.0,1.0,0.43159676,240.0
69.568,-33.722275,150.67422,4.7516065,53.888542,21.139654,-0.009685483,-0.00460199,0.2879445,2.0216932,1.3060917,-1.59025,-1.1105235,0.2726502,-0.6728197,-0.99999994,0.35487145,240.0
69.764,-33.72227,150.67422,4.6981907,54.229107,21.227652,-0.010371733,-0.007999426,0.31873524,1.7310901,1.178595,-1.194218,-0.9043973,0.12198522,-1.0,1.0,0.6480077,240.0
69.896,-33.72227,150.67422,4.663206,54.424347,21.279879,-0.0113455895,-0.001285501,0.34832314,1.9354385,1.4332136,2.5223494,2.408061,0.3196478,-0.61642265,-1.0,0.6163522,240.0
70.0,-33.722267,150.67422,4.599755,54.758995,21.384281,-0.010974797,-0.0060870405,0.40192273,1.858891,1.562689,2.3484619,2.9036326,0.35510033,-0.57387954,-0.99999994,0.48590007,240.0
70.2,-33.722263,150.67422,4.5705967,54.95225,21.45337,-0.010867748,-0.0034884857,0.44173458,1.6501725,1.4718367,-1.047441,-1.2673687,0.24281728,-0.6957655,-1.0,0.25221366,240.0
70.3,-33.722263,150.67422,4.5341735,55.216557,21.557243,-0.011228803,-0.003632228,0.48519695,1.6703194,1.7257315,2.5278754,3.187944,0.40729403,-0.51124716,-1.0,-0.09561414,240.0
70.492,-33.72226,150.67422,4.5057583,55.387653,21.636261,-0.010728883,0.0020852096,0.5212906,1.5101371,1.6644535,-0.92686397,-1.4715116,0.24973442,-1.0,1.0,0.15096085,240.0
70.688,-33.72226,150.67422,4.4618826,55.67774,21.758043,-0.009731096,0.0037804185,0.5796675,1.3743979,1.777242,-0.7758348,-1.5968297,0.2882636,-1.0,1.0,-0.08224094,240.0
70.8,-33.722256,150.67424,4.432667,55.973583,21.895044,-0.00865517,-0.00028470764,0.6477771,1.2672762,2.0641913,-0.7304174,-2.1356852,0.3465191,-0.584177,-1.0,-0.16978033,240.0
70.9,-33.722256,150.67424,4.423014,56.220222,22.008305,-0.0076303077,0.0023521779,0.6810405,1.0937688,1.8262492,-0.52084637,-1.5617412,0.18028954,-1.0,1.0,0.20253056,240.0
71.1,-33.72225,150.67424,4.4201803,56.39628,22.09071,-0.007116039,0.009553985,0.7160679,1.0310223,2.1357179,-0.44666758,-1.8500859,0.3535607,-0.5642918,-0.99999994,-0.12723973,240.0
71.284,-33.722248,150.67424,4.411479,56.727882,22.25509,-0.0057726256,0.0025218376,0.7802435,0.8182992,2.2935748,-0.18709604,-2.281124,0.5079417,-0.39046997,-1.0,-0.31350887,240.0
71.4,-33.722248,150.67424,4.411277,57.04533,22.429432,-0.004593656,0.0061653983,0.84323055,0.5849741,2.3924155,-0.5925952,3.8400521,0.45335284,-0.45597652,-1.0,-0.23206258,240.0
71.6,-33.722244,150.67424,4.4118276,57.260582,22.571594,-0.002700482,0.009481505,0.88445306,0.46386853,2.263439,0.07119311,-1.9170488,0.27096266,-1.0,1.0,-0.02251341,240.0
71.7,-33.72224,150.67424,4.4192686,57.682194,22.837658,0.004234207,0.0014146088,0.95311624,0.22999458,2.373004,0.28399944,-1.8866314,0.28696182,-1.0,1.0,-0.037563514,240.0
71.876,-33.72224,150.67424,4.424547,57.901806,22.973085,0.0052023935,-0.004603534,0.9800045,0.09521086,2.4555457,0.4343129,-1.9989263,0.31281817,-0.6246181,-0.99999994,0.1880475,240.0
72.076,-33.722237,150.67426,4.4475336,58.27143,23.227129,0.0051907487,0.0016681507,1.0426686,-0.24364252,2.5715818,-2.428533,3.446806,0.50203675,-0.39755586,-1.0,0.052996486,240.0
72.2,-33.722233,150.67426,4.475868,58.578915,23.483145,0.008555721,0.0009951974,1.1057291,-0.52475405,2.5605867,-2.716127,3.054375,0.46297112,-0.44443464,-1.0,0.16609687,240.0
72.36,-33.72223,150.67426,4.49405,58.798447,23.6942,0.011217564,-0.0016506258,1.1472774,-0.5685758,2.3531437,0.7969073,-1.5797554,0.24469659,-1.0,1.0,0.1780908,240.0
72.5,-33.72223,150.67426,4.523895,59.138588,24.01391,0.015669426,-0.005207221,1.1944089,-0.8412181,2.4078197,0.89891195,-1.4055256,0.27306193,-0.6723256,-1.0,-0.15824229,240.0
72.668,-33.722225,150.67426,4.552144,59.38447,24.245245,0.015290677,-0.008549876,1.2336583,-1.1099052,2.4242609,-3.009322,2.198808,0.36918923,-0.5569729,-1.0,-0.09075653,240.0
72.824,-33.72222,150.67426,4.584172,59.696445,24.55361,0.016910011,-0.009646568,1.2775793,-1.0834193,2.2125807,0.8602979,-1.0573192,0.19211878,-0.99999994,0.5575542,0.1658161,240.0
73.0,-33.72222,150.67427,4.623263,59.996365,24.868208,0.016619435,-0.010158317,1.3311337,-1.3209078,2.1088538,0.97587276,-0.9823473,0.24229434,-1.0,0.16527802,-0.021993008,240.0
73.1,-33.722218,150.67427,4.6551137,60.169292,25.040459,0.015174761,-0.008282895,1.3607265,-1.3234073,1.9579662,0.24076466,-0.5838946,0.19383074,-1.0,0.04020363,0.14083886,240.0
73.3,-33.722218,150.67427,4.687471,60.312023,25.183432,0.014186234,-0.0049443883,1.3895304,-1.5747565,1.919429,-4.5167623,1.4230604,0.39153942,0.31527835,0.9335385,0.037069708,240.0
73.4,-33.722214,150.67427,4.751994,60.543026,25.522163,0.014216046,-0.0019205981,1.4640727,-2.3820965,1.874281,-2.2790892,-0.015525004,0.4059412,0.27654833,0.4139852,-0.2381054,240.0
73.592,-33.722214,150.67427,4.7864556,60.6845,25.80829,0.014342212,-0.0045140134,1.5019779,-2.5840595,1.7082524,-1.385238,-0.44652578,0.2654792,0.2961638,0.31715596,-0.19103828,240.0
73.7,-33.72221,150.67429,4.8465295,60.872715,26.245153,0.014446663,-0.00094308116,1.5391506,-2.730707,1.477721,-0.8445387,-0.49797407,0.16067666,0.3361956,0.25140667,-0.09851927,240.0
73.9,-33.72221,150.67429,4.8839445,60.996483,26.56152,0.014053339,-0.00033440956,1.553968,-2.7658277,1.3356446,-0.62293804,-0.43109098,0.10281279,0.3475275,0.24903905,0.5006528,240.0
74.0,-33.72221,150.67429,4.9363356,61.129547,26.97016,0.0143155325,0.0022648317,1.567539,-2.7873626,1.1610023,-0.61136156,-0.49726364,0.039063025,0.35334724,0.2561764,0.5944936,240.0
74.188,-33.72221,150.67429,4.970169,61.204147,27.220222,0.014649552,0.0027898047,1.5708739,-2.7970936,1.0831788,0.07699808,-0.46659672,-0.015124956,0.33473566,0.27350578,0.4223656,240.0
74.356,-33.722206,150.6743,5.0306683,61.34051,27.684425,0.0150506,0.0032295967,1.573039,-2.8040493,0.97260576,0.19203874,-0.37821352,-0.020226961,0.31441838,0.28893572,0.22294104,240.0
74.5,-33.722206,150.6743,5.090458,61.45983,28.146883,0.015508054,0.0046265484,1.5764152,-2.804101,0.86661136,0.20603965,-0.3012185,0.012584179,0.32764977,0.27867955,0.14267343,240.0
74.6,-33.722206,150.6743,5.1281886,61.529015,28.46351,0.015901368,0.005695877,1.5798585,-2.7966979,0.79103696,0.17181432,-0.28230992,0.007373637,0.34125292,0.2814672,0.3096371,240.0
74.8,-33.722206,150.6743,5.1610303,61.584724,28.725101,0.016261773,0.007172826,1.5821221,-2.8002133,0.73609996,-0.40706778,-0.24249497,0.016117634,0.34207344,0.2793268,0.21754123,240.0
74.98,-33.722206,150.67432,5.211629,61.683975,29.248892,0.01669249,0.00796639,1.5824463,-2.8012226,0.6548446,0.0896615,-0.16700795,0.023104465,0.3464269,0.27230424,0.34331182,240.0
75.1,-33.722202,150.67432,5.2551928,61.759666,29.737856,0.017741244,0.0091411555,1.5817705,-2.8175144,0.5909108,-0.3672596,-0.17724419,0.030659508,0.3303066,0.26966053,0.26122895,240.0
75.3,-33.722202,150.67432,5.2892127,61.82503,30.113777,0.019234814,0.008602168,1.5821377,-2.8371751,0.5560109,-0.18065275,-0.15505181,0.02732016,0.31201357,0.26846403,0.038767226,240.0
75.4,-33.722202,150.67433,5.3364067,61.913414,30.659729,0.019717727,0.009018794,1.58558,-2.831989,0.49293897,-0.07624156,-0.14082569,0.057446543,0.33620596,0.25142205,0.21568513,240.0
75.572,-33.722202,150.67433,5.3619595,61.95362,30.949652,0.01979303,0.010477341,1.5881137,-2.8232036,0.4550554,-0.022407433,-0.1751352,0.0072684563,0.3115705,0.28642896,0.52190214,240.0
75.772,-33.722202,150.67433,5.413727,62.04784,31.495707,0.019025661,0.0113997655,1.5933882,-2.8246884,0.39979365,-0.31467897,-0.18791215,0.017768756,0.3200567,0.27933416,0.16929631,240.0
75.9,-33.722202,150.67435,5.4373817,62.135967,31.951342,0.018882,0.011472471,1.5947114,-2.8377748,0.3790771,0.24622642,-0.21102674,-0.020494718,0.29412627,0.29245746,0.17615423,240.0
76.068,-33.7222,150.67435,5.4532332,62.20614,32.356785,0.019348335,0.011757436,1.5963167,-2.8515902,0.35729057,0.08702583,-0.28066912,-0.0186116,0.2969611,0.27630338,-0.24045932,240.0
76.2,-33.7222,150.67435,5.4739122,62.283752,32.86964,0.01909171,0.012399319,1.5960068,-2.8557498,0.33436027,0.33829844,-0.12700059,-0.024107786,0.2643097,0.30607516,-0.3806257,240.0
76.364,-33.7222,150.67436,5.4798717,62.356316,33.330414,0.020877471,0.010493845,1.5994365,-2.912274,0.32225326,0.536835,-0.15828307,-0.007064999,0.25844932,0.25554192,-0.26296997,240.0
76.5,-33.7222,150.67436,5.491795,62.415382,33.750942,0.020430308,0.0112877935,1.6010023,-2.902156,0.30505872,0.27226943,-0.23922157,-0.021591142,0.24664739,0.2775868,-0.044503275,240.0
76.696,-33.7222,150.67436,5.5160017,62.481224,34.198315,0.018774861,0.012655597,1.6024486,-2.8853507,0.28453308,0.08990943,-0.025801929,0.03956237,0.28732824,0.2531873,0.07419412,240.0
76.8,-33.7222,150.67438,5.536891,62.559525,34.735874,0.017817302,0.014198875,1.6052017,-2.882788,0.25756872,0.18833843,-0.032298505,0.009086111,0.26238084,0.2810732,-0.044788994,240.0
76.996,-33.722195,150.67438,5.547126,62.596203,35.029797,0.017019404,0.015377408,1.6080546,-2.869775,0.23349044,-0.19561066,-0.071266115,0.052865494,0.3060665,0.25098884,0.049966197,240.0
77.1,-33.722195,150.67438,5.5613885,62.651016,35.441456,0.015688416,0.016690167,1.6128217,-2.8568745,0.2022255,0.030860681,-0.22165734,0.016935498,0.28989947,0.28154635,0.36850634,240.0
77.288,-33.722195,150.67438,5.566035,62.70222,35.780594,0.01419717,0.018231211,1.6172359,-2.852455,0.17765932,-0.1744219,-0.11538979,0.01096151,0.29963553,0.2776339,-0.07341141,240.0
77.4,-33.722195,150.6744,5.5655413,62.755043,36.253895,0.012340269,0.020345446,1.6181825,-2.8411772,0.15217923,-0.3663845,-0.21178283,0.0038147236,0.29816234,0.2888689,-0.017401626,240.0
77.6,-33.722195,150.6744,5.5558004,62.77675,36.542587,0.011257915,0.021491768,1.6182886,-2.829809,0.13557008,-0.21525152,-0.24479343,-0.015766101,0.29837486,0.29847685,-0.11467076,240.0
77.7,-33.722195,150.6744,5.5402236,62.810776,37.016327,0.009716891,0.023217535,1.6190815,-2.827861,0.10724731,-0.31224385,-0.19697042,-0.021528304,0.28143895,0.3156252,-0.08415258,240.0
77.884,-33.722195,150.6744,5.529367,62.83074,37.256287,0.008781655,0.023429237,1.6189198,-2.824993,0.098750524,0.18724972,-0.029959384,0.0019928382,0.29001692,0.30929527,-0.10576271,240.0
78.08,-33.722195,150.67441,5.509378,62.853836,37.758865,0.0071865628,0.024914782,1.6192259,-2.8139195,0.07011717,0.26653427,-0.11905604,-0.013661162,0.28742656,0.3182023,-0.2102326,240.0
78.2,-33.722195,150.67441,5.495903,62.878635,38.312256,0.0064533595,0.02439017,1.6290271,-2.8592553,0.024310313,0.39689177,-0.04194189,0.007397577,0.29543662,0.26986468,-0.09530664,240.0
78.364,-33.722195,150.67441,5.490389,62.893806,38.652203,0.0056475746,0.02445885,1.631737,-2.872267,0.005493396,0.1250183,0.038306702,0.012170315,0.29355946,0.25875542,0.06161644,240.0
78.5,-33.722195,150.67442,5.480637,62.91902,39.093506,0.004204542,0.025721284,1.6314111,-2.856003,-0.0050759832,0.20309062,-0.18470503,0.0022119083,0.29210028,0.27526954,0.19219519,240.0
78.676,-33.722195,150.67442,5.468014,62.94455,39.535854,0.0029423176,0.026357625,1.6337485,-2.8631833,-0.025172967,-0.22043274,-0.041074406,0.0409271,0.31397858,0.24572082,0.3535332,240.0
78.824,-33.722195,150.67442,5.4526386,62.97548,40.02073,0.001568807,0.02706617,1.6365205,-2.857561,-0.04439937,0.008434088,-0.20690687,0.028657926,0.3097372,0.25552833,0.701021,240.0
79.0,-33.72219,150.67444,5.4202123,63.0077,40.54758,-0.00019898002,0.02813723,1.6389672,-2.8481085,-0.06719481,-0.15415621,-0.18097432,0.030772408,0.29566616,0.27811807,0.85871965,240.0
79.1,-33.72219,150.67444,5.398846,63.016037,40.92366,-0.001452464,0.02902054,1.638693,-2.8398573,-0.084015764,-0.20536503,-0.05285242,0.029354759,0.31020367,0.27006721,0.8126826,240.0
79.3,-33.72219,150.67444,5.369728,63.025925,41.24138,-0.0026454735,0.029974064,1.6390492,-2.8298028,-0.099280745,-0.24282385,-0.037327006,0.03808516,0.32183468,0.26832938,0.844633,240.0
79.468,-33.72219,150.67445,5.3436065,63.043495,41.68489,-0.004009358,0.030577436,1.6431444,-2.8319259,-0.12478808,-0.2565805,-0.19061042,3.4338154e-05,0.29865092,0.28731865,0.7257729,240.0
79.6,-33.72219,150.67445,5.320398,63.064976,42.10487,-0.005286379,0.030398356,1.6467874,-2.838628,-0.14508878,0.28086293,0.0099314805,-0.006742919,0.29937816,0.27974117,0.6963908,240.0
79.796,-33.72219,150.67445,5.299821,63.080227,42.451332,-0.006488145,0.031575818,1.6480817,-2.8275304,-0.15525219,0.24865066,-0.073310584,-0.02311492,0.28896412,0.30082372,0.6678641,240.0
79.9,-33.72219,150.67447,5.2781825,63.091564,42.95586,-0.0078035584,0.032014325,1.6503732,-2.8269846,-0.17479159,0.24167128,-0.10760419,-0.012059536,0.30169952,0.28735614,0.4667779,240.0
80.1,-33.72219,150.67447,5.263804,63.093964,43.239765,-0.008513146,0.032371253,1.6497638,-2.8263638,-0.18245819,0.23173138,0.024482595,0.0035916439,0.29523534,0.29340047,0.22144249,240.0
80.2,-33.72219,150.67447,5.240094,63.09949,43.622513,-0.009407499,0.033748012,1.6502496,-2.8132951,-0.19602157,-0.15131162,-0.18157141,0.017729964,0.29593197,0.30417535,0.22905354,240.0
80.392,-33.72219,150.67447,5.2258606,63.09706,44.019684,-0.010166251,0.033850957,1.6516501,-2.820366,-0.21449637,-0.047104698,0.04841839,0.045571607,0.3190093,0.27218473,0.33128756,240.0
80.5,-33.72219,150.67448,5.1841607,63.09857,44.52423,-0.011126353,0.033872195,1.6555187,-2.8293543,-0.23873743,-0.28705594,-0.009549797,0.041950468,0.3172124,0.26342255,0.5244152,240.0
80.7,-33.72219,150.67448,5.157556,63.098373,44.83724,-0.01159663,0.03395629,1.6582767,-2.8234632,-0.25188243,-0.2686055,-0.14266664,0.020982116,0.31191045,0.27359158,0.47649056,240.0
80.8,-33.72219,150.67448,5.11139,63.096703,45.350346,-0.012252963,0.034615308,1.6579577,-2.81431,-0.2603891,-0.3564264,-0.12407813,0.034577917,0.30679995,0.28673774,0.3357079,240.0
80.984,-33.72219,150.67448,5.0887804,63.09636,45.6152,-0.012615263,0.034972385,1.6575416,-2.8007407,-0.26220623,0.17473151,-0.14625157,-0.023330048,0.28016335,0.32641965,0.41287377,240.0
81.16,-33.72219,150.6745,5.041337,63.077183,46.087765,-0.012831681,0.035299025,1.6607801,-2.7961109,-0.2894721,0.2523307,-0.084887706,-0.0031429315,0.30141434,0.30650142,0.53599447,240.0
81.3,-33.72219,150.6745,4.9942794,63.05336,46.58036,-0.013031876,0.03550594,1.6630564,-2.7894733,-0.31538787,0.14046478,-0.1486847,-0.015986387,0.30616307,0.30296528,0.4285967,240.0
81.4,-33.72219,150.6745,4.9697466,63.039272,46.91212,-0.0131509835,0.035867944,1.6639246,-2.7867212,-0.32954267,0.10997798,-0.17149979,-0.034802314,0.28581885,0.32546934,0.60344154,240.0
81.6,-33.72219,150.67451,4.949923,63.026142,47.273365,-0.013246555,0.03597696,1.6658481,-2.7872264,-0.34656125,-0.12911701,-0.17361507,0.01694502,0.30768394,0.30065572,0.5311956,240.0
81.776,-33.72219,150.67451,4.9192114,63.026306,47.81975,-0.013414123,0.032503035,1.6751933,-2.8328846,-0.37816882,0.50072247,0.023146397,-0.0044461647,0.30666327,0.2534927,0.5123713,240.0
81.9,-33.72219,150.67451,4.8779297,63.028824,48.35613,-0.013357494,0.03202064,1.6752766,-2.8346803,-0.3784469,0.24188155,0.099389106,-0.0018010434,0.2921242,0.26607865,0.66368765,240.0
82.1,-33.72219,150.67453,4.838866,63.032764,48.80855,-0.013064976,0.032618467,1.6742935,-2.8174274,-0.37569666,-0.1317622,-0.12575531,0.041464772,0.28485453,0.29017234,0.5663238,240.0
82.2,-33.72219,150.67453,4.813388,63.031563,49.23595,-0.012585162,0.032321803,1.6766883,-2.8066196,-0.38318187,0.28683984,0.053197306,0.023740597,0.3016137,0.2832222,0.6914755,240.0
82.4,-33.72219,150.67453,4.7963166,63.02902,49.541027,-0.01214524,0.032857634,1.679103,-2.8008804,-0.39321688,0.0739206,0.073637806,0.042660505,0.3156244,0.27246687,0.6277163,240.0
82.568,-33.72219,150.67453,4.761595,63.026096,49.98667,-0.011371381,0.032810993,1.6828059,-2.794256,-0.40853038,-0.34145448,-0.045184713,0.041120302,0.31854504,0.2749688,0.49644503,240.0
82.7,-33.72219,150.67455,4.721371,63.015427,50.43472,-0.010503305,0.033261336,1.6831882,-2.7837105,-0.41774544,-0.3369481,-0.1953447,0.02147371,0.3012817,0.30028403,0.70528024,240.0
82.9,-33.72219,150.67455,4.677917,63.004078,50.901123,-0.009967987,0.029940363,1.6924154,-2.817551,-0.4531312,0.27396747,0.111419916,0.012892684,0.31862772,0.24513818,0.9738044,240.0
83.0,-33.722195,150.67455,4.6439238,62.98708,51.39611,-0.009047002,0.029803006,1.6934155,-2.8156574,-0.4606851,-0.17017892,0.003969952,0.020449363,0.2939435,0.26979664,0.87356037,240.0
83.2,-33.722195,150.67456,4.630179,62.97585,51.65095,-0.008311598,0.029746419,1.6914858,-2.798173,-0.4538309,0.24620765,-0.08193023,-0.029324165,0.25959864,0.3214788,0.5545432,240.0
83.3,-33.722195,150.67456,4.603564,62.95824,52.108765,-0.007242974,0.028697548,1.6930988,-2.8027778,-0.4651392,0.31154317,0.046090312,0.0016999431,0.2886991,0.28534168,0.62262434,240.0
83.492,-33.722195,150.67456,4.5898733,62.949287,52.473858,-0.006293632,0.028121272,1.6958196,-2.7943892,-0.4729631,0.32072592,0.036670323,0.0024370437,0.26831114,0.31263852,0.69484097,240.0
83.6,-33.722195,150.67458,4.5711713,62.93855,52.968143,-0.0048528565,0.027941532,1.7011364,-2.7797556,-0.48972446,0.30296192,-0.009222484,-0.0026342196,0.2742464,0.3184926,0.6808561,240.0
83.8,-33.722195,150.67458,4.562644,62.927437,53.26205,-0.003927488,0.027473167,1.705224,-2.7862365,-0.50816673,0.06866313,0.056099217,0.060805794,0.3122455,0.27106977,0.72010225,240.0
83.9,-33.722195,150.67458,4.5390296,62.909214,53.717785,-0.0025467488,0.027205849,1.7093385,-2.7788599,-0.52534103,-0.2689138,-0.03190272,0.036651697,-0.936445,-1.0,0.39293122,240.0
84.088,-33.722195,150.67458,4.526576,62.89521,54.0234,-0.0012964152,0.025906831,1.7097749,-2.5000377,-0.45098674,2.6413543,0.7090596,0.004800944,-1.0,-1.0,0.43478692,240.0
84.24,-33.722195,150.67459,4.509877,62.87258,54.404743,0.0002132414,0.020936817,1.7115706,-2.0958803,-0.3497047,1.9329891,0.5164317,0.0150865065,1.0,-1.0,0.74039674,240.0
84.4,-33.722195,150.67459,4.505621,62.850838,54.747192,0.00076840434,0.021930981,1.6841722,-2.2709308,-0.33953378,2.2979634,0.45347017,-0.22822073,-0.99999994,-0.7261351,0.9494851,240.0
84.5,-33.722195,150.67459,4.5037737,62.826565,55.023384,0.00224272,0.02223221,1.6580808,-2.0885165,-0.2506304,-3.1770642,-0.59194237,-0.19215217,1.0,-1.0,0.7597828,240.0
84.68,-33.722195,150.67459,4.504261,62.813683,55.24348,0.002821645,0.027210977,1.6251812,-2.3632994,-0.21523811,2.1833117,0.052821144,-0.37464863,-1.0,-0.55042166,0.7988732,240.0
84.88,-33.722195,150.6746,4.4966555,62.799015,55.70837,0.0048795096,0.015593093,1.5723058,-2.3679883,-0.075994335,2.5014265,0.0050218645,-0.35517257,-1.0,-0.57379293,0.6659363,240.0
85.0,-33.722195,150.6746,4.4998007,62.782146,56.062767,0.0064849416,0.020645175,1.5255505,-2.3573718,0.053795118,-4.7687654,0.08934983,-0.3520663,-1.0,-0.5775204,0.48052278,240.0
85.184,-33.722195,150.6746,4.499125,62.775375,56.35199,0.007239786,0.018260777,1.4839162,-2.1414952,0.12881355,1.9308488,-0.25419354,-0.22780757,1.0,-1.0,0.07306598,240.0
85.3,-33.722195,150.6746,4.5023026,62.767403,56.730606,0.008423426,0.021313969,1.4248302,-2.2065113,0.2977535,1.9176552,-0.4525106,-0.29572356,-0.99999994,-0.64513165,0.12149743,240.0
85.472,-33.722195,150.6746,4.501382,62.752617,57.022655,0.009847143,0.016425258,1.391366,-2.4193199,0.47019506,-3.4561903,1.3130274,-0.41318378,-1.0,-0.5041795,0.11744644,240.0
85.644,-33.722195,150.67462,4.5035768,62.734535,57.432808,0.012424931,0.015149196,1.3499484,-2.116558,0.4710816,-3.9455516,2.3156388,-0.14895414,1.0,-1.0,-0.08189493,240.0
85.8,-33.722195,150.67462,4.5253015,62.73031,57.84258,0.013531172,0.019925091,1.2772039,-2.3036075,0.8047825,1.9023452,-0.9988753,-0.32052577,-1.0,-0.6153691,-0.3146749,240.0
85.9,-33.722195,150.67462,4.5370607,62.732075,58.105156,0.014560595,0.015254938,1.2486367,-2.053468,0.7453962,1.5778502,-0.8597876,-0.16378056,1.0,-1.0,-0.60821944,240.0
86.1,-33.722195,150.67462,4.5509253,62.751175,58.409645,0.015652569,0.016590776,1.2041994,-2.0508287,0.9283619,1.5505433,-1.0120114,-0.2458687,1.0,-1.0,-0.8374375,240.0
86.264,-33.722195,150.67464,4.5726066,62.775295,58.72461,0.016671952,0.01874713,1.1563026,-2.126166,1.2454581,-0.09543005,0.49909082,-0.4882339,-1.0,-0.41411927,-0.77717656,240.0
86.4,-33.722195,150.67464,4.5865726,62.802116,58.979584,0.017505188,0.017953701,1.1223668,-1.948812,1.1877756,1.3241607,-1.1833559,-0.2941457,1.0,-1.0,-0.85203373,240.0
86.596,-33.722195,150.67464,4.6246266,62.868137,59.422577,0.019134874,0.015051306,1.0527304,-1.9010313,1.4997134,1.3480308,-1.5586079,-0.26595026,-0.99999994,-0.6808596,-0.9859121,240.0
86.7,-33.722195,150.67464,4.6541176,62.936573,59.81067,0.02007073,0.02034057,1.0024188,-1.7780648,1.7299296,-0.8466834,3.2188416,-0.47437665,-1.0,-0.48620456,-0.9408239,240.0
86.876,-33.72219,150.67465,4.669588,62.996895,60.035545,0.020032976,0.023373675,0.961286,-1.5968173,1.6604621,0.9547684,-1.4717065,-0.27633542,1.0,-1.0,-0.7234262,240.0
87.0,-33.72219,150.67465,4.690256,63.077477,60.283943,0.020232486,0.018487303,0.9154853,-1.5164354,1.9886198,0.97344005,-2.0857487,-0.3299917,-1.0,-0.5840864,-0.77200663,240.0
87.188,-33.72219,150.67465,4.711218,63.214336,60.631763,0.020702317,0.021615788,0.85901296,-1.2990174,2.1720877,0.72030085,-2.1811635,-0.4420882,-1.0,-0.46949413,-0.81197685,240.0
87.3,-33.72219,150.67465,4.7518964,63.372086,60.99668,0.021017848,0.025135517,0.7958785,-1.0412843,2.3305824,0.4091325,3.049829,-0.47531384,-1.0,-0.42962337,-0.8343186,240.0
87.5,-33.722187,150.67465,4.7826653,63.478455,61.216022,0.021055132,0.026476067,0.7569535,-0.8952724,2.1666577,0.38925916,-1.8635879,-0.25238374,1.0,-1.0,-0.9160228,240.0
87.6,-33.722187,150.67467,4.843041,63.687572,61.602142,0.021266893,0.020399826,0.69628215,-0.63379,2.2380087,0.16703707,-2.0083263,-0.21847981,1.0,-1.0,-0.9969996,240.0
87.784,-33.722187,150.67467,4.8717775,63.80876,61.80663,0.020938326,0.025535557,0.6569568,-0.41253573,2.5321934,-0.17458116,-2.2968097,-0.48835108,-0.99999994,-0.41397864,-1.0113517,240.0
87.956,-33.722183,150.67467,4.935172,64.08568,62.250008,0.020513216,0.021558657,0.6046241,-0.1987481,2.4817157,0.41479045,-0.3550732,-0.3575297,-1.0,-0.5677564,-1.1822426,240.0
88.1,-33.72218,150.67467,5.0061107,64.34304,62.64469,0.020728001,0.019797226,0.560379,-0.03958582,2.3428547,0.80287325,0.59485954,-0.24654242,0.31056976,-1.0,-0.8030909,240.0
88.2,-33.72218,150.67468,5.0454617,64.52668,62.911915,0.02058847,0.018895963,0.5336353,0.103011124,2.3803155,0.41793925,-0.28348207,-0.26417333,0.14404052,-0.99999994,-0.58910394,240.0
88.4,-33.722176,150.67468,5.0950227,64.74699,63.20882,0.020429997,0.019297626,0.50381744,0.19215319,2.2668152,0.07528069,-0.83580965,-0.16871893,0.105710745,-1.0,-0.50669575,240.0
88.576,-33.722176,150.67468,5.144384,64.94984,63.471046,0.020271182,0.018192723,0.4611517,0.59550756,2.51588,3.3718755,3.5061061,-0.39772475,0.7919816,0.2353687,-0.4068502,240.0
88.7,-33.72217,150.67468,5.2064137,65.29322,63.799976,0.018650943,0.024908535,0.39262763,1.173632,2.7753808,1.6859387,0.47044182,-0.32201403,0.40228128,0.1932043,-0.3224389,240.0
88.9,-33.722168,150.6747,5.2517447,65.682045,64.11429,0.01765224,0.02029791,0.35128936,1.4371216,2.7261088,0.53130764,-0.22107384,-0.18734373,0.3248794,0.20604861,-0.32937542,240.0
89.0,-33.722164,150.6747,5.2967668,66.14702,64.460915,0.016852876,0.01733903,0.33001947,1.6165668,2.6731293,0.3245371,-0.4582558,-0.11067447,0.2903015,0.18415995,-0.35332063,240.0
89.2,-33.72216,150.6747,5.3237867,66.460594,64.67396,0.016409121,0.017670259,0.31894973,1.697116,2.6013541,0.25650376,-0.47596318,-0.079615854,0.28678492,0.19252953,-0.26590794,240.0
89.368,-33.722157,150.6747,5.3784657,66.97666,65.01636,0.014597484,0.014803036,0.30684498,1.8213234,2.5378792,0.21818516,-0.44264942,-0.054990698,0.2635839,0.17917812,-0.43602255,240.0
89.5,-33.722153,150.6747,5.431537,67.38512,65.274994,0.013631817,0.013215221,0.29824042,1.8831034,2.4520557,0.26460978,-0.32150674,-0.042427912,0.26923814,0.19030496,-0.346198,240.0
89.696,-33.72215,150.6747,5.4655933,67.708,65.464676,0.0130401775,0.014147652,0.29085264,1.9330344,2.3733814,0.24341276,-0.25646624,-0.040632002,0.2637468,0.21063358,-0.34482366,240.0
89.8,-33.722145,150.67471,5.512469,68.16215,65.72417,0.012092732,0.013416761,0.28382245,2.0048192,2.27852,0.37536225,-0.20381624,-0.017730163,0.2839501,0.195773,-0.31794542,240.0
90.0,-33.722145,150.67471,5.5297794,68.38269,65.845276,0.011304884,0.013078196,0.28057754,2.0274336,2.2233667,0.34372443,-0.16891503,-0.03065231,0.26963848,0.22613472,-0.25506562,240.0
90.1,-33.72214,150.67471,5.5633936,68.74425,66.04574,0.009363843,0.01123833,0.27623117,2.096253,2.1943429,0.2535143,-0.21884644,-0.01653687,0.2707522,0.18969451,-0.07635128,240.0
90.292,-33.722137,150.67471,5.577158,69.10969,66.22807,0.0076667164,0.009284587,0.27230328,2.1363273,2.136727,0.08377278,-0.29090977,-0.024493681,0.25511268,0.20809133,-0.1558027,240.0
90.4,-33.722134,150.67471,5.587933,69.52471,66.416504,0.0062509244,0.010358094,0.26861852,2.1559947,2.0451877,0.15688917,-0.21775678,-0.021532007,0.27302724,0.22569568,-0.07139089,240.0
90.6,-33.722134,150.67471,5.595106,69.76814,66.52165,0.005465823,0.010935795,0.2675285,2.1679525,1.99526,0.28695834,-0.13565654,-0.0105330525,0.29673946,0.21879768,-0.026019508,240.0
90.7,-33.72213,150.67471,5.6080933,70.156876,66.682594,0.003566596,0.010217796,0.26524365,2.20119,1.9312733,0.27638948,-0.13447493,-0.021276815,0.28865534,0.23415594,0.18543974,240.0
90.884,-33.722126,150.67471,5.6183076,70.3754,66.77229,0.0025601755,0.0105192205,0.2640847,2.2150462,1.8963891,0.30636594,0.07771452,-0.009320652,0.30601373,0.223788,0.022921002,240.0
91.084,-33.722122,150.67473,5.6319814,70.80373,66.94304,0.00050743244,0.010478725,0.2611827,2.2376208,1.830407,0.29099274,-0.09495146,-0.011525442,0.3136764,0.23325524,0.48380294,240.0
91.2,-33.72212,150.67473,5.642058,71.19709,67.10157,-0.0011717896,0.010327905,0.25842035,2.2592087,1.7803202,0.28574508,-0.07084493,-0.012590232,0.31761098,0.23851408,0.13710973,240.0
91.364,-33.72212,150.67473,5.649767,71.45408,67.20122,-0.0023422947,0.010497174,0.25685245,2.273015,1.7505693,0.36795738,0.09575668,-0.017699664,0.32033986,0.24018782,-0.039032996,240.0
91.5,-33.722115,150.67473,5.650539,71.802345,67.32782,-0.004072524,0.010433618,0.25362006,2.292884,1.7058638,0.17920224,-0.08674755,-0.018141555,0.30549812,0.26264894,0.07255805,240.0
91.676,-33.72211,150.67473,5.6376724,72.12452,67.43356,-0.00587454,0.0104710655,0.25094467,2.3191555,1.6741952,0.30098307,0.012715076,-0.019285953,0.31131625,0.2514676,0.016896961,240.0
91.828,-33.722107,150.67473,5.6169944,72.54342,67.57358,-0.007952575,0.009496243,0.24671786,2.3500993,1.6372296,0.13746,-0.107845694,-0.017154621,0.2997407,0.25718233,0.016178647,240.0
92.0,-33.722103,150.67473,5.5977507,73.01099,67.73559,-0.00977726,0.009640765,0.2449373,2.3703067,1.6029366,0.12319396,-0.09747211,-0.014587457,0.3020526,0.25496796,-0.15102077,240.0
92.1,-33.7221,150.67473,5.5726857,73.358444,67.85982,-0.011070001,0.009800332,0.24353828,2.3754292,1.5761403,0.16953702,-0.04958324,-0.015805706,0.30815443,0.25841096,-0.408387,240.0
92.3,-33.722095,150.67473,5.5365157,73.664024,67.95817,-0.012388999,0.010274838,0.24276358,2.383907,1.5497818,0.29667556,0.018717898,-0.0113252485,0.31362638,0.25879076,-0.118927754,240.0
92.468,-33.72209,150.67473,5.4967885,74.09406,68.08035,-0.014482649,0.010444577,0.23965119,2.412357,1.514634,0.08516772,-0.101453125,-0.019723227,0.3026865,0.26297408,-0.05421775,240.0
92.6,-33.722088,150.67473,5.4593015,74.529274,68.20204,-0.016040405,0.010379857,0.23639722,2.432099,1.480067,0.035949517,-0.13073382,-0.00843299,0.29475245,0.2713106,-0.24159649,240.0
92.8,-33.722084,150.67473,5.414053,74.97528,68.32678,-0.017460145,0.010124864,0.23281936,2.4624226,1.4596266,0.07304178,-0.06632058,0.008395852,0.2777601,0.2723835,0.050418004,240.0
92.9,-33.72208,150.67474,5.355526,75.437996,68.462395,-0.018878184,0.009027656,0.22953212,2.4866827,1.4450423,-0.07200982,-0.15661299,0.023206074,0.27839696,0.25796723,0.21598402,240.0
93.1,-33.722076,150.67474,5.3159103,75.74,68.54348,-0.019617353,0.009679388,0.23374112,2.4831257,1.4400661,0.0731432,0.040870067,0.027204055,0.30036604,0.24054503,-0.12317984,240.0
93.2,-33.722076,150.67474,5.2531347,76.13156,68.65034,-0.020382816,0.011174522,0.23781607,2.4712307,1.4258139,0.012821841,-0.10423155,0.0007029377,0.30975595,0.247148,0.13282272,240.0
93.392,-33.722073,150.67474,5.1976333,76.52227,68.76869,-0.021065451,0.011686634,0.236119,2.4847832,1.4147758,0.13907455,-0.03137469,-0.008415535,0.30682433,0.24505828,0.11392884,240.0
93.5,-33.72207,150.67474,5.12768,76.97733,68.91683,-0.02133457,0.012730242,0.23301484,2.4880505,1.3963714,0.12834728,0.05054016,-0.01510916,0.3100011,0.24887578,-0.26727605,240.0
93.7,-33.722065,150.67474,5.0910316,77.2495,68.998055,-0.021491004,0.013642852,0.23138784,2.4879146,1.381276,0.068649836,-0.056476317,-0.024173273,0.29777968,0.2689662,0.1832356,240.0
93.8,-33.72206,150.67474,5.0223074,77.705215,69.13331,-0.021576874,0.015211114,0.22969557,2.485606,1.3595539,0.050738975,-0.06726508,-0.014626674,0.31959996,0.25869134,0.09602503,240.0
93.988,-33.722057,150.67474,4.9950137,77.94313,69.21089,-0.021391302,0.016230028,0.22929586,2.4796972,1.3502787,0.07725516,-0.07993539,-0.011927129,0.3298301,0.25993747,0.4500787,240.0
94.156,-33.722054,150.67474,4.950992,78.36405,69.341736,-0.02110374,0.018101797,0.22880052,2.471098,1.3344469,0.10796742,-0.06346935,-0.010717418,0.34576938,0.25955048,0.74777454,240.0
94.3,-33.72205,150.67474,4.904486,78.75907,69.4594,-0.020779205,0.0196414,0.22716479,2.4758284,1.3196255,0.07084316,-0.2404329,-0.009109764,0.34945554,0.2588293,0.85189056,240.0
94.4,-33.72205,150.67474,4.859983,79.12575,69.56125,-0.020296887,0.020881211,0.22533244,2.4811954,1.3048867,0.0859547,-0.06757359,-0.010698423,0.34958488,0.26083928,0.8030512,240.0
94.6,-33.722046,150.67474,4.8216496,79.39383,69.6298,-0.019870454,0.022037607,0.22473226,2.4835374,1.2925925,0.47992402,-0.07695882,-0.013181663,0.35344282,0.2626135,0.6455831,240.0
94.78,-33.722042,150.67476,4.7601337,79.954926,69.77393,-0.019306822,0.021200832,0.21175794,2.5481257,1.2692128,-0.08261985,-0.1329118,-0.0061541367,0.2881884,0.27845114,0.25925642,240.0
94.9,-33.722034,150.67476,4.7129073,80.450836,69.89438,-0.018325804,0.022047466,0.21164288,2.5552096,1.257139,-0.32838568,-0.029481646,0.020198952,0.30347103,0.26110667,0.23421459,240.0
95.1,-33.722034,150.67476,4.6816263,80.79282,69.98004,-0.017234793,0.023676354,0.21545805,2.5446033,1.2542863,-0.008918571,-0.13158295,0.016391523,0.31452402,0.26003173,0.2165176,240.0
95.2,-33.722027,150.67476,4.638685,81.308266,70.11065,-0.015706329,0.024909653,0.21457835,2.5514207,1.2438332,0.14178401,0.15557067,0.0028201449,0.31690893,0.2550328,0.28676364,240.0
95.396,-33.722027,150.67476,4.6264877,81.58269,70.18192,-0.014821681,0.025618328,0.2139749,2.549133,1.2359515,-0.027670534,-0.056912474,-0.0071555576,0.3213719,0.2552371,0.7142466,240.0
95.572,-33.722023,150.67476,4.603797,82.073906,70.31215,-0.012820064,0.027416972,0.21335459,2.5519168,1.2275206,0.2281669,0.06337601,-0.0153976055,-1.0,-1.0,0.42566335,240.0
