timestamp,lat,lon,alt,x,y,roll,pitch,yaw,vel_x,vel_y,accel_x,accel_y,yaw_rate,right_engine,left_engine,wind_speed,wind_direction
29.7,-33.722763,150.674,0.32369924,0.08697765,0.099563345,-0.008803755,0.021379916,0.59206337,0.01977275,-0.028847555,0.00094273384,0.006280731,-9.130794e-05,0.0,0.0,0.0,240.0
29.8,-33.722763,150.674,0.30040252,0.086558744,0.09397598,-0.008643924,0.022004614,0.5920018,0.018265542,-0.03226128,-0.0063545047,-0.0072390093,-0.00016876493,0.0,0.0,0.0,240.0
30.0,-33.722763,150.674,0.2863871,0.085661985,0.09022849,-0.008761565,0.022343049,0.5920057,0.018607412,-0.03604587,0.004482819,-0.010731691,-0.00025864044,0.0,0.0,0.0,240.0
30.164,-33.722763,150.674,0.28792322,0.066827245,0.09677807,-0.008072097,0.02250717,0.59179187,0.0054306234,-0.03906854,-0.007045518,-0.015822526,-0.0003468197,0.0,0.0,0.0,240.0
30.296,-33.722763,150.674,0.29204726,0.059299663,0.10594258,-0.007814454,0.022287382,0.591696,-0.0016267962,-0.03661456,-0.006092614,-0.014504262,-0.0003323242,0.0,0.0,0.0,240.0
30.4,-33.722763,150.674,0.30295372,0.045457225,0.12626226,-0.0075442474,0.021962117,0.5915593,-0.012012001,-0.02959883,-0.0043090465,-0.012119423,-0.00014221149,0.0,0.0,0.0,240.0
30.592,-33.722763,150.674,0.31627834,0.042127676,0.1443147,-0.0072159837,0.0215879,0.59144515,-0.017773896,-0.020765936,-0.010703343,-0.005695713,3.193347e-05,0.0,0.0,0.0,240.0
30.7,-33.722763,150.674,0.33256686,0.040525027,0.16071644,-0.0070761275,0.021437531,0.5913722,-0.02207775,-0.014155685,-0.008708622,-0.009217706,0.00013652112,0.0,0.0,0.0,240.0
30.892,-33.722763,150.674,0.35425138,0.04312237,0.17157724,-0.007733671,0.021735447,0.59149677,-0.019324718,-0.013062316,-0.0048870356,-0.0089824665,-8.583747e-05,0.0,0.0,0.0,240.0
31.0,-33.722763,150.674,0.369542,0.031262085,0.1802236,-0.0074053984,0.021906752,0.59136295,-0.023883611,-0.01382719,-0.0018998985,-0.0007618233,-0.00031658963,0.0,0.0,0.0,240.0
31.1,-33.722763,150.674,0.36931098,0.026752254,0.18398175,-0.0073201726,0.022083614,0.5912766,-0.02566941,-0.014867855,-0.003785534,-0.004266342,-0.00040280703,0.0,0.0,0.0,240.0
31.3,-33.722763,150.674,0.36452436,0.026369289,0.1854292,-0.0075015533,0.022192128,0.59127444,-0.025206521,-0.016588071,-0.005120743,-0.010553043,-6.700694e-05,0.0,0.0,0.0,240.0
31.484,-33.722763,150.674,0.3452996,0.05626097,0.20009062,-0.008064624,0.021332031,0.56752235,0.24811108,0.5484062,2.4461386,5.118483,-0.40256548,1.0,0.2881522,0.0,240.0
31.6,-33.72276,150.674,0.33100152,0.27510753,0.32932103,-0.009564201,0.027195625,0.4918744,1.0148699,1.7097319,4.8328223,6.920926,-0.37510216,1.0,0.7720648,0.0,240.0
31.7,-33.722755,150.674,0.32609677,0.5333805,0.48129997,-0.008902659,0.027855579,0.45921224,1.5889704,2.3867931,4.3344884,5.7729926,-0.12743305,0.5233227,0.37011495,0.0,240.0
31.9,-33.722755,150.674,0.31781888,0.90372074,0.68986034,-0.0078448905,0.023111535,0.4316047,1.8143946,2.513096,-0.20071256,-0.25371835,-0.09425344,0.24347726,0.2978979,0.0,240.0
32.08,-33.722748,150.67401,0.29469192,1.420307,0.9670882,-0.007576919,0.022241957,0.4211778,1.7785577,2.392115,-0.21225128,-0.29022086,0.004457573,0.2895453,0.24416803,0.0,240.0
32.2,-33.722744,150.67401,0.27171528,1.9583768,1.2553548,-0.010041438,0.014514356,0.41680515,1.7942076,2.363515,-0.6277708,-0.66870075,0.0025060084,0.24023214,0.20828709,0.0,240.0
32.36,-33.72274,150.67401,0.25496483,2.3354683,1.4651657,-0.010935928,0.010081633,0.4160913,1.792148,2.3484867,-0.45352563,-0.5465206,-0.0027604715,0.24661428,0.21410292,0.0,240.0
32.5,-33.722736,150.67401,0.2409023,2.8038352,1.7229134,-0.010561142,0.010360152,0.41804188,1.786822,2.3387017,0.030060867,-0.10154207,0.02543895,0.2551272,0.2070253,0.0,240.0
32.672,-33.722733,150.67401,0.22205794,3.1888647,1.9392049,-0.009095274,0.0131218545,0.420503,1.766772,2.3122737,-0.09751992,-0.19159089,-0.021751987,0.2814758,0.22211167,0.0,240.0
32.8,-33.72273,150.67401,0.20591533,3.5787804,2.1523676,-0.008383561,0.016774714,0.41795686,1.7657931,2.2777164,0.22973312,0.05559091,-0.012661377,0.3046148,0.22728536,0.0,240.0
33.0,-33.722725,150.67403,0.18971801,3.9646184,2.3700912,-0.011018116,0.008320355,0.41594926,1.8332719,2.3521595,0.26338133,0.12944019,-0.021288898,0.2564245,0.18166797,0.0,240.0
33.1,-33.72272,150.67403,0.18335962,4.512284,2.6858418,-0.0121174,0.003150149,0.41523412,1.8395071,2.3629727,-0.14652212,-0.32847807,-0.019111967,0.24762604,0.16196612,0.0,240.0
33.268,-33.722717,150.67403,0.1822685,4.8137503,2.8565488,-0.011329552,0.004708728,0.41365665,1.8434075,2.364696,0.12541011,0.06522861,-0.0068248822,0.24979225,0.16464505,0.0,240.0
33.464,-33.722713,150.67403,0.17598534,5.256063,3.102283,-0.011219433,0.002750111,0.40904927,1.856749,2.3599875,-0.12597854,-0.23224685,-0.013962312,0.22108513,0.18675488,0.0,240.0
33.596,-33.722713,150.67403,0.16460395,5.599474,3.2886574,-0.012268089,-0.0015837485,0.40587872,1.894301,2.390216,-0.049335703,0.024880363,-0.027371204,0.19216143,0.17114724,0.0,240.0
33.7,-33.722706,150.67403,0.17159784,6.1143656,3.566416,-0.012553197,-0.0022024028,0.4045486,1.8966433,2.3807335,-0.026385479,-0.029529367,0.007254834,0.2140445,0.15504248,0.0,240.0
33.9,-33.722706,150.67404,0.17381394,6.3685403,3.7035358,-0.012108198,-0.0008174522,0.40392876,1.8860902,2.3578835,0.0168789,-0.043737885,-0.02077072,0.21489376,0.17875963,0.0,240.0
34.0,-33.722702,150.67404,0.17841303,6.617878,3.8437188,-0.010931563,0.003062184,0.40373027,1.8668133,2.3274846,0.14355,0.21537116,-0.009723103,0.24317533,0.17484158,0.0,240.0
34.192,-33.7227,150.67404,0.18640721,6.919878,4.011229,-0.0096012745,0.0073459414,0.40279865,1.8643268,2.3067372,0.3885529,0.26695517,-0.016995024,0.26186475,0.18647018,0.0,240.0
34.3,-33.7227,150.67404,0.19376063,7.298259,4.1994696,-0.009314184,0.010765958,0.40017202,1.8697177,2.2680197,0.25993237,0.086423345,-0.026851786,0.2660859,0.20487307,0.0,240.0
34.4,-33.722694,150.67404,0.19762075,7.493265,4.2970853,-0.008477081,0.014690323,0.39896983,1.8618649,2.239071,0.38980463,0.26621038,0.013737641,0.28002015,0.22235473,0.0,240.0
34.6,-33.722694,150.67404,0.19708419,7.737275,4.416076,-0.007857264,0.015769862,0.3969466,1.8763837,2.2339559,0.41743955,0.28341377,0.013391966,0.27617496,0.22857197,0.0,240.0
34.784,-33.72269,150.67404,0.19123423,8.068337,4.5631237,-0.00796678,0.016275808,0.39578497,1.8930224,2.2239847,0.19795623,0.12878565,0.002611995,0.26783678,0.2251437,0.0,240.0
34.9,-33.722687,150.67404,0.18297517,8.462411,4.7328205,-0.008043622,0.01910736,0.3973095,1.897283,2.1989334,0.2035762,0.24583925,0.008434632,0.27941576,0.22400412,0.0,240.0
35.072,-33.722683,150.67404,0.18141639,8.688788,4.84424,-0.007216319,0.020767858,0.3958198,1.8911141,2.1758475,0.069568366,0.045519955,-0.023731042,0.27554873,0.25426862,0.0,240.0
35.2,-33.722683,150.67404,0.17920923,8.988528,4.996727,-0.0074611483,0.018534368,0.39521232,1.9214406,2.2055578,0.10374756,0.13650262,0.0024124335,0.27591833,0.2231535,0.0,240.0
35.38,-33.72268,150.67406,0.16892326,9.373885,5.197001,-0.007960564,0.015682263,0.3953346,1.9367307,2.2216926,0.009768464,-0.12623924,-0.015070063,0.26588213,0.19826378,0.0,240.0
35.5,-33.722675,150.67406,0.1683023,9.793959,5.4109764,-0.0072874706,0.017796455,0.39238867,1.9323131,2.2021155,0.11578196,-0.026174737,-0.0099523375,0.2705272,0.2121803,0.0,240.0
35.7,-33.72267,150.67406,0.17486167,10.063091,5.554158,-0.006156332,0.020338098,0.38851595,1.9245621,2.1808214,0.15780821,0.03134683,0.004092004,0.272627,0.23286118,0.0,240.0
35.8,-33.722668,150.67406,0.18718946,10.450921,5.76011,-0.0057263765,0.021683155,0.38789424,1.9215599,2.1771917,0.31360215,0.18353818,0.0133614065,0.2797129,0.23517396,0.0,240.0
35.972,-33.722664,150.67406,0.19085681,10.730378,5.9057837,-0.0060568154,0.018310428,0.38803226,1.9518653,2.2165422,0.09315951,0.1566121,0.015122728,0.26179016,0.19884576,0.0,240.0
36.152,-33.72266,150.67406,0.18743634,11.177016,6.135479,-0.006130397,0.01572329,0.3870553,1.9557217,2.2226732,-0.09842366,-0.03991764,-0.006407971,0.2622387,0.19105008,0.0,240.0
36.3,-33.72266,150.67406,0.19388747,11.579923,6.3330793,-0.005055233,0.021041492,0.38223687,1.9298421,2.172345,0.12732732,-0.024399357,-0.029804997,0.27691013,0.22116274,0.0,240.0
36.4,-33.722656,150.67407,0.19808483,11.927961,6.511582,-0.0050397534,0.017575447,0.3810741,1.9797543,2.2263682,0.15429062,0.19713661,0.0011207864,0.24562633,0.19130194,0.0,240.0
36.592,-33.722652,150.67407,0.20058143,12.2296,6.665251,-0.0051106005,0.014395747,0.38103917,1.990896,2.2415495,-0.23931444,-0.18774498,-0.02233841,0.2273117,0.19008294,0.0,240.0
36.764,-33.72265,150.67407,0.20601189,12.70638,6.9053564,-0.004550448,0.016487245,0.3782132,1.9785503,2.217587,0.026340093,0.051288065,-0.022754952,0.25592554,0.19232023,0.0,240.0
36.896,-33.722645,150.67407,0.20540679,12.936267,7.0202475,-0.004641715,0.01517372,0.3785696,1.9957433,2.2344692,0.20457423,0.09303177,-0.0006534732,0.2473123,0.1730361,0.0,240.0
37.0,-33.72264,150.67407,0.19646275,13.381645,7.228011,-0.004859672,0.017363919,0.37641948,1.9856771,2.195178,0.045888502,-0.08522241,-0.037683293,0.24140503,0.21472095,0.0,240.0
37.2,-33.72264,150.67407,0.19507301,13.63558,7.3369308,-0.004920812,0.019117085,0.37502903,1.9837523,2.172062,0.22388153,0.08577576,-0.021289073,0.2695491,0.2043207,0.0,240.0
37.3,-33.722637,150.67407,0.18557262,13.980624,7.4816985,-0.0050917156,0.022765616,0.37340787,1.97937,2.136452,0.38130298,0.28816718,0.0083716065,0.2634185,0.23604244,0.0,240.0
37.492,-33.722633,150.67407,0.18479645,14.159764,7.5636277,-0.0048471703,0.025278032,0.37220702,1.9681838,2.1108363,0.16330211,0.19466746,-0.0011527858,0.29282755,0.23784977,0.0,240.0
37.6,-33.722633,150.67407,0.17856741,14.517633,7.71493,-0.0050796247,0.028041016,0.37179732,1.9699193,2.0856366,0.4441385,0.6575595,0.0048740385,0.30241993,0.24528882,0.0,240.0
37.8,-33.72263,150.67407,0.17365289,14.750129,7.818666,-0.0049832463,0.029133629,0.37123165,1.9723322,2.076046,0.2126205,0.22103754,0.007859244,0.2895688,0.2622126,0.0,240.0
37.9,-33.722626,150.67409,0.17135787,15.105008,7.98287,-0.0046498557,0.030064633,0.36955503,1.9743433,2.063328,0.08039876,0.056502186,-0.0122054545,0.30718893,0.2483092,0.0,240.0
38.084,-33.722626,150.67409,0.16196525,15.315497,8.0862465,-0.004378581,0.030904878,0.36828914,1.9753684,2.0597734,0.20526533,0.056128703,-0.016045222,0.31148392,0.2520997,0.0,240.0
38.236,-33.722622,150.67409,0.13758647,15.7116,8.28337,-0.00403311,0.032189853,0.36583343,1.9722612,2.050036,0.14486182,-0.010550857,-0.020910524,0.30431157,0.26983088,0.0,240.0
38.4,-33.72262,150.67409,0.119014025,16.004276,8.428834,-0.0037434415,0.033997186,0.3647412,1.96113,2.0405307,0.056681074,0.099722944,-0.0013108928,0.34055007,0.2443739,0.0,240.0
38.5,-33.722614,150.67409,0.10653281,16.372732,8.591026,-0.0041628964,0.03458618,0.36463392,1.9680414,2.0361907,0.14165871,0.0036136783,-0.0068521956,0.33403355,0.25765175,0.0,240.0
38.68,-33.722614,150.67409,0.0950253,16.62427,8.703123,-0.0038441848,0.03350603,0.36467022,1.9886631,2.0517862,0.17761596,0.19912776,0.006676823,0.32486194,0.23747283,0.0,240.0
38.876,-33.722607,150.67409,0.076895,17.17403,8.950711,-0.002569858,0.030051406,0.36333334,2.0204396,2.074236,0.04266035,0.021979181,0.0069389055,0.3100855,0.21435429,0.0,240.0
39.0,-33.722603,150.67409,0.06689143,17.613676,9.1439295,-0.0027236426,0.031448588,0.3594205,2.0121193,2.0462084,-0.02860491,0.03827339,0.00082912564,0.30083346,0.24199867,0.0,240.0
39.1,-33.722603,150.67409,0.069003224,17.940802,9.29143,-0.0027398895,0.03246749,0.35715264,2.0155952,2.036402,0.2044983,0.17973426,-0.012286717,0.3183049,0.2371787,0.0,240.0
39.3,-33.7226,150.6741,0.0730201,18.185936,9.400302,-0.0027348169,0.03240768,0.35476375,2.020179,2.0244994,-0.044194512,-0.024394698,-0.023996824,0.2911,0.2634597,0.0,240.0
39.472,-33.722595,150.6741,0.07736635,18.664919,9.604976,-0.0019656387,0.030700002,0.35262403,2.054423,2.032824,-0.22605665,-0.14079365,-0.037201338,0.2804441,0.24899061,0.0,240.0
39.6,-33.72259,150.6741,0.07225311,19.112051,9.793044,-0.0014027578,0.029142367,0.35144156,2.0691717,2.0317647,-0.012856449,-0.12749478,-0.023688337,0.2867431,0.23230034,0.0,240.0
39.8,-33.722588,150.6741,0.0744127,19.475168,9.946884,-0.0013535501,0.03008171,0.3489432,2.0742657,2.019746,-0.22149892,-0.15713514,-0.032119453,0.2815984,0.24249335,0.0,240.0
39.9,-33.722584,150.6741,0.07107115,19.971645,10.162696,8.01213e-05,0.028367016,0.3466285,2.0882027,2.02182,-0.2935643,-0.25567642,-0.034472875,0.29678732,0.21350068,0.0,240.0
40.064,-33.72258,150.6741,0.06382048,20.229876,10.268631,-2.1594891e-05,0.02887021,0.34479323,2.08914,2.0131605,0.17172636,0.072603285,-0.0043212404,0.30039757,0.2178393,0.0,240.0
40.2,-33.722576,150.6741,0.054050326,20.540913,10.395678,-0.000621035,0.030185381,0.34190995,2.0841768,1.9892049,0.1215762,-0.021697177,-0.031601954,0.29302365,0.24662203,0.0,240.0
40.396,-33.722572,150.6741,0.042503357,20.951834,10.569012,-0.0003426334,0.031205649,0.33980766,2.0906107,1.9774672,0.26365736,0.14984402,0.0024390502,0.30987757,0.23294027,0.0,240.0
40.5,-33.72257,150.67412,0.036834598,21.41018,10.757875,0.00012270991,0.030310124,0.33669665,2.1182468,1.974954,0.30162796,0.19779268,0.00050953205,0.28490695,0.24897757,0.0,240.0
40.68,-33.72257,150.67412,0.03328955,21.68385,10.877386,0.0013274003,0.028524097,0.33458495,2.1291618,1.9727329,-0.19647716,-0.059352163,-0.02424772,0.28426996,0.23244867,0.0,240.0
40.8,-33.722565,150.67412,0.02600205,21.958813,10.999384,0.0015105911,0.028470853,0.3332731,2.1269667,1.9648395,-0.14577319,-0.20308807,-0.015037003,0.38429013,0.13987336,0.0,240.0
40.988,-33.72256,150.67412,0.0070608854,22.394459,11.197547,0.00059548183,0.03135458,0.3204092,2.1261458,1.9139153,0.06530042,0.05577122,-0.099161476,0.30885026,0.24580196,0.0,240.0
41.1,-33.722557,150.67412,-0.008493543,22.763952,11.36135,9.5414025e-06,0.032770146,0.31016868,2.144879,1.882299,0.0011171278,-0.08855026,-0.06772388,0.32667586,0.24664024,0.0,240.0
41.2,-33.722557,150.67412,-0.020722747,23.022171,11.467557,-0.00016876834,0.03308732,0.30698377,2.1518552,1.8657477,0.111262865,-0.0736367,-0.012073714,0.32834917,0.25077122,0.0,240.0
41.4,-33.722553,150.67412,-0.024716139,23.280346,11.563181,-0.0007256465,0.033979256,0.30521256,2.1595688,1.8475163,0.21791402,-0.0005050729,-0.028081251,0.32738832,0.25903556,0.0,240.0
41.584,-33.72255,150.67412,-0.022736788,23.681263,11.7163925,-0.0011706676,0.03548129,0.303633,2.1645439,1.8237326,0.2836736,0.0541394,0.02268519,0.3419595,0.25360224,0.0,240.0
41.7,-33.722546,150.67412,-0.028571248,24.063688,11.856475,-0.0015483747,0.03631002,0.30238402,2.1690094,1.8024538,0.20883918,0.23469657,0.015022068,0.33071566,0.2741208,0.0,240.0
41.9,-33.72254,150.67412,-0.032817602,24.34747,11.960826,-0.0014415784,0.03645713,0.30266765,2.1720333,1.793736,0.0013471711,-0.06408847,0.0053325123,0.3345492,0.27263308,0.0,240.0
42.0,-33.722538,150.67412,-0.026244402,24.74076,12.116122,-0.001213403,0.03699537,0.30212623,2.1774695,1.7840871,-0.016644003,-0.14855619,-0.030966474,0.33711183,0.2731837,0.0,240.0
42.176,-33.722538,150.67413,-0.016616583,25.094624,12.255391,-0.00089451106,0.03729017,0.30113786,2.1845815,1.7803737,-0.03726148,0.017279832,-0.024879139,0.3187191,0.28630143,0.0,240.0
42.3,-33.722534,150.67413,-0.010865331,25.519411,12.428691,-0.0001624172,0.03634762,0.30189934,2.19487,1.7844923,-0.074474685,-0.20142406,-0.026797984,0.3189636,0.27447575,0.0,240.0
42.5,-33.72253,150.67413,-0.0046783686,25.865076,12.577472,-0.00013171315,0.03709475,0.30018657,2.1878235,1.7736884,-0.12636214,-0.0235914,-0.02979766,0.32016468,0.2796557,0.0,240.0
42.6,-33.722527,150.67413,-0.011861086,26.284403,12.74971,-0.00031759273,0.038014773,0.2973529,2.1908412,1.7597306,-0.29326525,-0.16609399,-0.03966834,0.3376057,0.27231312,0.0,240.0
42.772,-33.722523,150.67413,-0.021851778,26.545465,12.852522,-0.00040768724,0.038320687,0.29690418,2.1902263,1.753591,0.09037368,-0.077057146,0.01261272,0.33962807,0.27823249,0.0,240.0
42.968,-33.72252,150.67413,-0.036225557,26.965185,13.008032,-0.00014648479,0.038176436,0.29592097,2.2001703,1.7475407,0.24203563,0.16722521,0.021215161,0.33699885,0.27937493,0.0,240.0
43.1,-33.722515,150.67413,-0.04827702,27.453323,13.196593,0.00023172458,0.03787864,0.29549387,2.206256,1.7430456,0.20153604,0.13533278,0.026929531,0.3239934,0.28586343,0.0,240.0
43.2,-33.72251,150.67413,-0.042027235,27.793062,13.326474,0.0006550035,0.03738266,0.29572,2.213873,1.7445022,0.25076133,0.112402834,0.018919855,0.33831453,0.2656772,0.0,240.0
43.4,-33.722507,150.67413,-0.03536427,28.180391,13.476107,0.0019456971,0.035239104,0.29464695,2.2452185,1.7596308,0.1001495,-0.00697248,-0.0011288445,0.3082213,0.2652276,0.0,240.0
43.5,-33.722504,150.67415,-0.030782938,28.643278,13.662763,0.0020824969,0.034776453,0.29144648,2.2427936,1.7451607,-0.1857884,-0.07927232,-0.0048235436,0.31719708,0.25382185,0.0,240.0
43.696,-33.722504,150.67415,-0.027314186,28.931705,13.778919,0.0019471027,0.035329085,0.28962165,2.2388318,1.733803,-0.3355198,-0.1818789,-0.036104772,0.29950377,0.29106334,0.0,240.0
43.8,-33.722496,150.67415,-0.010680914,29.426933,13.966056,0.0024454594,0.035027746,0.28952906,2.25081,1.7337773,-0.2486754,-0.20497453,-0.016192675,0.32010594,0.26028547,0.0,240.0
44.0,-33.722496,150.67415,0.0013570786,29.702288,14.061165,0.0022403456,0.03492208,0.28930435,2.254598,1.7259136,0.17606486,0.028232751,0.0037580375,0.3214196,0.26007497,0.0,240.0
44.1,-33.72249,150.67415,0.013685226,30.296268,14.270251,0.003768518,0.03205803,0.28838238,2.2987616,1.7407312,-0.017276922,-0.11718034,-0.005338368,0.29903713,0.23969112,0.0,240.0
44.288,-33.72249,150.67415,0.016632318,30.636934,14.397398,0.0041256826,0.03178579,0.28790465,2.2964075,1.737768,0.08899852,0.003178832,0.020477591,0.31446084,0.2247762,0.0,240.0
44.4,-33.722485,150.67415,0.024201512,31.085882,14.572542,0.004216066,0.033005185,0.28740165,2.2746415,1.7246478,0.10934433,0.25474235,0.020914385,0.3307316,0.23429446,0.0,240.0
44.6,-33.72248,150.67415,0.031087637,31.37163,14.687488,0.004184501,0.03396828,0.28688484,2.2629733,1.7162222,0.028948406,0.0983098,0.0100775305,0.32642344,0.25231144,0.0,240.0
44.7,-33.722477,150.67415,0.040624976,31.81894,14.875483,0.004332424,0.03499684,0.28336674,2.2650068,1.710412,0.16292487,0.16246323,-0.0011354636,0.30340204,0.27314416,0.0,240.0
44.884,-33.722473,150.67416,0.040162086,32.078743,14.98424,0.004424678,0.034740888,0.28149724,2.2629185,1.705058,-0.10702725,0.031482074,-0.038464226,0.29947358,0.28885692,0.0,240.0
45.032,-33.72247,150.67416,0.031962752,32.45683,15.138774,0.004391168,0.035357036,0.28104347,2.2558942,1.7010351,0.017509207,-0.093836665,-0.018801384,0.3306579,0.26641303,0.0,240.0
45.2,-33.722466,150.67416,0.012619972,32.870724,15.293582,0.005216565,0.034389187,0.2793905,2.2828634,1.709536,0.10873495,0.12556547,0.01281768,0.32105625,0.2565452,0.0,240.0
45.3,-33.72246,150.67416,0.00065636635,33.29877,15.45505,0.006031894,0.032568492,0.277375,2.3012068,1.7124848,-0.19294451,-0.18098654,-0.030113524,0.28688535,0.26676384,0.0,240.0
45.5,-33.72246,150.67416,-0.0050559044,33.588318,15.562025,0.006022755,0.033031914,0.27696824,2.3006048,1.7119285,0.10933136,-0.000908379,0.013614931,0.30725163,0.24770339,0.0,240.0
45.676,-33.722454,150.67416,-0.005849123,34.107807,15.749579,0.0061270874,0.03312281,0.2757535,2.301946,1.7050942,-0.011770192,-0.121477805,-0.010009505,0.31277537,0.2526915,0.0,240.0
45.8,-33.72245,150.67416,0.004514456,34.545033,15.914765,0.0065992842,0.033218984,0.2737652,2.3051136,1.7010969,0.2228473,0.12206444,0.0044096084,0.29529816,0.2634992,0.0,240.0
45.9,-33.72245,150.67416,0.014211535,34.84094,16.030022,0.0065457346,0.033613645,0.2730537,2.2992187,1.6950727,0.18469293,0.15967315,0.02201557,0.3270435,0.23966911,0.0,240.0
46.1,-33.722446,150.67416,0.025970817,35.19023,16.16665,0.0065666703,0.033712868,0.27220428,2.300333,1.6915638,0.116529785,-0.02325267,-0.03568948,0.3026842,0.26965916,0.0,240.0
46.268,-33.722443,150.67416,0.028083205,35.57368,16.308125,0.006031022,0.03503301,0.27035278,2.2877848,1.67471,0.22997811,0.21163134,0.003974137,0.32488987,0.26369908,0.0,240.0
46.4,-33.72244,150.67418,0.018256545,35.961952,16.44315,0.006140797,0.034407437,0.27009568,2.3006976,1.6726505,-0.107707135,-0.09795187,-0.026388532,0.30703372,0.27154332,0.0,240.0
46.6,-33.722435,150.67418,0.016590357,36.33609,16.576984,0.006549339,0.034514904,0.26830447,2.3055925,1.6680409,0.17783228,0.15072908,0.007888865,0.30194467,0.2766574,0.0,240.0
46.7,-33.72243,150.67418,0.023940206,36.741776,16.719643,0.006416087,0.034974717,0.2664977,2.3039172,1.654369,-0.051465437,-0.0068402747,-0.006996408,0.30155194,0.27975,0.0,240.0
46.88,-33.72243,150.67418,0.028342724,36.988277,16.808277,0.006380073,0.035173833,0.26593214,2.3022254,1.6502677,0.046667885,-0.06281813,-0.02605259,0.3102143,0.2804813,0.0,240.0
47.0,-33.722427,150.67418,0.036463857,37.26614,16.91596,0.006572503,0.03587014,0.26578212,2.2950044,1.6494161,0.24205714,0.062105373,-0.0033481356,0.33303884,0.2657673,0.0,240.0
47.192,-33.722424,150.67418,0.029395938,37.70791,17.086159,0.006526924,0.036419943,0.26540205,2.291979,1.6473768,0.13367313,-0.017901223,0.0037733722,0.34151593,0.26201543,0.0,240.0
47.3,-33.72242,150.67418,0.015263557,38.151283,17.237745,0.006168423,0.036743492,0.26173615,2.3014166,1.6350646,0.2637676,0.07457462,-0.030954268,0.3178005,0.28981236,0.0,240.0
47.408,-33.722416,150.67418,0.015882254,38.396843,17.329546,0.0062846523,0.037365567,0.26004943,2.2959783,1.62733,0.051102266,0.10736052,0.015028519,0.33564153,0.27530035,0.0,240.0
47.6,-33.722416,150.67418,0.02341795,38.706474,17.442005,0.0069828243,0.036850087,0.25890484,2.3135085,1.6322166,-0.07193729,-0.009005944,0.013718885,0.31088704,0.28222972,0.0,240.0
47.788,-33.72241,150.67418,0.028943181,39.20062,17.617266,0.007300109,0.03604533,0.25796318,2.3133762,1.6275911,-0.05672585,0.031694137,-0.016615838,0.31305695,0.27742028,0.0,240.0
47.9,-33.722404,150.6742,0.028373837,39.64327,17.7742,0.007025154,0.036472887,0.25668404,2.3082302,1.6172262,-0.24679576,-0.05595041,-0.0141096,0.33822587,0.26387617,0.0,240.0
48.068,-33.722404,150.6742,0.03459251,39.920937,17.868563,0.006870162,0.036743984,0.25493744,2.3164575,1.6118377,0.002549021,-0.10197431,-0.041722555,0.3099244,0.29274365,0.0,240.0
48.2,-33.7224,150.6742,0.042032957,40.240425,17.972157,0.0067439917,0.036881737,0.25356886,2.3179717,1.6030227,-0.04500167,-0.122553624,-0.028059183,0.33587906,0.26974228,0.0,240.0
48.38,-33.722397,150.6742,0.04058683,40.690887,18.111088,0.006497086,0.037033197,0.25199375,2.3226604,1.5896658,-0.0100449165,-0.10676142,-0.007254434,0.3349646,0.27432218,0.0,240.0
48.5,-33.722393,150.6742,0.029744864,41.098007,18.241356,0.0063458625,0.037689894,0.24982896,2.3217244,1.5777994,0.32413,0.19510244,0.007294966,0.33616295,0.2814034,0.0,240.0
48.688,-33.72239,150.6742,0.027257442,41.429993,18.351799,0.007300199,0.036834862,0.24789305,2.3463511,1.5841858,0.26239634,0.1922374,0.017871432,0.3216982,0.2718475,0.0,240.0
48.8,-33.722385,150.6742,0.025799632,41.908817,18.514254,0.00903895,0.033915013,0.24544239,2.372477,1.5906922,-0.4054948,-0.20319095,-0.012750532,0.32151398,0.24897233,0.0,240.0
48.976,-33.72238,150.6742,0.018483877,42.337486,18.665304,0.009181913,0.034251772,0.24647002,2.3670676,1.5973396,0.10617824,0.2721995,0.009863122,0.3194991,0.24956335,0.0,240.0
49.1,-33.722378,150.6742,0.0011743307,42.78053,18.817528,0.008591266,0.03428278,0.24625175,2.3582382,1.5887573,-0.28053156,-0.10033839,-0.021259192,0.31981793,0.26138863,0.0,240.0
49.3,-33.722374,150.6742,-0.0014334917,43.182835,18.958132,0.008402415,0.03516406,0.2443905,2.3568892,1.5818378,0.21785372,0.08841142,-0.007297724,0.31170332,0.27485335,0.0,240.0
49.4,-33.72237,150.6742,-0.0029803514,43.580856,19.093327,0.008337747,0.03534135,0.24157993,2.3559883,1.5691727,-0.12661928,0.027810967,-0.021920577,0.31436235,0.27927703,0.0,240.0
49.568,-33.722366,150.6742,-0.004458666,43.855915,19.182098,0.0082220705,0.035083726,0.23994073,2.3605306,1.5625813,-0.10079023,-0.11105913,-0.032957155,0.31651813,0.2787165,0.0,240.0
49.768,-33.722363,150.67421,0.00084781647,44.33398,19.337727,0.008715613,0.03475076,0.23601882,2.385382,1.5586046,0.0053035757,-0.11787553,-0.042855445,0.33561134,0.26189756,0.0,240.0
49.9,-33.72236,150.67421,0.010204792,44.859833,19.50092,0.01070508,0.031666756,0.23061268,2.4379907,1.5632272,0.023157377,0.021493949,0.00089944113,0.28712684,0.24560636,0.0,240.0
50.052,-33.722355,150.67421,0.019317389,45.24462,19.622925,0.011175093,0.03055084,0.22981752,2.4408178,1.5590767,-0.016159663,-0.019467583,-0.0045159995,0.28980023,0.23979038,0.0,240.0
50.2,-33.72235,150.67421,0.027630568,45.581875,19.730196,0.010973512,0.031094607,0.22976087,2.4319305,1.550697,0.08402438,0.06973205,0.004419024,0.3013609,0.24075525,0.0,240.0
50.3,-33.722347,150.67421,0.043810844,46.09485,19.899439,0.01122798,0.031021299,0.22872096,2.4377978,1.5471148,0.1299528,0.13108869,0.015364965,0.2897703,0.2459057,0.0,240.0
50.492,-33.722343,150.67421,0.051902413,46.384007,19.994455,0.011034234,0.030834116,0.22775812,2.4342754,1.537865,-0.10264101,0.06973586,-0.025778504,0.2987926,0.24671078,0.0,240.0
50.648,-33.72234,150.67421,0.06168723,46.82463,20.128454,0.010121459,0.031518944,0.22511758,2.4248865,1.5118573,-0.020349868,0.0108512,-0.014771199,0.32356203,0.24348605,0.0,240.0
50.8,-33.72234,150.67421,0.07817352,47.10453,20.21179,0.009824491,0.03238679,0.22142738,2.427349,1.4929705,-0.1506471,-0.051540438,-0.030910345,0.28817317,0.28171566,0.0,240.0
50.9,-33.722336,150.67421,0.11387813,47.523052,20.331606,0.009285905,0.03301687,0.21853141,2.4340522,1.4706314,-0.1017583,-0.06535722,-0.02819382,0.31939054,0.2600963,0.0,240.0
51.088,-33.722332,150.67421,0.12986457,47.803085,20.407076,0.00934567,0.03285154,0.21717343,2.4494975,1.4638457,0.16938758,-0.030247817,-0.017167293,0.31135163,0.25821462,0.0,240.0
51.276,-33.72233,150.67421,0.1457771,48.242683,20.533983,0.009535555,0.03280003,0.21460342,2.4562922,1.4489557,0.2980041,0.10820809,-0.011065882,0.31069574,0.26021615,0.0,240.0
51.4,-33.722324,150.67422,0.15078223,48.658054,20.659037,0.009222153,0.032854855,0.21300828,2.4562545,1.4338938,-0.07951095,-0.0022356566,0.015543966,0.3146851,0.25852585,0.0,240.0
51.5,-33.72232,150.67422,0.15194643,49.007305,20.771124,0.009163437,0.03340052,0.21312068,2.4515412,1.429998,0.259422,0.116677,0.011141911,0.33125326,0.25291994,0.0,240.0
51.7,-33.72232,150.67422,0.15377343,49.31754,20.875622,0.009920504,0.03270065,0.21170624,2.472572,1.4359734,0.07334667,0.049395144,-0.011862386,0.32619885,0.23686168,0.0,240.0
51.88,-33.722313,150.67422,0.15462625,49.89404,21.066784,0.011467143,0.030938545,0.20776871,2.501244,1.4423044,0.07987977,0.050939802,0.0052639362,0.29656643,0.23685439,0.0,240.0
52.0,-33.72231,150.67422,0.16397488,50.333626,21.223686,0.011365934,0.03135258,0.20389876,2.4929209,1.430795,0.016398435,-0.0019111936,-0.023319384,0.2991433,0.2469778,0.0,240.0
52.168,-33.722305,150.67422,0.16725159,50.6665,21.339184,0.011265943,0.031579245,0.20023876,2.495267,1.4220707,-0.040778346,0.0322408,-0.031704586,0.31684548,0.23779768,0.0,240.0
52.3,-33.722305,150.67422,0.16767704,51.003967,21.450117,0.011320128,0.03159537,0.19406407,2.5106869,1.4067699,-0.07156982,-0.18621542,-0.024714708,0.29227552,0.25304452,0.0,240.0
52.472,-33.722298,150.67422,0.17114305,51.47313,21.6008,0.012328577,0.029371891,0.18710883,2.550406,1.4001226,-0.10292649,-0.14536735,-0.06177437,0.26893142,0.2514834,0.0,240.0
52.6,-33.722294,150.67422,0.17138028,51.973774,21.758364,0.012780328,0.029007621,0.18152496,2.5630968,1.3868423,0.11359863,-0.02351301,-0.03936233,0.2836194,0.23426412,0.0,240.0
52.8,-33.72229,150.67422,0.17499423,52.32583,21.862486,0.012197332,0.02935934,0.17834164,2.5570982,1.3662674,-0.009769949,-0.09979448,-0.024479961,0.30370077,0.22942081,0.0,240.0
52.9,-33.722286,150.67422,0.17122877,52.777466,21.998625,0.011643834,0.030584233,0.17388192,2.55746,1.3406991,0.08316547,-0.085531555,-0.060387865,0.31750718,0.23210725,0.0,240.0
53.068,-33.722286,150.67424,0.16025949,53.050613,22.080975,0.011415357,0.031049889,0.1691964,2.5642698,1.3230344,0.3271546,0.05358972,-0.018247753,-1.0,-1.0,0.0,240.0
53.224,-33.722282,150.67424,0.14430308,53.406425,22.19391,0.01164591,0.027938746,0.16506965,2.1834588,1.1690192,-2.208057,-0.7899733,-0.0069197747,-1.0,-1.0,0.0,240.0
53.396,-33.72228,150.67424,0.12453258,53.70406,22.284843,0.011989718,0.026421016,0.16445251,1.9541967,1.0813402,-1.7055781,-0.6231093,0.0059053516,-1.0,1.0,0.0,240.0
53.5,-33.722275,150.67424,0.11012924,54.081047,22.40254,0.01152691,0.032302134,0.18944901,2.1311686,1.2093467,3.4389615,1.6552497,0.44193903,-0.6859067,-0.99999994,0.0,240.0
53.6,-33.722275,150.67424,0.09968698,54.31283,22.47592,0.012131815,0.027630422,0.22578874,1.9853498,1.228676,-1.8408401,-0.92507136,0.26747423,-0.6790309,-1.0,0.0,240.0
53.8,-33.72227,150.67424,0.08856881,54.514645,22.544127,0.012179051,0.023930946,0.24876638,1.7912323,1.1819342,4.0356216,1.8457707,0.16008605,-1.0,1.0,0.0,240.0
53.992,-33.722267,150.67424,0.07785535,54.87211,22.667576,0.013050343,0.03316672,0.31664124,1.8243147,1.3830901,-1.5271863,-1.1116916,0.29487243,-0.64615303,-0.99999994,0.0,240.0
54.1,-33.722267,150.67424,0.07775223,55.15191,22.762506,0.012645854,0.023051964,0.36199075,1.7879542,1.5206861,2.9705899,2.8084903,0.4214102,-0.7557509,-1.0,0.0,240.0
54.2,-33.722263,150.67424,0.085966945,55.341022,22.833439,0.0129492,0.025523916,0.39730206,1.6069789,1.4655071,-1.3426453,-1.2650211,0.23072726,-1.0,1.0,0.0,240.0
54.4,-33.722263,150.67424,0.08797455,55.530598,22.90461,0.013443399,0.032922942,0.43211025,1.7064134,1.7257789,-1.4384805,-1.5805733,0.42408735,-0.49109513,-0.99999994,0.0,240.0
54.584,-33.72226,150.67424,0.08345091,55.857494,23.031443,0.014174339,0.024632199,0.49424276,1.4973962,1.7737825,-1.3550667,-1.8019795,0.3568385,-0.6080668,-1.0,0.0,240.0
54.7,-33.722256,150.67424,0.07956517,56.14786,23.156946,0.01413197,0.026543044,0.550392,1.3677324,1.9201233,1.2021369,3.4841444,0.4644759,-0.5852368,-1.0,0.0,240.0
54.8,-33.722256,150.67424,0.076966286,56.349983,23.245636,0.014664321,0.028389513,0.59424067,1.1868805,1.8204869,-0.9373535,-1.6219714,0.28158295,-1.0,1.0,0.0,240.0
55.0,-33.72225,150.67424,0.08628225,56.560944,23.34066,0.0150234215,0.02729361,0.6311188,1.1809725,2.1813414,0.44559875,2.7937953,0.41357478,-0.48339033,-1.0,0.0,240.0
55.18,-33.72225,150.67426,0.09373593,56.959393,23.546396,0.017921424,0.021539122,0.68886477,0.97206837,2.209514,0.3442108,3.114683,0.3807882,-0.5319002,-0.99999994,0.0,240.0
55.3,-33.722248,150.67426,0.10149026,57.329727,23.74079,0.021542715,0.020460999,0.73957264,0.8013727,2.3154714,-0.08724485,3.2746098,0.37442404,-0.5410916,-1.0,0.0,240.0
55.46,-33.722244,150.67426,0.115061164,57.56999,23.876974,0.021592787,0.021271866,0.77539283,0.6716031,2.184826,-0.38756475,-1.6291022,0.22689599,-1.0,1.0,0.0,240.0
55.6,-33.722244,150.67426,0.12486482,57.800095,24.001175,0.019101039,0.01856068,0.8199891,0.5102676,2.3404336,-0.2522193,-1.9258356,0.3312063,-0.5167949,-1.0,0.0,240.0
55.772,-33.72224,150.67426,0.12782216,58.148808,24.192934,0.017982101,0.017693697,0.8756106,0.29906717,2.423047,-0.012863217,-1.8975973,0.43878484,-0.47345823,-1.0,0.0,240.0
55.9,-33.722237,150.67426,0.119757175,58.486874,24.388504,0.019106977,0.0117645245,0.92258,0.10604634,2.519164,-1.7610008,3.8051245,0.4264546,-0.4882545,-1.0,0.0,240.0
56.1,-33.722233,150.67426,0.11510301,58.74295,24.546911,0.021241656,0.008812663,0.96572393,0.02331882,2.3662078,0.1403118,-1.545228,0.2549864,-0.6940163,-0.99999994,0.0,240.0
56.2,-33.722233,150.67426,0.102063656,59.069466,24.760992,0.018757416,0.009911043,1.0134654,-0.27971986,2.5777998,-1.9201212,2.832241,0.37304103,-0.5763993,-1.0,0.0,240.0
56.368,-33.72223,150.67427,0.10311425,59.352337,24.974487,0.023237566,0.0044239108,1.0614516,-0.4361797,2.5940554,0.5545024,-1.5985779,0.331164,-0.6026032,-1.0,0.0,240.0
56.52,-33.722225,150.67427,0.10281265,59.71329,25.227116,0.023590673,-0.0032877014,1.0955386,-0.43653542,2.3927016,0.40837356,-1.1445497,0.14977127,-0.8202744,-0.99999994,0.0,240.0
56.696,-33.72222,150.67427,0.10986841,60.06107,25.458838,0.027375352,-0.009443965,1.1093731,-0.6414634,2.6000586,-3.4860158,3.7669618,0.3098652,-0.62816167,-1.0,0.0,240.0
56.8,-33.722218,150.67427,0.113033295,60.415752,25.739626,0.022555273,-0.009744329,1.1572047,-0.6893024,2.390811,0.32266116,-0.9295958,0.14559084,-0.80368024,-0.99999994,0.0,240.0
56.9,-33.722218,150.67427,0.122491956,60.560596,25.85739,0.019127166,-0.0061531346,1.1710865,-0.67268425,2.2459993,0.26184803,-0.83891994,0.09973038,-1.0,1.0,0.0,240.0
57.1,-33.722218,150.67427,0.13099647,60.735767,26.002193,0.017543603,-0.0025186243,1.1967946,-1.0446781,2.4662516,-1.2934887,0.65038395,0.32312578,-0.62592643,-1.0,0.0,240.0
57.292,-33.722214,150.67429,0.13810384,61.036457,26.281075,0.016399106,-0.0073450594,1.2373224,-0.99674606,2.206527,0.47582424,-0.8579977,0.1359433,-1.0,1.0,0.0,240.0
57.4,-33.72221,150.67429,0.13747108,61.23698,26.517233,0.011249672,-0.0014228516,1.3047142,-1.4310389,2.1832142,0.9816535,-0.9526106,0.3156306,-0.5252199,-1.0,0.0,240.0
57.5,-33.72221,150.67429,0.12698889,61.333927,26.652195,0.009008206,0.0020403382,1.333915,-1.3554145,1.9704875,0.79310745,-0.8506893,0.18464954,-0.99999994,0.3986134,0.0,240.0
57.7,-33.72221,150.67429,0.11972201,61.421276,26.784046,0.0074845604,0.006980401,1.3573552,-1.4651264,1.8714263,-0.43654665,-0.28475776,0.23465098,-0.99999994,0.21840137,0.0,240.0
57.884,-33.72221,150.67429,0.11980319,61.570118,27.03376,0.0059765205,0.005809481,1.398417,-1.4944885,1.6369212,-4.76624,0.9315138,0.16308017,-0.021947205,1.0,0.0,240.0
58.0,-33.722206,150.67429,0.12803268,61.701885,27.324282,0.005308513,0.013341086,1.474647,-2.3380115,1.5585912,-3.7250473,0.21621114,0.40345794,0.359157,0.55501163,0.0,240.0
58.1,-33.722206,150.67429,0.13541472,61.78613,27.571922,0.0052935667,0.017293101,1.5182265,-2.6772597,1.4091865,-1.1501634,-0.5340671,0.28405252,0.27768397,0.30897617,0.0,240.0
58.3,-33.722206,150.6743,0.1377827,61.862915,27.829855,0.0045806793,0.013676219,1.5443748,-2.767308,1.2566016,-0.6488005,-0.3883905,0.20127586,0.31654915,0.25432888,0.0,240.0
58.48,-33.722206,150.6743,0.13474846,61.9768,28.281713,0.0025866837,0.01673085,1.572066,-2.8237562,1.0225847,-0.38169283,-0.3812192,0.090216845,0.3421208,0.24758229,0.0,240.0
58.6,-33.722202,150.6743,0.13836229,62.053123,28.68497,0.0028496806,0.019453436,1.5807776,-2.8518968,0.8673979,-0.5800406,-0.43917397,0.041861728,0.29999915,0.27648935,0.0,240.0
58.7,-33.722202,150.6743,0.14147711,62.112003,29.006578,0.004154354,0.01801208,1.5814003,-2.8718174,0.79138845,-0.33893764,-0.4937062,0.041729003,0.30758673,0.23934762,0.0,240.0
58.876,-33.722202,150.67432,0.14671731,62.16218,29.308983,0.0045048655,0.017504852,1.5819098,-2.8749418,0.7264184,0.10201468,-0.5039637,-0.021661792,0.2642468,0.2794713,0.0,240.0
59.068,-33.722202,150.67432,0.15968645,62.21715,29.75162,0.0041460195,0.018816737,1.5852911,-2.868875,0.619388,0.13390243,-0.30320364,-0.016695105,0.28746328,0.2648212,0.0,240.0
59.2,-33.722202,150.67432,0.17594266,62.25965,30.09524,0.003154747,0.020162543,1.5870377,-2.8517027,0.5423282,0.2026003,-0.37446892,-0.012974329,0.29566872,0.26834404,0.0,240.0
59.3,-33.722202,150.67433,0.18781161,62.31206,30.524824,0.0020892038,0.020620028,1.589493,-2.837832,0.45118916,-0.032961648,-0.2513861,-0.011751863,0.3064937,0.27938682,0.0,240.0
59.468,-33.722202,150.67433,0.18858337,62.355247,30.809315,0.002506443,0.020509062,1.5894965,-2.8509512,0.41779938,-0.39642066,-0.31418985,0.032643985,0.31384316,0.25460467,0.0,240.0
59.648,-33.722202,150.67433,0.18314433,62.41344,31.269674,0.0029341755,0.020474734,1.588813,-2.8504746,0.36632952,0.08339856,-0.39105168,0.0008774425,0.283433,0.2829611,0.0,240.0
59.8,-33.7222,150.67433,0.18428266,62.478985,31.855516,0.00431376,0.018717308,1.5898484,-2.8955963,0.30835158,0.03108944,-0.3538834,0.015391988,0.28102323,0.2557073,0.0,240.0
59.9,-33.7222,150.67435,0.18504655,62.53351,32.294422,0.005815413,0.017426774,1.5921234,-2.922489,0.2728083,-0.13568659,-0.28791872,0.03016361,0.2609256,0.23218961,0.0,240.0
60.088,-33.7222,150.67435,0.19172668,62.56408,32.591743,0.004906572,0.017586555,1.5923665,-2.8978777,0.2502398,0.47545144,-0.2734247,-0.008581744,0.2514113,0.26577368,0.0,240.0
60.196,-33.7222,150.67435,0.2078197,62.593124,32.888237,0.0038391307,0.017813047,1.5937293,-2.8764808,0.22146264,0.23652324,-0.1716854,0.021231819,0.2753962,0.26286736,0.0,240.0
60.392,-33.7222,150.67436,0.22524917,62.64344,33.387234,0.0034823418,0.018015068,1.5977997,-2.8833165,0.17721729,0.022470003,-0.19276531,-0.0041091926,0.26646405,0.2654304,0.0,240.0
60.5,-33.7222,150.67436,0.23263049,62.690144,33.82634,0.0035255628,0.017691009,1.6024365,-2.8867981,0.1417673,-0.21852526,-0.27733323,0.036278993,0.2758983,0.26428428,0.0,240.0
60.6,-33.7222,150.67436,0.23502469,62.73258,34.27113,0.004735764,0.015812172,1.6068206,-2.9232643,0.11352232,-0.1464594,-0.13792637,0.015302728,0.2664442,0.22720216,0.0,240.0
60.788,-33.7222,150.67436,0.23171818,62.75683,34.597775,0.0047917175,0.015960159,1.6067741,-2.9197059,0.09619984,-0.06089013,-0.22521847,0.0028320462,0.26320264,0.23281673,0.0,240.0
60.988,-33.7222,150.67438,0.2239573,62.78573,35.071625,0.0040342677,0.016342072,1.6057539,-2.8908348,0.073317766,0.122713655,-0.25394782,0.0025634998,0.26726964,0.25539634,0.0,240.0
61.1,-33.7222,150.67438,0.21969473,62.807224,35.507343,0.0028553158,0.017478824,1.6046518,-2.8642938,0.04919228,0.03476435,-0.22964352,-0.0011743852,0.28488746,0.2564598,0.0,240.0
61.2,-33.7222,150.67438,0.22073674,62.82304,35.80705,0.0024581226,0.01812164,1.6041708,-2.8520782,0.03179583,0.022173213,-0.24879839,-0.008282359,0.27111942,0.28676265,0.0,240.0
61.4,-33.7222,150.67438,0.22588551,62.83212,36.057934,0.0020013265,0.01819446,1.6032586,-2.8436077,0.015889354,0.11154904,-0.13264544,-0.0092713805,0.26894885,0.29591745,0.0,240.0
61.58,-33.7222,150.6744,0.23366058,62.857033,36.511707,0.0012750884,0.018849624,1.604478,-2.8271637,-0.014579017,-0.016486807,-0.23443319,-0.017170243,0.28917053,0.28402373,0.0,240.0
61.7,-33.7222,150.6744,0.23140466,62.887653,37.009064,0.0025223263,0.016788824,1.6143993,-2.8882632,-0.05450157,0.065279976,-0.033613022,-0.014414751,0.2924454,0.24131659,0.0,240.0
61.8,-33.722195,150.6744,0.22450626,62.907696,37.38496,0.0029380675,0.016055314,1.6163064,-2.8909926,-0.06869136,0.2999478,-0.032133777,-0.011016216,0.27485445,0.24120852,0.0,240.0
62.0,-33.722195,150.67441,0.21820319,62.913025,37.675568,0.0028334507,0.016617492,1.6144445,-2.8823662,-0.07647877,-0.2408335,-0.14736705,0.00033625858,0.26934153,0.25397915,0.0,240.0
62.176,-33.722195,150.67441,0.22098076,62.909412,38.200844,0.002296861,0.01725345,1.6122617,-2.8738577,-0.09450889,-0.21231543,-0.019506264,0.03222728,0.26382643,0.27501267,0.0,240.0
62.3,-33.722195,150.67441,0.2233789,62.90127,38.654587,0.0024706584,0.01697197,1.6156852,-2.870503,-0.12546201,-0.20246872,-0.21509786,0.030094938,0.27157295,0.25455725,0.0,240.0
62.4,-33.722195,150.67442,0.2289046,62.90121,38.96973,0.0023042771,0.017252684,1.6160388,-2.8654528,-0.13781323,-0.13795218,-0.24267991,0.005502828,0.27491325,0.26026303,0.0,240.0
62.572,-33.7222,150.67442,0.23121703,62.895622,39.23797,0.0021459972,0.016947113,1.6151047,-2.8634953,-0.14630929,0.18334128,-0.037904702,-0.027003786,0.25494453,0.28124908,0.0,240.0
62.768,-33.7222,150.67442,0.2361219,62.889256,39.647076,0.0016413598,0.018126396,1.6122226,-2.8439064,-0.15762736,-0.37188542,-0.07958348,0.0147651555,0.2680165,0.28624734,0.0,240.0
62.9,-33.7222,150.67442,0.23201323,62.882015,40.06161,0.0014820143,0.018510506,1.612947,-2.8395793,-0.17613031,-0.19798683,-0.23511983,0.022180183,0.27945897,0.27595428,0.0,240.0
63.0,-33.7222,150.67444,0.23520958,62.885296,40.478947,0.0014900144,0.017550971,1.6167948,-2.8463864,-0.19506562,0.12758483,0.003131682,-0.017092917,0.295243,0.2556477,0.0,240.0
63.164,-33.7222,150.67444,0.23975992,62.886,40.7619,0.0012797255,0.018163014,1.6162719,-2.8430846,-0.20143808,-0.34980455,-0.072618544,0.023038153,0.28806385,0.26371613,0.0,240.0
63.296,-33.7222,150.67444,0.24170983,62.884678,40.98868,0.0010816547,0.018016838,1.6158535,-2.837266,-0.2035259,0.27158266,-0.07009845,-0.023524817,0.25992352,0.2973811,0.0,240.0
63.468,-33.7222,150.67444,0.23899162,62.887806,41.51308,0.00087257853,0.018174304,1.6195592,-2.8318136,-0.22064339,0.09669669,-0.17017514,-0.0017011043,0.28510702,0.27640903,0.0,240.0
63.6,-33.7222,150.67445,0.22829556,62.885155,41.808167,0.0005677635,0.018504925,1.618256,-2.8241708,-0.22212031,0.16825087,-0.13023764,-0.020127747,0.28336805,0.28304225,0.0,240.0
63.7,-33.7222,150.67445,0.2131716,62.88027,42.24476,0.00034303512,0.018755328,1.6169204,-2.82415,-0.2278088,0.115413934,-0.004878188,-0.032911625,0.278971,0.29374048,0.0,240.0
63.892,-33.7222,150.67445,0.21195674,62.88245,42.503002,0.00012982183,0.019137252,1.6174604,-2.8220682,-0.23408055,-0.42824396,-0.08256804,0.027266901,0.2909626,0.27899942,0.0,240.0
64.044,-33.7222,150.67445,0.21957004,62.894073,42.989475,-0.00026744808,0.019221615,1.6202483,-2.8205023,-0.23932175,-0.3962647,-0.043054026,0.026492221,0.29497156,0.2761933,0.0,240.0
64.2,-33.7222,150.67447,0.2198714,62.895267,43.331078,-0.0002507507,0.01902805,1.622804,-2.8222578,-0.24731182,-0.23420325,0.0028419024,0.01587494,0.29782742,0.27288157,0.0,240.0
64.3,-33.7222,150.67447,0.22873926,62.88006,43.766445,-0.0003324061,0.019426813,1.6211017,-2.807713,-0.25048053,-0.18949535,-0.18029,0.026126508,0.28358305,0.29268205,0.0,240.0
64.484,-33.7222,150.67447,0.2414856,62.866272,44.051865,-0.00041345265,0.019617273,1.6196978,-2.8029728,-0.25188878,0.217524,-0.10194186,-0.023518858,0.26608014,0.32112098,0.0,240.0
64.6,-33.7222,150.67447,0.25920582,62.836807,44.53278,-0.0005593512,0.019822769,1.6211735,-2.789672,-0.26888365,0.14789517,-0.13963246,0.007628068,0.29208678,0.3066445,0.0,240.0
64.8,-33.7222,150.67448,0.26944315,62.822544,44.85622,-0.0006471248,0.019779842,1.622891,-2.7903545,-0.27977902,0.045007788,-0.15369345,0.0033373672,0.29645044,0.29901212,0.0,240.0
64.9,-33.7222,150.67448,0.28408992,62.816235,45.303387,-0.0010253491,0.020271804,1.623005,-2.7925029,-0.28183535,0.31582585,-0.022383558,-0.029223636,0.3114614,0.28427392,0.0,240.0
65.08,-33.7222,150.67448,0.29042327,62.81264,45.565475,-0.001156171,0.020216607,1.6231164,-2.787857,-0.28468937,-0.25136113,0.017810123,0.009998652,0.29322785,0.3056422,0.0,240.0
65.252,-33.7222,150.6745,0.29081988,62.801888,46.091732,-0.0009677988,0.018622957,1.6308554,-2.8200448,-0.31122747,-0.2323476,-0.07528168,0.024218546,0.3147842,0.2492896,0.0,240.0
65.4,-33.7222,150.6745,0.29142928,62.792778,46.632275,-0.0010754291,0.018171104,1.6296048,-2.8208148,-0.30684063,-0.059633933,-0.12059948,0.0015830753,0.2747897,0.28173053,0.0,240.0
65.5,-33.7222,150.6745,0.28487742,62.78949,47.041603,-0.0012662095,0.018324537,1.6257247,-2.8104477,-0.29241672,0.12530854,0.05385707,-0.0022682527,0.27872443,0.29679537,0.0,240.0
65.7,-33.7222,150.6745,0.27613235,62.79066,47.26343,-0.0014497747,0.019060958,1.6237519,-2.7958899,-0.28496838,-0.0040121167,-0.14716643,0.004983259,0.2761243,0.31461447,0.0,240.0
65.872,-33.7222,150.67451,0.262457,62.77716,47.767048,-0.0014747157,0.019780237,1.6271205,-2.788809,-0.2983045,-0.31081194,-0.13151957,0.051573366,0.2841927,0.31137046,0.0,240.0
66.0,-33.7222,150.67451,0.25845897,62.758556,48.19205,-0.0015861029,0.019637141,1.628025,-2.7911575,-0.30332592,0.20469488,-0.05787059,-0.011556018,0.27194265,0.3192427,0.0,240.0
66.1,-33.7222,150.67451,0.26654077,62.745754,48.559578,-0.0017872701,0.020106915,1.6289506,-2.7889993,-0.30986091,-0.21624736,-0.16142054,-0.0020170885,0.2898093,0.3052408,0.0,240.0
66.3,-33.7222,150.67453,0.26807594,62.74113,48.954006,-0.0020161893,0.01905014,1.633633,-2.8186328,-0.3237937,-0.419249,-0.079118624,0.023650708,0.2874387,0.29238313,0.0,240.0
66.464,-33.7222,150.67453,0.2654755,62.74085,49.403687,-0.0022229464,0.0171219,1.6368977,-2.8273036,-0.32654458,0.37217554,0.06767168,-0.037433844,0.26470578,0.29067385,0.0,240.0
66.596,-33.7222,150.67453,0.26924622,62.736618,49.719612,-0.0022554998,0.017568978,1.6357309,-2.8246913,-0.32267645,-0.0029903643,0.06514999,0.017776031,0.28032714,0.27801174,0.0,240.0
66.796,-33.7222,150.67455,0.2799809,62.728947,50.24591,-0.002351757,0.017627107,1.6345478,-2.8217342,-0.3186077,0.07849702,0.03372246,0.010528138,0.27061364,0.29101208,0.0,240.0
66.9,-33.7222,150.67455,0.28395545,62.72341,50.668427,-0.0024630437,0.017242083,1.6369722,-2.8157759,-0.32481974,0.14476159,-0.09962948,0.010697194,0.29584077,0.26371762,0.0,240.0
67.0,-33.7222,150.67455,0.28431547,62.709484,51.046135,-0.002433184,0.01791778,1.6361746,-2.8123958,-0.32744583,-0.3549628,-0.093455285,0.038681034,0.29352194,0.2782976,0.0,240.0
67.192,-33.7222,150.67455,0.28844237,62.69966,51.333977,-0.0024929373,0.018243192,1.6356341,-2.8036447,-0.3257852,-0.077290215,-0.15949915,-0.018817268,0.2704643,0.30819213,0.0,240.0
67.388,-33.7222,150.67456,0.2958386,62.67913,51.77944,-0.0024882124,0.018743284,1.63639,-2.7972069,-0.33128622,0.22166173,-0.050957676,0.0016161621,0.27282202,0.3115481,0.0,240.0
67.5,-33.7222,150.67456,0.30123007,62.649265,52.095886,-0.0022684173,0.019322092,1.6373554,-2.7870948,-0.3428623,0.15439628,-0.07331161,0.009681904,0.2821354,0.30849728,0.0,240.0
67.6,-33.7222,150.67456,0.29978,62.59989,52.56875,-0.0023349219,0.018255481,1.6399921,-2.8037016,-0.36468655,0.21893264,0.07442935,-0.03477006,0.30281776,0.2752636,0.0,240.0
67.784,-33.7222,150.67456,0.29861307,62.57339,52.83826,-0.0024104966,0.018523045,1.639259,-2.803263,-0.37131128,-0.3302953,-0.04226337,0.0069538965,0.2877396,0.28543893,0.0,240.0
67.936,-33.7222,150.67458,0.30244613,62.53409,53.333637,-0.0024600856,0.019055534,1.638064,-2.7982748,-0.37489143,-0.27729362,0.011089815,0.0020048812,0.28753185,0.29007888,0.0,240.0
68.1,-33.7222,150.67458,0.30254745,62.513084,53.681843,-0.0024558255,0.018776648,1.6373165,-2.7919106,-0.3744625,0.11601015,0.02348397,-0.029635912,0.30220494,0.28276864,0.0,240.0
68.2,-33.7222,150.67458,0.3040688,62.49177,54.228294,-0.0026656047,0.016599214,1.6391337,-2.5456002,-0.34494874,2.6393535,0.34854156,-0.01405119,-1.0,-1.0,0.0,240.0
68.38,-33.7222,150.67458,0.30627477,62.48318,54.45302,-0.002710574,0.0129862195,1.6385678,-2.3432896,-0.31473044,2.264362,0.28990808,-0.010731043,-1.0,-1.0,0.0,240.0
68.536,-33.722202,150.67459,0.31713772,62.47481,54.819427,-0.0034116542,0.011722156,1.6303626,-2.266214,-0.2740999,-3.4442194,-0.068915784,-0.2590855,-1.0,-0.6890974,0.0,240.0
68.7,-33.722202,150.67459,0.3230828,62.47414,55.13549,-0.003997278,0.017148064,1.6030763,-2.127938,-0.20052364,-4.431102,-0.6271182,-0.12981361,1.0,-1.0,0.0,240.0
68.8,-33.722202,150.67459,0.3386985,62.46124,55.52868,-0.0035242522,0.011077848,1.5511304,-2.2292602,-0.08605784,2.0440202,-0.08993699,-0.22412631,-1.0,-0.66165733,0.0,240.0
68.972,-33.722202,150.67459,0.3538947,62.456707,55.72333,-0.00298969,0.011842249,1.5343405,-2.1135004,-0.050714787,-4.073812,0.7146398,-0.23053567,1.0,-1.0,0.0,240.0
69.144,-33.722202,150.6746,0.3685106,62.45438,56.13666,-0.003227946,0.015754389,1.4723113,-2.4445398,0.1487237,2.2122068,-0.43215466,-0.31919414,-1.0,-0.61696696,0.0,240.0
69.3,-33.722202,150.6746,0.37464786,62.459457,56.513596,-0.0031821155,0.013037769,1.4263105,-2.2421176,0.2439603,-3.787391,1.2131317,-0.2760945,1.0,-1.0,0.0,240.0
69.4,-33.722202,150.6746,0.36493218,62.46466,56.796204,-0.0035527258,0.018394152,1.3770496,-2.1895251,0.36518392,1.69308,-0.56972164,-0.2610601,1.0,-1.0,0.0,240.0
69.6,-33.722202,150.6746,0.36508644,62.468494,56.974422,-0.0035974474,0.013399874,1.3496901,-2.315068,0.5194764,-2.5979874,1.5097454,-0.40392828,-1.0,-0.5172979,0.0,240.0
69.764,-33.7222,150.67462,0.3760258,62.484615,57.406303,-0.003382544,0.013470385,1.2874954,-2.3103902,0.7471678,1.9530197,-1.0171686,-0.3629603,-1.0,-0.56444764,0.0,240.0
69.896,-33.7222,150.67462,0.37525487,62.48653,57.621365,-0.0029407647,0.011878728,1.2633294,-2.1497698,0.71875775,1.6461067,-0.91435546,-0.20543379,1.0,-1.0,0.0,240.0
70.076,-33.7222,150.67462,0.3848976,62.4976,58.076004,-0.0029055404,0.017521827,1.1851602,-2.1836767,1.0279189,1.5573581,-1.1759229,-0.30318052,-0.99999994,-0.6361833,0.0,240.0
70.2,-33.7222,150.67462,0.39342868,62.503006,58.321404,-0.0027555884,0.011953577,1.1587496,-2.0122714,0.9918635,-2.37628,3.224094,-0.14544722,1.0,-1.0,0.0,240.0
70.3,-33.7222,150.67462,0.40603197,62.539185,58.65537,-0.002746047,0.013043879,1.1081778,-1.9635552,1.1997426,1.369393,-1.30765,-0.20883672,-0.99999994,-0.6838408,0.0,240.0
70.492,-33.7222,150.67464,0.4127699,62.567673,58.853542,-0.0030415095,0.017562736,1.0741601,-2.0078385,1.4936587,-1.3736179,3.2257893,-0.43601102,-0.99999994,-0.47678667,0.0,240.0
70.648,-33.7222,150.67464,0.40448344,62.64878,59.243366,-0.0034025537,0.015808536,1.0111948,-1.8522053,1.7209862,-1.0569711,2.9347868,-0.44956705,-1.0,-0.46051952,0.0,240.0
70.8,-33.7222,150.67464,0.40529585,62.71326,59.507454,-0.0032388964,0.017622937,0.973683,-1.66563,1.6465797,-1.144825,4.1747646,-0.20312068,1.0,-1.0,0.0,240.0
70.9,-33.7222,150.67464,0.4083997,62.816048,59.876884,-0.002918826,0.0112704905,0.9130123,-1.4988908,1.8332202,0.9192077,-1.8922817,-0.23989707,-1.0,-0.63157344,0.0,240.0
71.084,-33.7222,150.67464,0.40230465,62.8787,60.078693,-0.003176229,0.020301063,0.87182117,-1.4011027,2.1462653,0.33431107,0.40719956,-0.4864378,-1.0,-0.41627458,0.0,240.0
71.24,-33.722195,150.67465,0.39016962,63.022743,60.45438,-0.003794746,0.016259357,0.8120522,-1.1522446,2.2676904,-0.0696531,3.7554862,-0.3962299,-1.0,-0.52452415,0.0,240.0
71.4,-33.722195,150.67465,0.38553286,63.148136,60.71932,-0.0036888302,0.015333462,0.7754024,-0.98356456,2.131288,0.82447314,4.2418704,-0.2337852,1.0,-1.0,0.0,240.0
71.5,-33.72219,150.67465,0.38309205,63.34193,61.09959,-0.003691121,0.017545858,0.7085997,-0.72574,2.2570167,0.17721121,-2.0258968,-0.2901506,1.0,-1.0,0.0,240.0
71.68,-33.72219,150.67465,0.383299,63.448406,61.310356,-0.003812338,0.01889118,0.6771414,-0.5471064,2.5791469,1.2976333,3.263376,-0.406096,-1.0,-0.5126848,0.0,240.0
71.848,-33.72219,150.67467,0.38376188,63.69693,61.763515,-0.0034472982,0.011381793,0.6326402,-0.38906595,2.447658,1.2122364,1.8907366,-0.30931586,-1.0,-0.64605975,0.0,240.0
72.0,-33.722187,150.67467,0.3937286,63.93623,62.147396,-0.003399802,0.014450696,0.591349,-0.19550215,2.4007597,1.0254304,0.9511745,-0.2387111,0.511343,-1.0,0.0,240.0
72.1,-33.722187,150.67467,0.4031726,64.10769,62.403927,-0.0036062195,0.015137109,0.5522038,-0.013787225,2.4097867,0.4038384,-0.36793232,-0.25712672,0.17665672,-1.0,0.0,240.0
72.3,-33.722183,150.67467,0.4126395,64.23771,62.58889,-0.0035853842,0.013695885,0.5284971,0.049290508,2.299115,-0.04876329,-1.02964,-0.18707013,0.09844828,-1.0,0.0,240.0
72.472,-33.722183,150.67468,0.43034017,64.490456,62.95109,-0.0030437002,0.016060252,0.48723882,0.37842873,2.4761581,2.5821416,2.9984808,-0.38611805,0.9247321,0.23963371,0.0,240.0
72.6,-33.72218,150.67468,0.45528018,64.79608,63.290386,-0.0034396998,0.016036915,0.42185616,0.9490297,2.8266475,1.1794353,0.45621297,-0.37336406,0.4495084,0.20670441,0.0,240.0
72.756,-33.722176,150.67468,0.47471297,65.10345,63.577625,-0.0034510174,0.01457915,0.3808516,1.2007205,2.8058064,0.55869,-0.109043725,-0.26045847,0.3592421,0.23403892,0.0,240.0
72.9,-33.722176,150.67468,0.48896646,65.3958,63.823513,-0.0030789368,0.016380938,0.3519054,1.3674201,2.7288263,0.49558505,-0.18792997,-0.13135882,0.35928974,0.22553053,0.0,240.0
73.064,-33.72217,150.67468,0.5040859,65.74193,64.09457,-0.0027776216,0.016718665,0.33526742,1.5041425,2.6477087,0.47483808,-0.38616866,-0.06431871,0.34029102,0.23440027,0.0,240.0
73.196,-33.722168,150.67468,0.51415634,65.93276,64.237915,-0.0028486499,0.017089775,0.32819802,1.5578105,2.5987537,0.36147287,-0.20791076,-0.060204234,0.32865506,0.24840945,0.0,240.0
73.396,-33.722164,150.6747,0.5443797,66.40538,64.56451,-0.0036934083,0.01702646,0.3187878,1.6770093,2.5182834,0.52197087,-0.06874423,-0.011832213,0.34023875,0.21060641,0.0,240.0
73.5,-33.72216,150.6747,0.56547415,66.786285,64.81098,-0.004070812,0.015738958,0.31186908,1.7578195,2.4551556,0.2655238,-0.39107776,-0.04066139,0.30686617,0.24968958,0.0,240.0
73.6,-33.722157,150.6747,0.57599974,67.238846,65.09567,-0.004571812,0.014013638,0.30589154,1.8372153,2.4179735,0.23950617,-0.1938603,-0.038813747,0.28500134,0.22252005,0.0,240.0
73.792,-33.722157,150.6747,0.58230495,67.472824,65.24158,-0.0044587487,0.013241276,0.30351636,1.8654348,2.3881001,0.08942219,-0.43262962,-0.01964408,0.30780128,0.19569823,0.0,240.0
73.988,-33.722153,150.6747,0.5929656,67.93758,65.52923,-0.004032242,0.014639189,0.29927874,1.9019594,2.309869,0.12263849,-0.39304152,-0.03583984,0.30236727,0.22258061,0.0,240.0
74.1,-33.72215,150.67471,0.59814,68.31267,65.75846,-0.0037393724,0.016310874,0.2962538,1.9298192,2.249526,0.49243006,-0.0143368505,-0.000446749,0.31559715,0.22219792,0.0,240.0
74.2,-33.722145,150.67471,0.6065004,68.65201,65.96595,-0.0034994602,0.015923066,0.29273862,1.96099,2.1999927,0.042850137,-0.30805263,-0.021169947,0.3419466,0.20236136,0.0,240.0
74.384,-33.72214,150.67471,0.6085868,68.86355,66.088646,-0.0032678507,0.01706547,0.29006007,1.9798782,2.1696446,0.537924,0.060722847,-0.025604445,0.3305754,0.2214089,0.0,240.0
74.584,-33.722137,150.67471,0.615317,69.26796,66.29618,-0.003089785,0.018375177,0.28455526,2.0200286,2.1001318,0.46117058,0.15742116,-0.023143772,0.3318949,0.2315776,0.0,240.0
74.7,-33.722137,150.67471,0.62885284,69.65135,66.47519,-0.0033270938,0.018724961,0.27834383,2.06493,2.037375,0.03444263,-0.2065301,-0.054456834,0.33874315,0.22697242,0.0,240.0
74.8,-33.722134,150.67471,0.62885404,70.00367,66.63228,-0.0033447663,0.019541241,0.27415234,2.0978572,1.9875065,0.40877318,0.01139137,-0.031400412,0.31315553,0.25692475,0.0,240.0
75.0,-33.72213,150.67471,0.63086593,70.207,66.72294,-0.003311722,0.019173697,0.27135774,2.1183395,1.9578555,0.13107568,-0.28911966,-0.043895647,0.3015725,0.26937538,0.0,240.0
75.176,-33.722126,150.67471,0.64119256,70.69234,66.91543,-0.0037381398,0.02005208,0.26790544,2.159875,1.8939393,-0.062498406,-0.22237225,-0.038646422,0.32703674,0.24224865,0.0,240.0
75.3,-33.722122,150.67471,0.6533339,71.13799,67.09954,-0.0038583886,0.019159175,0.26380378,2.205144,1.854319,0.06359558,-0.30908966,-0.021848522,0.31530225,0.24129592,0.0,240.0
75.4,-33.72212,150.67473,0.66272235,71.47718,67.24123,-0.0038256547,0.01918872,0.26354605,2.2173278,1.8244791,-0.1722042,-0.25823054,-0.023172436,0.31098488,0.2510626,0.0,240.0
75.6,-33.722115,150.67473,0.6752273,71.81509,67.38905,-0.0037696646,0.020070378,0.2625919,2.2316859,1.8000846,-0.007870924,-0.10788273,-0.014265671,0.32934946,0.22836931,0.0,240.0
75.772,-33.722115,150.67473,0.69366074,72.197075,67.55358,-0.0035869041,0.020481251,0.26255727,2.241355,1.7706786,0.1936946,-0.1727368,-0.0019170278,0.34640494,0.22225532,0.0,240.0
75.9,-33.72211,150.67473,0.70135915,72.595795,67.733894,-0.0035234713,0.020526137,0.25596592,2.265379,1.7372594,0.08749331,-0.28160405,-0.02989989,0.31905568,0.25042474,0.0,240.0
76.1,-33.722107,150.67473,0.7035718,72.96815,67.8987,-0.0036144224,0.019596498,0.24766,2.302392,1.7125219,0.2948202,-0.03751735,-0.024558395,0.29989874,0.25976813,0.0,240.0
76.2,-33.722103,150.67473,0.6986606,73.468605,68.11591,-0.0034764078,0.019777259,0.24396151,2.3254895,1.6903932,0.20406021,-0.11514251,0.012025845,0.30629277,0.26301455,0.0,240.0
76.364,-33.7221,150.67473,0.69692004,73.731,68.229454,-0.0037501028,0.017996043,0.23543459,2.3582425,1.6771842,-0.12237986,-0.18816492,-0.012348935,0.284837,0.24867153,0.0,240.0
76.5,-33.722095,150.67473,0.6977507,74.101906,68.380356,-0.0038729184,0.017477004,0.23420425,2.3661866,1.6647266,-0.04787751,-0.09105143,0.021050487,0.28812456,0.23988461,0.0,240.0
76.696,-33.72209,150.67473,0.7085209,74.54251,68.55668,-0.003578939,0.018653728,0.23903805,2.3498406,1.649521,-0.1729078,-0.16729274,-0.027082222,0.31718284,0.2337746,0.0,240.0
76.8,-33.722088,150.67474,0.7156873,75.00837,68.75408,-0.0033049858,0.018533878,0.23405707,2.3667133,1.6321337,-0.3164949,-0.13253187,-0.048834424,0.33344892,0.21251985,0.0,240.0
76.9,-33.722084,150.67474,0.71479964,75.26174,68.858826,-0.0031894431,0.018579502,0.23056953,2.373459,1.618587,0.26762223,-0.042725742,-0.013349926,0.3310346,0.21953374,0.0,240.0
77.1,-33.722084,150.67474,0.71948147,75.61462,69.01467,-0.0032546886,0.017137906,0.21988943,2.4174173,1.6090676,0.117088266,-0.10650919,-0.038051315,0.28602085,0.24321547,0.0,240.0
77.288,-33.722076,150.67474,0.73055017,76.106895,69.21611,-0.0032681208,0.016756317,0.21384554,2.4308553,1.5916159,0.25022912,-0.034148872,0.023523482,0.30904496,0.21726333,0.0,240.0
77.4,-33.722073,150.67474,0.72929025,76.529785,69.375565,-0.0031560569,0.017990489,0.21728061,2.4160395,1.5766428,0.29142168,0.092437334,0.0034136316,0.3310703,0.21155964,0.0,240.0
77.596,-33.722073,150.67474,0.7297194,76.78866,69.47851,-0.003094268,0.018608194,0.2161182,2.4117105,1.5582082,0.024789507,0.049206465,-0.042239062,0.3197166,0.23404607,0.0,240.0
77.7,-33.72207,150.67474,0.73266625,77.1495,69.620094,-0.0030419054,0.018916037,0.21046412,2.4289517,1.5340576,0.38798934,0.028734727,-0.033944927,0.29984054,0.25684133,0.0,240.0
77.884,-33.722065,150.67474,0.7267493,77.52015,69.75919,-0.0029546514,0.019349126,0.20655061,2.4336803,1.5025752,0.028833587,0.049233735,-0.06624644,0.30804163,0.25618666,0.0,240.0
78.0,-33.72206,150.67474,0.72565925,77.91182,69.89792,-0.0028630628,0.01970856,0.20254347,2.4448743,1.4706242,0.024296984,-0.19725999,-0.06490153,0.31281123,0.25681677,0.0,240.0
78.196,-33.722057,150.67476,0.71833956,78.22646,70.00835,-0.0030255998,0.019149592,0.19408858,2.4809675,1.448666,0.17710857,-0.11498377,-0.05305887,0.29311737,0.2580246,0.0,240.0
78.3,-33.722054,150.67476,0.71489704,78.70497,70.17314,-0.0033032338,0.018095056,0.1803186,2.5294914,1.4158899,0.3084088,0.2662278,0.0013672482,0.2620304,0.26659605,0.0,240.0
78.476,-33.72205,150.67476,0.7211288,79.08899,70.30198,-0.0032478697,0.017715419,0.17943078,2.5361445,1.40173,0.07386502,-0.1573151,0.014794841,0.2981845,0.23212898,0.0,240.0
78.6,-33.722046,150.67476,0.7328756,79.50905,70.44796,-0.002985456,0.01873352,0.1802679,2.5249043,1.3860606,0.30381832,0.19444999,0.0035727913,0.3294324,0.21606073,0.0,240.0
78.8,-33.722046,150.67476,0.73911357,79.85255,70.56611,-0.003005934,0.018645642,0.17515899,2.5388818,1.364889,0.2979197,-0.0024102966,-0.021685421,0.311311,0.23665428,0.0,240.0
78.9,-33.722042,150.67476,0.75193226,80.273476,70.70972,-0.0029993118,0.018449757,0.1684372,2.5478468,1.3337523,0.026028117,0.0033641793,-0.0472082,0.31503734,0.23293273,0.0,240.0
79.072,-33.72204,150.67476,0.7566929,80.595665,70.81972,-0.002899925,0.0186309,0.16494603,2.5577974,1.3170545,0.038942665,-0.015759764,-0.037983853,0.31240958,0.2382167,0.0,240.0
79.2,-33.722034,150.67476,0.7610861,80.966545,70.93863,-0.0028331834,0.01898097,0.16209017,2.560848,1.2920504,0.17851539,-0.12806742,-0.057416443,0.3143528,0.24376744,0.0,240.0
79.4,-33.72203,150.67476,0.7513207,81.33357,71.058525,-0.002797347,0.019955128,0.15602444,2.5719266,1.2643268,0.040147394,0.05509813,-0.048415124,0.3170346,0.24423611,0.0,240.0
79.5,-33.722027,150.67476,0.73968613,81.825554,71.2317,-0.0026213224,0.01862052,0.14424326,2.5999737,1.2318542,-0.022450425,0.004602753,-0.06030769,0.33852682,0.21072522,0.0,240.0
79.664,-33.722023,150.67476,0.7414504,82.04309,71.30192,-0.002571431,0.018775545,0.14178379,2.6048927,1.2187011,0.27121064,-0.07610117,-0.035248164,0.32649326,0.22903134,0.0,240.0
79.8,-33.722023,150.67477,0.745129,82.366745,71.40363,-0.0025342086,0.01946899,0.13729405,2.5824957,1.1890672,-2.9600427,-0.91186404,-0.02431982,-1.0,-0.9388404,0.0,240.0
79.996,-33.72202,150.67477,0.7468084,82.76397,71.55259,-0.001736194,0.016239228,0.13679181,2.1068423,1.0446894,-2.0856926,-0.6740656,0.0054800417,-1.0,-1.0,0.0,240.0
80.1,-33.722015,150.67477,0.7506027,83.07052,71.65864,-0.002534996,0.020514185,0.13265909,2.124651,1.0015156,3.751882,0.6462086,-0.32055244,-1.0,-0.779886,0.0,240.0
